{"type":"FeatureCollection","features":[
{"geometry": {"type": "Point", "coordinates": [-76.6354, 36.3417]}, "type": "Feature", "properties": {"lat": 36.3417, "long": -76.6354, "ID": 26, "OBJECTID": 1, "location": "Chawons [Mintonsville]"}},
{"geometry": {"type": "Point", "coordinates": [-76.8698, 36.375]}, "type": "Feature", "properties": {"lat": 36.375, "long": -76.8698, "ID": 27, "OBJECTID": 2, "location": "Mangoags (estimate 10-20 miles west of Chawons)"}},
{"geometry": {"type": "Point", "coordinates": [-75.9543, 36.7234]}, "type": "Feature", "properties": {"lat": 36.7234, "long": -75.9543, "ID": 25, "OBJECTID": 3, "location": "Virginia Beach South [North Bay, seen from barge]"}},
{"geometry": {"type": "Point", "coordinates": [-76.9224, 37.114]}, "type": "Feature", "properties": {"lat": 37.114, "long": -76.9224, "ID": 18, "OBJECTID": 4, "location": "Grays Creek in the fork of Dark Swamp [Surry]"}},
{"geometry": {"type": "Point", "coordinates": [-75.922, 37.2872]}, "type": "Feature", "properties": {"lat": 37.2872, "long": -75.922, "ID": 1, "OBJECTID": 5, "location": "Oyster [Cheriton]"}},
{"geometry": {"type": "Point", "coordinates": [-76.5866, 37.5786]}, "type": "Feature", "properties": {"lat": 37.5786, "long": -76.5866, "ID": 24, "OBJECTID": 6, "location": "Piankatank River [Dunnsville]"}},
{"geometry": {"type": "Point", "coordinates": [-77.29, 37.6751]}, "type": "Feature", "properties": {"lat": 37.6751, "long": -77.29, "ID": 23, "OBJECTID": 7, "location": "Maskunt on the Pamunkey River [Studley, Manquin]"}},
{"geometry": {"type": "Point", "coordinates": [-77.1523, 37.7096]}, "type": "Feature", "properties": {"lat": 37.7096, "long": -77.1523, "ID": 21, "OBJECTID": 8, "location": "Washatiask on the Pamunkey River [Manquin]"}},
{"geometry": {"type": "Point", "coordinates": [-77.1042, 37.7866]}, "type": "Feature", "properties": {"lat": 37.7866, "long": -77.1042, "ID": 22, "OBJECTID": 9, "location": "Mattaponi River [Aylett]"}},
{"geometry": {"type": "Point", "coordinates": [-75.5709, 38.0769]}, "type": "Feature", "properties": {"lat": 38.0769, "long": -75.5709, "ID": 2, "OBJECTID": 10, "location": "Pocomoke River [Pocomoke City]"}},
{"geometry": {"type": "Point", "coordinates": [-77.48997, 38.32255]}, "type": "Feature", "properties": {"lat": 38.32255, "long": -77.48997, "ID": 14, "OBJECTID": 11, "location": "Fall Hill overlooking site of former Embry Dam [Fredericksburg]"}},
{"geometry": {"type": "Point", "coordinates": [-77.4682, 38.3232]}, "type": "Feature", "properties": {"lat": 38.3232, "long": -77.4682, "ID": 13, "OBJECTID": 12, "location": "Falmouth [Fredericksburg]"}},
{"geometry": {"type": "Point", "coordinates": [-77.485, 38.487]}, "type": "Feature", "properties": {"lat": 38.487, "long": -77.485, "ID": 7, "OBJECTID": 13, "location": "Aquia Creek [Stafford]"}},
{"geometry": {"type": "Point", "coordinates": [-75.7198, 38.5439]}, "type": "Feature", "properties": {"lat": 38.5439, "long": -75.7198, "ID": 3, "OBJECTID": 14, "location": "Kuskarawaok River [Nanticoke right bank, opposite Broad Creek, Sharptown]"}},
{"geometry": {"type": "Point", "coordinates": [-77.3842, 38.56168]}, "type": "Feature", "properties": {"lat": 38.56168, "long": -77.3842, "ID": 6, "OBJECTID": 15, "location": "Burtons Mount [Joplin]"}},
{"geometry": {"type": "Point", "coordinates": [-77.2532, 38.9968]}, "type": "Feature", "properties": {"lat": 38.9968, "long": -77.2532, "ID": 5, "OBJECTID": 16, "location": "Great Falls [Falls Church]"}},
{"geometry": {"type": "Point", "coordinates": [-76.7835, 39.3025]}, "type": "Feature", "properties": {"lat": 39.3025, "long": -76.7835, "ID": 4, "OBJECTID": 17, "location": "Blands Content overlooking Patapsco River [Relay]"}},
{"geometry": {"type": "Point", "coordinates": [-75.8065, 39.3755]}, "type": "Feature", "properties": {"lat": 39.3755, "long": -75.8065, "ID": 11, "OBJECTID": 18, "location": "Sassafras River [Millington]"}},
{"geometry": {"type": "Point", "coordinates": [-76.2494, 39.4536]}, "type": "Feature", "properties": {"lat": 39.4536, "long": -76.2494, "ID": 12, "OBJECTID": 19, "location": "Bush River on Bush River Point [Edgewood]"}},
{"geometry": {"type": "Point", "coordinates": [-75.8381, 39.5996]}, "type": "Feature", "properties": {"lat": 39.5996, "long": -75.8381, "ID": 9, "OBJECTID": 20, "location": "North East at the fork of North East and Little North East creeks [North East]"}},
{"geometry": {"type": "Point", "coordinates": [-75.7525, 39.6429]}, "type": "Feature", "properties": {"lat": 39.6429, "long": -75.7525, "ID": 10, "OBJECTID": 21, "location": "Peregryns Mount, Iron Hill [Newark West]"}},
{"geometry": {"type": "Point", "coordinates": [-76.30626, 39.8079]}, "type": "Feature", "properties": {"lat": 39.8079, "long": -76.30626, "ID": 8, "OBJECTID": 22, "location": "Smiths Falls [Aberdeen]"}}
]}