{"type":"FeatureCollection","features":[
{"geometry": {"type": "Point", "coordinates": [-76.63814, 36.70329]}, "type": "Feature", "properties": {"TotCas": -99, "CSACom": "Longstreet", "OBJECTID": 1, "Campaign": "Longstreet's Tidewater Operations", "BeginDay": 13, "EndDay": 15, "OtherName": "Norfleet House Battery", "BeginMonth": 4, "EndMonth": 4, "USCas": -99, "State": "VA", "EndYear": 1863, "USACom": "Peck", "Location": "Suffolk", "Battle": "Suffolk", "CSCas": -99, "CSTroops": -99, "Victor": "INC", "BeginYear": 1863, "USTroops": -99}},
{"geometry": {"type": "Point", "coordinates": [-76.28748, 36.91675]}, "type": "Feature", "properties": {"TotCas": 10, "CSACom": "Gwynn", "OBJECTID": 2, "Campaign": "Blockade of the Chesapeake Bay", "BeginDay": 18, "EndDay": 19, "OtherName": " ", "BeginMonth": 5, "EndMonth": 5, "USCas": -99, "State": "VA", "EndYear": 1861, "USACom": "Braine", "Location": "Norfolk", "Battle": "Sewell's Point", "CSCas": -99, "CSTroops": -99, "Victor": "INC", "BeginYear": 1861, "USTroops": -99}},
{"geometry": {"type": "Point", "coordinates": [-76.35, 36.975]}, "type": "Feature", "properties": {"TotCas": 433, "CSACom": "Buchanan", "OBJECTID": 3, "Campaign": "Peninsula", "BeginDay": 8, "EndDay": 8, "OtherName": "Monitor Vs. Virginia (Merrimack)", "BeginMonth": 3, "EndMonth": 3, "USCas": 409, "State": "VA", "EndYear": 1862, "USACom": "Worden", "Location": "Hampton Roads", "Battle": "Hampton Roads", "CSCas": 24, "CSTroops": -99, "Victor": "INC", "BeginYear": 1862, "USTroops": -99}},
{"geometry": {"type": "Point", "coordinates": [-76.63682, 36.98106]}, "type": "Feature", "properties": {"TotCas": 152, "CSACom": "Longstreet", "OBJECTID": 4, "Campaign": "Longstreet's Tidewater Operations", "BeginDay": 11, "EndDay": 4, "OtherName": "Fort Huger", "BeginMonth": 4, "EndMonth": 5, "USCas": -99, "State": "VA", "EndYear": 1863, "USACom": "Peck", "Location": "Suffolk", "Battle": "Suffolk", "CSCas": -99, "CSTroops": -99, "Victor": "INC", "BeginYear": 1863, "USTroops": -99}},
{"geometry": {"type": "Point", "coordinates": [-77.37708, 37.21759]}, "type": "Feature", "properties": {"TotCas": 8630, "CSACom": "Early", "OBJECTID": 5, "Campaign": "Sheridan's Shenandoah Valley", "BeginDay": 19, "EndDay": 19, "OtherName": "Third Winchester", "BeginMonth": 9, "EndMonth": 9, "USCas": 5020, "State": "VA", "EndYear": 1864, "USACom": "Sheridan", "Location": "Frederick", "Battle": "Opequon", "CSCas": 3610, "CSTroops": 15200, "Victor": "USA", "BeginYear": 1864, "USTroops": 39240}},
{"geometry": {"type": "Point", "coordinates": [-77.37708, 37.21759]}, "type": "Feature", "properties": {"TotCas": 3800, "CSACom": "Hill", "OBJECTID": 6, "Campaign": "Richmond-Petersburg", "BeginDay": 30, "EndDay": 2, "OtherName": "Poplar Springs Church", "BeginMonth": 9, "EndMonth": 10, "USCas": -99, "State": "VA", "EndYear": 1864, "USACom": "Meade", "Location": "Dinwiddie", "Battle": "Peebles Farm", "CSCas": -99, "CSTroops": -99, "Victor": "USA", "BeginYear": 1864, "USTroops": -99}},
{"geometry": {"type": "Point", "coordinates": [-77.37708, 37.21759]}, "type": "Feature", "properties": {"TotCas": 120, "CSACom": "Beauregard", "OBJECTID": 7, "Campaign": "Richmond-Petersburg", "BeginDay": 9, "EndDay": 9, "OtherName": " ", "BeginMonth": 6, "EndMonth": 6, "USCas": -99, "State": "VA", "EndYear": 1864, "USACom": "Gillmore", "Location": "Petersburg", "Battle": "Petersburg", "CSCas": -99, "CSTroops": 2500, "Victor": "CSA", "BeginYear": 1864, "USTroops": 4500}},
{"geometry": {"type": "Point", "coordinates": [-77.37708, 37.21759]}, "type": "Feature", "properties": {"TotCas": 11386, "CSACom": "Lee, R.E.", "OBJECTID": 8, "Campaign": "Richmond-Petersburg", "BeginDay": 15, "EndDay": 18, "OtherName": " ", "BeginMonth": 6, "EndMonth": 6, "USCas": 8150, "State": "VA", "EndYear": 1864, "USACom": "Grant", "Location": "Petersburg", "Battle": "Petersburg", "CSCas": 3236, "CSTroops": 42000, "Victor": "CSA", "BeginYear": 1864, "USTroops": 62000}},
{"geometry": {"type": "Point", "coordinates": [-77.37708, 37.21759]}, "type": "Feature", "properties": {"TotCas": 7750, "CSACom": "Lee, R.E.", "OBJECTID": 9, "Campaign": "Appomattox", "BeginDay": 2, "EndDay": 2, "OtherName": " ", "BeginMonth": 4, "EndMonth": 4, "USCas": 3500, "State": "VA", "EndYear": 1865, "USACom": "Grant", "Location": "Petersburg", "Battle": "Petersburg", "CSCas": 4250, "CSTroops": -99, "Victor": "USA", "BeginYear": 1865, "USTroops": -99}},
{"geometry": {"type": "Point", "coordinates": [-77.36, 37.2325]}, "type": "Feature", "properties": {"TotCas": 3058, "CSACom": "Heth", "OBJECTID": 10, "Campaign": "Richmond-Petersburg", "BeginDay": 27, "EndDay": 28, "OtherName": "Hatcher's Run", "BeginMonth": 10, "EndMonth": 10, "USCas": 1758, "State": "VA", "EndYear": 1864, "USACom": "Hancock", "Location": "Dinwiddie", "Battle": "Boydton Plank Road", "CSCas": 1300, "CSTroops": -99, "Victor": "CSA", "BeginYear": 1864, "USTroops": -99}},
{"geometry": {"type": "Point", "coordinates": [-77.36, 37.2325]}, "type": "Feature", "properties": {"TotCas": 5300, "CSACom": "Lee, R.E.", "OBJECTID": 11, "Campaign": "Richmond-Petersburg", "BeginDay": 30, "EndDay": 30, "OtherName": "The Mine", "BeginMonth": 7, "EndMonth": 7, "USCas": -99, "State": "VA", "EndYear": 1864, "USACom": "Burnside", "Location": "Petersburg", "Battle": "Crater", "CSCas": -99, "CSTroops": -99, "Victor": "CSA", "BeginYear": 1864, "USTroops": -99}},
{"geometry": {"type": "Point", "coordinates": [-77.36, 37.2325]}, "type": "Feature", "properties": {"TotCas": 3850, "CSACom": "Lee, R.E.", "OBJECTID": 12, "Campaign": "Richmond-Petersburg", "BeginDay": 25, "EndDay": 25, "OtherName": " ", "BeginMonth": 3, "EndMonth": 3, "USCas": 950, "State": "VA", "EndYear": 1865, "USACom": "Parke", "Location": "Petersburg", "Battle": "Fort Stedman", "CSCas": 2900, "CSTroops": -99, "Victor": "USA", "BeginYear": 1865, "USTroops": -99}},
{"geometry": {"type": "Point", "coordinates": [-77.36, 37.2325]}, "type": "Feature", "properties": {"TotCas": 5879, "CSACom": "Lee, R.E.", "OBJECTID": 13, "Campaign": "Richmond-Petersburg", "BeginDay": 18, "EndDay": 21, "OtherName": "Second Battle of Weldon Railroad", "BeginMonth": 8, "EndMonth": 8, "USCas": 4279, "State": "VA", "EndYear": 1864, "USACom": "Warren", "Location": "Dinwiddie", "Battle": "Globe Tavern", "CSCas": 1600, "CSTroops": -99, "Victor": "USA", "BeginYear": 1864, "USTroops": -99}},
{"geometry": {"type": "Point", "coordinates": [-77.36, 37.2325]}, "type": "Feature", "properties": {"TotCas": 0, "CSACom": "Gordon", "OBJECTID": 14, "Campaign": "Richmond-Petersburg", "BeginDay": 5, "EndDay": 7, "OtherName": "Dabney's Mill", "BeginMonth": 2, "EndMonth": 2, "USCas": -99, "State": "VA", "EndYear": 1865, "USACom": "Humphreys", "Location": "Dinwiddie", "Battle": "Hatcher's Run", "CSCas": -99, "CSTroops": 0, "Victor": "INC", "BeginYear": 1865, "USTroops": 34517}},
{"geometry": {"type": "Point", "coordinates": [-77.36, 37.2325]}, "type": "Feature", "properties": {"TotCas": 4000, "CSACom": "Lee, R.E.", "OBJECTID": 15, "Campaign": "Richmond-Petersburg", "BeginDay": 21, "EndDay": 24, "OtherName": "First Battle of Weldon Road", "BeginMonth": 6, "EndMonth": 6, "USCas": -99, "State": "VA", "EndYear": 1864, "USACom": "Grant", "Location": "Dinwiddie", "Battle": "Jerusalem Plank Road", "CSCas": -99, "CSTroops": -99, "Victor": "INC", "BeginYear": 1864, "USTroops": -99}},
{"geometry": {"type": "Point", "coordinates": [-77.72611, 37.24889]}, "type": "Feature", "properties": {"TotCas": 75, "CSACom": "Lee, F.", "OBJECTID": 16, "Campaign": "Appomattox", "BeginDay": 3, "EndDay": 3, "OtherName": " ", "BeginMonth": 4, "EndMonth": 4, "USCas": -99, "State": "VA", "EndYear": 1865, "USACom": "Custer", "Location": "Amelia", "Battle": "Namozine Church", "CSCas": -99, "CSTroops": -99, "Victor": "INC", "BeginYear": 1865, "USTroops": -99}},
{"geometry": {"type": "Point", "coordinates": [-78.27926, 37.27213]}, "type": "Feature", "properties": {"TotCas": -99, "CSACom": "Longstreet", "OBJECTID": 17, "Campaign": "Appomattox", "BeginDay": 6, "EndDay": 6, "OtherName": " ", "BeginMonth": 4, "EndMonth": 4, "USCas": -99, "State": "VA", "EndYear": 1865, "USACom": "Gibbon", "Location": "Prince Edward", "Battle": "Rice's Station", "CSCas": -99, "CSTroops": -99, "Victor": "USA", "BeginYear": 1865, "USTroops": -99}},
{"geometry": {"type": "Point", "coordinates": [-77.4175, 37.27222]}, "type": "Feature", "properties": {"TotCas": 990, "CSACom": "Beauregard", "OBJECTID": 18, "Campaign": "Bermuda Hundred", "BeginDay": 9, "EndDay": 9, "OtherName": " ", "BeginMonth": 5, "EndMonth": 5, "USCas": -99, "State": "VA", "EndYear": 1864, "USACom": "Butler", "Location": "Chesterfield", "Battle": "Swift Creek", "CSCas": -99, "CSTroops": -99, "Victor": "INC", "BeginYear": 1864, "USTroops": -99}},
{"geometry": {"type": "Point", "coordinates": [-76.93389, 37.29139]}, "type": "Feature", "properties": {"TotCas": 165, "CSACom": "Lee, F.", "OBJECTID": 19, "Campaign": "Grant's Overland", "BeginDay": 24, "EndDay": 24, "OtherName": "Fort Pocahontas", "BeginMonth": 5, "EndMonth": 5, "USCas": -99, "State": "VA", "EndYear": 1864, "USACom": "Wild", "Location": "Charles City", "Battle": "Wilson's Wharf", "CSCas": -99, "CSTroops": -99, "Victor": "USA", "BeginYear": 1864, "USTroops": -99}},
{"geometry": {"type": "Point", "coordinates": [-78.09444, 37.29417]}, "type": "Feature", "properties": {"TotCas": 250, "CSACom": "Rosser", "OBJECTID": 20, "Campaign": "Appomattox", "BeginDay": 5, "EndDay": 5, "OtherName": " ", "BeginMonth": 4, "EndMonth": 4, "USCas": -99, "State": "VA", "EndYear": 1865, "USACom": "Crook", "Location": "Amelia Springs", "Battle": "Amelia Springs", "CSCas": -99, "CSTroops": -99, "Victor": "INC", "BeginYear": 1865, "USTroops": -99}},
{"geometry": {"type": "Point", "coordinates": [-78.32083, 37.31222]}, "type": "Feature", "properties": {"TotCas": 1200, "CSACom": "Mahone", "OBJECTID": 21, "Campaign": "Appomattox", "BeginDay": 6, "EndDay": 7, "OtherName": " ", "BeginMonth": 4, "EndMonth": 4, "USCas": -99, "State": "VA", "EndYear": 1864, "USACom": "Read", "Location": "Prince Edward", "Battle": "High Bridge", "CSCas": -99, "CSTroops": -99, "Victor": "INC", "BeginYear": 1864, "USTroops": -99}},
{"geometry": {"type": "Point", "coordinates": [-77.40556, 37.3225]}, "type": "Feature", "properties": {"TotCas": 550, "CSACom": "Hagood", "OBJECTID": 22, "Campaign": "Bermuda Hundred", "BeginDay": 6, "EndDay": 7, "OtherName": " ", "BeginMonth": 5, "EndMonth": 5, "USCas": -99, "State": "VA", "EndYear": 1864, "USACom": "Butler", "Location": "Chesterfield", "Battle": "Port Walthall Junction", "CSCas": -99, "CSTroops": -99, "Victor": "USA", "BeginYear": 1864, "USTroops": -99}},
{"geometry": {"type": "Point", "coordinates": [-78.16861, 37.32806]}, "type": "Feature", "properties": {"TotCas": 9980, "CSACom": "Ewell", "OBJECTID": 23, "Campaign": "Appomattox", "BeginDay": 6, "EndDay": 6, "OtherName": "Hillsman Farm", "BeginMonth": 4, "EndMonth": 4, "USCas": -99, "State": "VA", "EndYear": 1865, "USACom": "Sheridan", "Location": "Amelia", "Battle": "Sailor's Creek", "CSCas": -99, "CSTroops": -99, "Victor": "USA", "BeginYear": 1865, "USTroops": -99}},
{"geometry": {"type": "Point", "coordinates": [-77.27167, 37.34139]}, "type": "Feature", "properties": {"TotCas": 6660, "CSACom": "Beauregard", "OBJECTID": 24, "Campaign": "Bermuda Hundred", "BeginDay": 12, "EndDay": 16, "OtherName": "Drewry's Bluff", "BeginMonth": 5, "EndMonth": 5, "USCas": -99, "State": "VA", "EndYear": 1864, "USACom": "Butler", "Location": "Chesterfield", "Battle": "Proctor's Creek", "CSCas": -99, "CSTroops": 18000, "Victor": "CSA", "BeginYear": 1864, "USTroops": 30000}},
{"geometry": {"type": "Point", "coordinates": [-78.38667, 37.34611]}, "type": "Feature", "properties": {"TotCas": 910, "CSACom": "Lee, R.E.", "OBJECTID": 25, "Campaign": "Appomattox", "BeginDay": 7, "EndDay": 7, "OtherName": "Farmville", "BeginMonth": 4, "EndMonth": 4, "USCas": 655, "State": "VA", "EndYear": 1865, "USACom": "Humphreys", "Location": "Cumberland", "Battle": "Cumberland Church", "CSCas": 255, "CSTroops": -99, "Victor": "CSA", "BeginYear": 1865, "USTroops": -99}},
{"geometry": {"type": "Point", "coordinates": [-77.44194, 37.35667]}, "type": "Feature", "properties": {"TotCas": 569, "CSACom": "Beauregard", "OBJECTID": 26, "Campaign": "Bermuda Hundred", "BeginDay": 10, "EndDay": 10, "OtherName": " ", "BeginMonth": 5, "EndMonth": 5, "USCas": -99, "State": "VA", "EndYear": 1864, "USACom": "Butler", "Location": "Chesterfield", "Battle": "Chester Station", "CSCas": -99, "CSTroops": -99, "Victor": "INC", "BeginYear": 1864, "USTroops": -99}},
{"geometry": {"type": "Point", "coordinates": [-77.50528, 37.37694]}, "type": "Feature", "properties": {"TotCas": 1500, "CSACom": "Beauregard", "OBJECTID": 27, "Campaign": "Bermuda Hundred", "BeginDay": 20, "EndDay": 20, "OtherName": " ", "BeginMonth": 5, "EndMonth": 5, "USCas": -99, "State": "VA", "EndYear": 1864, "USACom": "Butler", "Location": "Chesterfield", "Battle": "Ware Bottom Church", "CSCas": -99, "CSTroops": -99, "Victor": "CSA", "BeginYear": 1864, "USTroops": -99}},
{"geometry": {"type": "Point", "coordinates": [-78.79667, 37.37722]}, "type": "Feature", "properties": {"TotCas": -99, "CSACom": "Walker", "OBJECTID": 28, "Campaign": "Appomattox", "BeginDay": 8, "EndDay": 8, "OtherName": " ", "BeginMonth": 4, "EndMonth": 4, "USCas": -99, "State": "VA", "EndYear": 1865, "USACom": "Custer", "Location": "Appomattox", "Battle": "Appomattox Station", "CSCas": -99, "CSTroops": -99, "Victor": "USA", "BeginYear": 1865, "USTroops": -99}},
{"geometry": {"type": "Point", "coordinates": [-78.79556, 37.37722]}, "type": "Feature", "properties": {"TotCas": 700, "CSACom": "Lee, R.E.", "OBJECTID": 29, "Campaign": "Appomattox", "BeginDay": 9, "EndDay": 9, "OtherName": " ", "BeginMonth": 4, "EndMonth": 4, "USCas": -99, "State": "VA", "EndYear": 1865, "USACom": "Grant", "Location": "Appomattox", "Battle": "Appomattox Court House", "CSCas": -99, "CSTroops": -99, "Victor": "USA", "BeginYear": 1865, "USTroops": -99}},
{"geometry": {"type": "Point", "coordinates": [-77.1357, 37.4134]}, "type": "Feature", "properties": {"TotCas": 630, "CSACom": "Hampton", "OBJECTID": 30, "Campaign": "Grant's Overland", "BeginDay": 24, "EndDay": 24, "OtherName": " ", "BeginMonth": 6, "EndMonth": 6, "USCas": -99, "State": "VA", "EndYear": 1864, "USACom": "Sheridan", "Location": "Charles City", "Battle": "Saint Mary's Church", "CSCas": -99, "CSTroops": -99, "Victor": "INC", "BeginYear": 1864, "USTroops": -99}},
{"geometry": {"type": "Point", "coordinates": [-79.1425, 37.41361]}, "type": "Feature", "properties": {"TotCas": 900, "CSACom": "Early", "OBJECTID": 31, "Campaign": "Lynchburg", "BeginDay": 17, "EndDay": 18, "OtherName": " ", "BeginMonth": 6, "EndMonth": 6, "USCas": -99, "State": "VA", "EndYear": 1864, "USACom": "Hunter", "Location": "Lynchburg", "Battle": "Lynchburg", "CSCas": -99, "CSTroops": -99, "Victor": "CSA", "BeginYear": 1864, "USTroops": -99}},
{"geometry": {"type": "Point", "coordinates": [-77.42639, 37.42111]}, "type": "Feature", "properties": {"TotCas": 41, "CSACom": "Farrand", "OBJECTID": 32, "Campaign": "Peninsula", "BeginDay": 15, "EndDay": 15, "OtherName": "Fort Darling", "BeginMonth": 5, "EndMonth": 5, "USCas": -99, "State": "VA", "EndYear": 1862, "USACom": "Rodgers", "Location": "Chesterfield", "Battle": "Drewry's Bluff", "CSCas": -99, "CSTroops": -99, "Victor": "CSA", "BeginYear": 1862, "USTroops": -99}},
{"geometry": {"type": "Point", "coordinates": [-77.37389, 37.42917]}, "type": "Feature", "properties": {"TotCas": 4430, "CSACom": "Lee, R.E.", "OBJECTID": 33, "Campaign": "Richmond-Petersburg", "BeginDay": 29, "EndDay": 30, "OtherName": "New Market Heights", "BeginMonth": 9, "EndMonth": 9, "USCas": -99, "State": "VA", "EndYear": 1864, "USACom": "Butler", "Location": "Henrico", "Battle": "Chaffins Farm", "CSCas": -99, "CSTroops": -99, "Victor": "USA", "BeginYear": 1864, "USTroops": -99}},
{"geometry": {"type": "Point", "coordinates": [-77.23333, 37.44556]}, "type": "Feature", "properties": {"TotCas": 6500, "CSACom": "Lee, R.E.", "OBJECTID": 34, "Campaign": "Peninsula", "BeginDay": 30, "EndDay": 30, "OtherName": "Nelson's Farm", "BeginMonth": 6, "EndMonth": 6, "USCas": -99, "State": "VA", "EndYear": 1862, "USACom": "McClellan", "Location": "Henrico", "Battle": "Glendale", "CSCas": -99, "CSTroops": -99, "Victor": "INC", "BeginYear": 1862, "USTroops": -99}},
{"geometry": {"type": "Point", "coordinates": [-77.30972, 37.46056]}, "type": "Feature", "properties": {"TotCas": 1000, "CSACom": "Fields", "OBJECTID": 35, "Campaign": "Richmond-Petersburg", "BeginDay": 27, "EndDay": 29, "OtherName": "Darbytown", "BeginMonth": 7, "EndMonth": 7, "USCas": -99, "State": "VA", "EndYear": 1864, "USACom": "Hancock", "Location": "Henrico", "Battle": "Deep Bottom I", "CSCas": -99, "CSTroops": -99, "Victor": "CSA", "BeginYear": 1864, "USTroops": -99}},
{"geometry": {"type": "Point", "coordinates": [-77.30972, 37.46056]}, "type": "Feature", "properties": {"TotCas": 4600, "CSACom": "Lee, R.E.", "OBJECTID": 36, "Campaign": "Richmond-Petersburg", "BeginDay": 13, "EndDay": 20, "OtherName": "New Market Road", "BeginMonth": 8, "EndMonth": 8, "USCas": -99, "State": "VA", "EndYear": 1864, "USACom": "Hancock", "Location": "Henrico", "Battle": "Deep Bottom II", "CSCas": -99, "CSTroops": -99, "Victor": "CSA", "BeginYear": 1864, "USTroops": -99}},
{"geometry": {"type": "Point", "coordinates": [-77.21025, 37.4708]}, "type": "Feature", "properties": {"TotCas": 500, "CSACom": "Jackson", "OBJECTID": 37, "Campaign": "Peninsula", "BeginDay": 30, "EndDay": 30, "OtherName": " ", "BeginMonth": 6, "EndMonth": 6, "USCas": -99, "State": "VA", "EndYear": 1862, "USACom": "Franklin", "Location": "Henrico", "Battle": "White Oak Swamp", "CSCas": -99, "CSTroops": -99, "Victor": "INC", "BeginYear": 1862, "USTroops": -99}},
{"geometry": {"type": "Point", "coordinates": [-77.368, 37.49153]}, "type": "Feature", "properties": {"TotCas": 1750, "CSACom": "Lee, R.E.", "OBJECTID": 38, "Campaign": "Richmond-Petersburg", "BeginDay": 7, "EndDay": 7, "OtherName": "Johnson's Farm", "BeginMonth": 10, "EndMonth": 10, "USCas": -99, "State": "VA", "EndYear": 1864, "USACom": "Kautz", "Location": "Henrico", "Battle": "Darbytown & New Market Roads", "CSCas": -99, "CSTroops": -99, "Victor": "USA", "BeginYear": 1864, "USTroops": -99}},
{"geometry": {"type": "Point", "coordinates": [-77.368, 37.49153]}, "type": "Feature", "properties": {"TotCas": 950, "CSACom": "Anderson", "OBJECTID": 39, "Campaign": "Richmond-Petersburg", "BeginDay": 13, "EndDay": 13, "OtherName": "Alms House", "BeginMonth": 10, "EndMonth": 10, "USCas": -99, "State": "VA", "EndYear": 1864, "USACom": "Terry", "Location": "Henrico", "Battle": "Darbytown Road", "CSCas": -99, "CSTroops": -99, "Victor": "CSA", "BeginYear": 1864, "USTroops": -99}},
{"geometry": {"type": "Point", "coordinates": [-77.3292, 37.5154]}, "type": "Feature", "properties": {"TotCas": 1057, "CSACom": "Lee, R.E.", "OBJECTID": 40, "Campaign": "Peninsula", "BeginDay": 25, "EndDay": 25, "OtherName": "French's Field", "BeginMonth": 6, "EndMonth": 6, "USCas": 516, "State": "VA", "EndYear": 1862, "USACom": "McClellan", "Location": "Henrico", "Battle": "Oak Grove", "CSCas": 541, "CSTroops": -99, "Victor": "INC", "BeginYear": 1862, "USTroops": -99}},
{"geometry": {"type": "Point", "coordinates": [-77.3042, 37.5209]}, "type": "Feature", "properties": {"TotCas": 13736, "CSACom": "Johnston", "OBJECTID": 41, "Campaign": "Peninsula", "BeginDay": 31, "EndDay": 1, "OtherName": "Fair Oaks Station", "BeginMonth": 5, "EndMonth": 6, "USCas": 5739, "State": "VA", "EndYear": 1862, "USACom": "McClellan", "Location": "Henrico", "Battle": "Seven Pines", "CSCas": 7997, "CSTroops": -99, "Victor": "INC", "BeginYear": 1862, "USTroops": -99}},
{"geometry": {"type": "Point", "coordinates": [-77.31639, 37.53056]}, "type": "Feature", "properties": {"TotCas": 1750, "CSACom": "Longstreet", "OBJECTID": 42, "Campaign": "Richmond-Petersburg", "BeginDay": 27, "EndDay": 28, "OtherName": "Second Fair Oaks", "BeginMonth": 10, "EndMonth": 10, "USCas": -99, "State": "VA", "EndYear": 1864, "USACom": "Butler", "Location": "Henrico", "Battle": "Fair Oaks & Darbytown Road", "CSCas": -99, "CSTroops": -99, "Victor": "CSA", "BeginYear": 1864, "USTroops": -99}},
{"geometry": {"type": "Point", "coordinates": [-77.4378, 37.54627]}, "type": "Feature", "properties": {"TotCas": 8500, "CSACom": "Lee, R.E.", "OBJECTID": 43, "Campaign": "Peninsula", "BeginDay": 1, "EndDay": 1, "OtherName": "Poindexter\u2019s Farm", "BeginMonth": 7, "EndMonth": 7, "USCas": -99, "State": "VA", "EndYear": 1862, "USACom": "McClellan", "Location": "Henrico", "Battle": "Malvern Hill", "CSCas": -99, "CSTroops": -99, "Victor": "USA", "BeginYear": 1862, "USTroops": -99}},
{"geometry": {"type": "Point", "coordinates": [-77.3145, 37.5532]}, "type": "Feature", "properties": {"TotCas": 830, "CSACom": "Magruder", "OBJECTID": 44, "Campaign": "Peninsula", "BeginDay": 27, "EndDay": 28, "OtherName": " ", "BeginMonth": 6, "EndMonth": 6, "USCas": -99, "State": "VA", "EndYear": 1862, "USACom": "McClellan", "Location": "Henrico", "Battle": "Garnett's and Golding's Farm", "CSCas": -99, "CSTroops": -99, "Victor": "INC", "BeginYear": 1862, "USTroops": -99}},
{"geometry": {"type": "Point", "coordinates": [-77.37361, 37.60861]}, "type": "Feature", "properties": {"TotCas": 1700, "CSACom": "Lee, R.E.", "OBJECTID": 45, "Campaign": "Peninsula", "BeginDay": 26, "EndDay": 26, "OtherName": "Mechanicsville", "BeginMonth": 6, "EndMonth": 6, "USCas": 400, "State": "VA", "EndYear": 1862, "USACom": "Porter", "Location": "Hanover", "Battle": "Beaver Dam Creek", "CSCas": 1300, "CSTroops": 16356, "Victor": "USA", "BeginYear": 1862, "USTroops": 15631}},
{"geometry": {"type": "Point", "coordinates": [-77.33946, 37.62815]}, "type": "Feature", "properties": {"TotCas": 15500, "CSACom": "Lee, R.E.", "OBJECTID": 46, "Campaign": "Peninsula", "BeginDay": 27, "EndDay": 27, "OtherName": "First Cold Harbor", "BeginMonth": 6, "EndMonth": 6, "USCas": 6800, "State": "VA", "EndYear": 1862, "USACom": "Porter", "Location": "Hanover", "Battle": "Gaines' Mill", "CSCas": 8700, "CSTroops": 57018, "Victor": "CSA", "BeginYear": 1862, "USTroops": 34214}},
{"geometry": {"type": "Point", "coordinates": [-77.33946, 37.62815]}, "type": "Feature", "properties": {"TotCas": 15500, "CSACom": "Lee, R.E.", "OBJECTID": 47, "Campaign": "Grant's Overland", "BeginDay": 31, "EndDay": 12, "OtherName": "Second Cold Harbor", "BeginMonth": 5, "EndMonth": 6, "USCas": 13000, "State": "VA", "EndYear": 1864, "USACom": "Grant", "Location": "Hanover", "Battle": "Cold Harbor", "CSCas": 2500, "CSTroops": 62000, "Victor": "CSA", "BeginYear": 1864, "USTroops": 108000}},
{"geometry": {"type": "Point", "coordinates": [-77.45917, 37.63472]}, "type": "Feature", "properties": {"TotCas": 800, "CSACom": "Stuart", "OBJECTID": 48, "Campaign": "Grant's Overland", "BeginDay": 11, "EndDay": 11, "OtherName": " ", "BeginMonth": 5, "EndMonth": 5, "USCas": -99, "State": "VA", "EndYear": 1864, "USACom": "Sheridan", "Location": "Henrico", "Battle": "Yellow Tavern", "CSCas": -99, "CSTroops": -99, "Victor": "USA", "BeginYear": 1864, "USTroops": -99}},
{"geometry": {"type": "Point", "coordinates": [-77.50667, 37.66583]}, "type": "Feature", "properties": {"TotCas": 4700, "CSACom": "Magruder", "OBJECTID": 49, "Campaign": "Peninsula", "BeginDay": 29, "EndDay": 29, "OtherName": " ", "BeginMonth": 6, "EndMonth": 6, "USCas": -99, "State": "VA", "EndYear": 1862, "USACom": "Sumner", "Location": "Henrico", "Battle": "Savage's Station", "CSCas": -99, "CSTroops": -99, "Victor": "INC", "BeginYear": 1862, "USTroops": -99}},
{"geometry": {"type": "Point", "coordinates": [-79.49083, 38.33556]}, "type": "Feature", "properties": {"TotCas": 720, "CSACom": "Jackson", "OBJECTID": 50, "Campaign": "Jackson's Shenandoah Valley", "BeginDay": 8, "EndDay": 8, "OtherName": "Sitlington's Hill", "BeginMonth": 5, "EndMonth": 5, "USCas": -99, "State": "VA", "EndYear": 1862, "USACom": "Milroy", "Location": "Highland", "Battle": "McDowell", "CSCas": -99, "CSTroops": 6000, "Victor": "CSA", "BeginYear": 1862, "USTroops": 6500}}
]}