{"type":"FeatureCollection","features":[
{"geometry": {"type": "Point", "coordinates": [-77.6449983, 38.9759404]}, "type": "Feature", "properties": {"PRECINCT": 309, "ADDRESS": "39325 John Mosby Hwy", "NAME": "ALDIE UNITED METHODIST CHURCH", "OBJECTID": 1, "LC_UPD_DATE": 1348704000000}},
{"geometry": {"type": "Point", "coordinates": [-77.5469188, 38.9250212]}, "type": "Feature", "properties": {"PRECINCT": 108, "ADDRESS": "42149 Greenstone Dr", "NAME": "MERCER MIDDLE SCHOOL", "OBJECTID": 2, "LC_UPD_DATE": 1348704000000}},
{"geometry": {"type": "Point", "coordinates": [-77.5222201, 38.9137857]}, "type": "Feature", "properties": {"PRECINCT": 122, "ADDRESS": "42819 Center St", "NAME": "HUTCHISON FARM ELEMENTARY SCHOOL", "OBJECTID": 3, "LC_UPD_DATE": 1348704000000}},
{"geometry": {"type": "Point", "coordinates": [-77.4993122, 38.8983545]}, "type": "Feature", "properties": {"PRECINCT": 107, "ADDRESS": "43464 Hyland Hills St", "NAME": "LITTLE RIVER ELEMENTARY SCHOOL", "OBJECTID": 4, "LC_UPD_DATE": 1348704000000}},
{"geometry": {"type": "Point", "coordinates": [-77.4038061, 38.9829224]}, "type": "Feature", "properties": {"PRECINCT": 617, "ADDRESS": "22870 Dominion La", "NAME": "OAK GROVE BAPTIST CHURCH", "OBJECTID": 5, "LC_UPD_DATE": 1348704000000}},
{"geometry": {"type": "Point", "coordinates": [-77.7361744, 38.9700395]}, "type": "Feature", "properties": {"PRECINCT": 307, "ADDRESS": "10 West Marshall St", "NAME": "MIDDLEBURG TOWN CENTER", "OBJECTID": 6, "LC_UPD_DATE": 1348704000000}},
{"geometry": {"type": "Point", "coordinates": [-77.4011335, 38.990356]}, "type": "Feature", "properties": {"PRECINCT": 705, "ADDRESS": "46245 Forest Ridge Dr", "NAME": "FOREST GROVE ELEMENTARY SCHOOL", "OBJECTID": 7, "LC_UPD_DATE": 1348704000000}},
{"geometry": {"type": "Point", "coordinates": [-77.398913, 38.9965862]}, "type": "Feature", "properties": {"PRECINCT": 701, "ADDRESS": "300 Circle Dr", "NAME": "SULLY ELEMENTARY SCHOOL", "OBJECTID": 8, "LC_UPD_DATE": 1348704000000}},
{"geometry": {"type": "Point", "coordinates": [-77.4059273, 39.0009344]}, "type": "Feature", "properties": {"PRECINCT": 710, "ADDRESS": "201 West Holly Av", "NAME": "STERLING MIDDLE SCHOOL", "OBJECTID": 9, "LC_UPD_DATE": 1348704000000}},
{"geometry": {"type": "Point", "coordinates": [-77.3844535, 39.0149396]}, "type": "Feature", "properties": {"PRECINCT": 703, "ADDRESS": "500 East Frederick Dr", "NAME": "ROLLING RIDGE ELEMENTARY SCHOOL", "OBJECTID": 10, "LC_UPD_DATE": 1348704000000}},
{"geometry": {"type": "Point", "coordinates": [-77.400764, 39.0148666]}, "type": "Feature", "properties": {"PRECINCT": 702, "ADDRESS": "400 West Laurel Av", "NAME": "PARK VIEW HIGH SCHOOL", "OBJECTID": 11, "LC_UPD_DATE": 1348704000000}},
{"geometry": {"type": "Point", "coordinates": [-77.4040364, 39.012528]}, "type": "Feature", "properties": {"PRECINCT": 707, "ADDRESS": "46105 Loudoun Park La", "NAME": "CLAUDE MOORE RECREATION CENTER", "OBJECTID": 12, "LC_UPD_DATE": 1348704000000}},
{"geometry": {"type": "Point", "coordinates": [-77.3730643, 39.0282736]}, "type": "Feature", "properties": {"PRECINCT": 708, "ADDRESS": "98 Seneca Ridge Dr", "NAME": "SENECA RIDGE MIDDLE SCHOOL", "OBJECTID": 13, "LC_UPD_DATE": 1348704000000}},
{"geometry": {"type": "Point", "coordinates": [-77.3495784, 39.0418589]}, "type": "Feature", "properties": {"PRECINCT": 216, "ADDRESS": "20755 Whitewater Dr", "NAME": "LOWES ISLAND ELEMENTARY SCHOOL", "OBJECTID": 14, "LC_UPD_DATE": 1348704000000}},
{"geometry": {"type": "Point", "coordinates": [-77.3713577, 39.0362024]}, "type": "Feature", "properties": {"PRECINCT": 215, "ADDRESS": "729 Sugarland Run Dr", "NAME": "MEADOWLAND ELEMENTARY SCHOOL", "OBJECTID": 15, "LC_UPD_DATE": 1348704000000}},
{"geometry": {"type": "Point", "coordinates": [-77.3829704, 39.0368085]}, "type": "Feature", "properties": {"PRECINCT": 709, "ADDRESS": "65 Sugarland Run Dr", "NAME": "SUGARLAND ELEMENTARY SCHOOL", "OBJECTID": 16, "LC_UPD_DATE": 1348704000000}},
{"geometry": {"type": "Point", "coordinates": [-77.3857533, 39.0451407]}, "type": "Feature", "properties": {"PRECINCT": 214, "ADDRESS": "46665 Broadmore Dr", "NAME": "HORIZON ELEMENTARY SCHOOL", "OBJECTID": 17, "LC_UPD_DATE": 1348704000000}},
{"geometry": {"type": "Point", "coordinates": [-77.3949791, 39.0395822]}, "type": "Feature", "properties": {"PRECINCT": 210, "ADDRESS": "46465 Esterbrook Cir", "NAME": "POTOWMACK ELEMENTARY SCHOOL", "OBJECTID": 18, "LC_UPD_DATE": 1348704000000}},
{"geometry": {"type": "Point", "coordinates": [-77.3903781, 39.0520278]}, "type": "Feature", "properties": {"PRECINCT": 209, "ADDRESS": "46400 Algonkian Pkwy", "NAME": "POTOMAC FALLS HIGH SCHOOL", "OBJECTID": 19, "LC_UPD_DATE": 1348704000000}},
{"geometry": {"type": "Point", "coordinates": [-77.3984266, 39.0530093]}, "type": "Feature", "properties": {"PRECINCT": 207, "ADDRESS": "46240 Algonkian Pkwy", "NAME": "RIVER BEND MIDDLE SCHOOL", "OBJECTID": 20, "LC_UPD_DATE": 1348704000000}},
{"geometry": {"type": "Point", "coordinates": [-77.4099626, 39.0567865]}, "type": "Feature", "properties": {"PRECINCT": 208, "ADDRESS": "20196 Carter Ct", "NAME": "ALGONKIAN ELEMENTARY SCHOOL", "OBJECTID": 21, "LC_UPD_DATE": 1348704000000}},
{"geometry": {"type": "Point", "coordinates": [-77.5138846, 39.020816]}, "type": "Feature", "properties": {"PRECINCT": 615, "ADDRESS": "43000  Ellzey Dr", "NAME": "HILLSIDE ELEMENTARY SCHOOL", "OBJECTID": 22, "LC_UPD_DATE": 1348704000000}},
{"geometry": {"type": "Point", "coordinates": [-77.4913335, 39.0225679]}, "type": "Feature", "properties": {"PRECINCT": 818, "ADDRESS": "21670 Ashburn Rd", "NAME": "BROAD RUN HIGH SCHOOL", "OBJECTID": 23, "LC_UPD_DATE": 1348704000000}},
{"geometry": {"type": "Point", "coordinates": [-77.4786503, 39.0361756]}, "type": "Feature", "properties": {"PRECINCT": 621, "ADDRESS": "44045 Bruceton Mills Cir", "NAME": "DOMINION TRAIL ELEMENTARY SCHOOL", "OBJECTID": 24, "LC_UPD_DATE": 1348704000000}},
{"geometry": {"type": "Point", "coordinates": [-77.4904381, 39.0387555]}, "type": "Feature", "properties": {"PRECINCT": 810, "ADDRESS": "43700 Tolamac Dr", "NAME": "CEDAR LANE ELEMENTARY SCHOOL", "OBJECTID": 25, "LC_UPD_DATE": 1348704000000}},
{"geometry": {"type": "Point", "coordinates": [-77.472761, 39.0369408]}, "type": "Feature", "properties": {"PRECINCT": 622, "ADDRESS": "44281 Gloucester Pkwy", "NAME": "FARMWELL STATION MIDDLE SCHOOL", "OBJECTID": 26, "LC_UPD_DATE": 1348704000000}},
{"geometry": {"type": "Point", "coordinates": [-77.5008868, 39.0840654]}, "type": "Feature", "properties": {"PRECINCT": 813, "ADDRESS": "43345 Coton Commons Dr", "NAME": "SELDENS LANDING ELEMENTARY SCHOOL", "OBJECTID": 27, "LC_UPD_DATE": 1348704000000}},
{"geometry": {"type": "Point", "coordinates": [-77.5088781, 39.0489263]}, "type": "Feature", "properties": {"PRECINCT": 808, "ADDRESS": "3100 Hay Rd", "NAME": "STONE BRIDGE HIGH SCHOOL", "OBJECTID": 28, "LC_UPD_DATE": 1348704000000}},
{"geometry": {"type": "Point", "coordinates": [-77.5034945, 39.0570929]}, "type": "Feature", "properties": {"PRECINCT": 814, "ADDRESS": "43335 Gloucester Pkwy", "NAME": "NEWTON-LEE ELEMENTARY SCHOOL", "OBJECTID": 29, "LC_UPD_DATE": 1348704000000}},
{"geometry": {"type": "Point", "coordinates": [-77.4771118, 39.0521183]}, "type": "Feature", "properties": {"PRECINCT": 620, "ADDRESS": "44062 Fincastle Dr", "NAME": "ASHBURN ELEMENTARY SCHOOL", "OBJECTID": 30, "LC_UPD_DATE": 1348704000000}},
{"geometry": {"type": "Point", "coordinates": [-77.5328403, 38.9976927]}, "type": "Feature", "properties": {"PRECINCT": 118, "ADDRESS": "22377 Belmont Ridge Rd", "NAME": "NATIONAL RECREATION & PARK ASSOCIATION BUILDING", "OBJECTID": 31, "LC_UPD_DATE": 1348704000000}},
{"geometry": {"type": "Point", "coordinates": [-77.5226596, 39.0947321]}, "type": "Feature", "properties": {"PRECINCT": 407, "ADDRESS": "701 Potomac Station Dr", "NAME": "HARPER PARK MIDDLE SCHOOL", "OBJECTID": 32, "LC_UPD_DATE": 1363824000000}},
{"geometry": {"type": "Point", "coordinates": [-77.5245359, 39.0965378]}, "type": "Feature", "properties": {"PRECINCT": 509, "ADDRESS": "691 Potomac Station Dr", "NAME": "JOHN W. TOLBERT JR. ELEMENTARY SCHOOL", "OBJECTID": 33, "LC_UPD_DATE": 1348704000000}},
{"geometry": {"type": "Point", "coordinates": [-77.572538, 39.0908458]}, "type": "Feature", "properties": {"PRECINCT": 408, "ADDRESS": "491 Evergreen Mill Rd", "NAME": "EVERGREEN MILL ELEMENTARY SCHOOL", "OBJECTID": 34, "LC_UPD_DATE": 1348704000000}},
{"geometry": {"type": "Point", "coordinates": [-77.5485176, 39.0900266]}, "type": "Feature", "properties": {"PRECINCT": 505, "ADDRESS": "501 Tavistock Dr", "NAME": "COOL SPRING ELEMENTARY SCHOOL", "OBJECTID": 35, "LC_UPD_DATE": 1348704000000}},
{"geometry": {"type": "Point", "coordinates": [-77.5495514, 39.1310901]}, "type": "Feature", "properties": {"PRECINCT": 502, "ADDRESS": "800 North King St", "NAME": "FRANCES HAZEL REID ELEMENTARY SCHOOL", "OBJECTID": 36, "LC_UPD_DATE": 1348704000000}},
{"geometry": {"type": "Point", "coordinates": [-77.5480505, 39.1331294]}, "type": "Feature", "properties": {"PRECINCT": 504, "ADDRESS": "850 North King St", "NAME": "SMARTS MILL MIDDLE SCHOOL", "OBJECTID": 37, "LC_UPD_DATE": 1348704000000}},
{"geometry": {"type": "Point", "coordinates": [-77.5661885, 39.1245445]}, "type": "Feature", "properties": {"PRECINCT": 501, "ADDRESS": "60 Ida Lee Dr", "NAME": "IDA LEE PARK RECREATION CENTER", "OBJECTID": 38, "LC_UPD_DATE": 1348704000000}},
{"geometry": {"type": "Point", "coordinates": [-77.5813713, 39.1195263]}, "type": "Feature", "properties": {"PRECINCT": 409, "ADDRESS": "605 West Market St", "NAME": "HOLY TRINITY LUTHERAN CHURCH", "OBJECTID": 39, "LC_UPD_DATE": 1348704000000}},
{"geometry": {"type": "Point", "coordinates": [-77.582819, 39.1153178]}, "type": "Feature", "properties": {"PRECINCT": 503, "ADDRESS": "715 Childrens Center Dr", "NAME": "C.S. MONROE TECHNOLOGY CENTER", "OBJECTID": 40, "LC_UPD_DATE": 1348704000000}},
{"geometry": {"type": "Point", "coordinates": [-77.582302, 39.1064059]}, "type": "Feature", "properties": {"PRECINCT": 507, "ADDRESS": "835 Lee Av", "NAME": "LEESBURG COMMUNITY CHURCH", "OBJECTID": 41, "LC_UPD_DATE": 1348704000000}},
{"geometry": {"type": "Point", "coordinates": [-77.534542, 39.1230161]}, "type": "Feature", "properties": {"PRECINCT": 508, "ADDRESS": "821 Battlefield Pkwy", "NAME": "BALLS BLUFF ELEMENTARY SCHOOL", "OBJECTID": 42, "LC_UPD_DATE": 1348704000000}},
{"geometry": {"type": "Point", "coordinates": [-77.5109352, 39.0376047]}, "type": "Feature", "properties": {"PRECINCT": 817, "ADDRESS": "43100 Ashburn Farm Pkwy", "NAME": "SANDERS CORNER ELEMENTARY SCHOOL", "OBJECTID": 43, "LC_UPD_DATE": 1348704000000}},
{"geometry": {"type": "Point", "coordinates": [-77.4904956, 39.0902847]}, "type": "Feature", "properties": {"PRECINCT": 815, "ADDRESS": "19045 Upper Belmont Pl", "NAME": "BELMONT RIDGE MIDDLE SCHOOL", "OBJECTID": 44, "LC_UPD_DATE": 1363824000000}},
{"geometry": {"type": "Point", "coordinates": [-77.5297785, 38.9946339]}, "type": "Feature", "properties": {"PRECINCT": 312, "ADDRESS": "22525 Belmont Ridge Rd", "NAME": "BRIAR WOODS HIGH SCHOOL", "OBJECTID": 45, "LC_UPD_DATE": 1348704000000}},
{"geometry": {"type": "Point", "coordinates": [-77.535029, 38.9138852]}, "type": "Feature", "properties": {"PRECINCT": 112, "ADDRESS": "25450 Riding Center Dr", "NAME": "FREEDOM HIGH SCHOOL", "OBJECTID": 46, "LC_UPD_DATE": 1348704000000}},
{"geometry": {"type": "Point", "coordinates": [-77.4140792, 39.0433773]}, "type": "Feature", "properties": {"PRECINCT": 213, "ADDRESS": "20624 Countryside Blvd", "NAME": "COUNTRYSIDE ELEMENTARY SCHOOL", "OBJECTID": 47, "LC_UPD_DATE": 1348704000000}},
{"geometry": {"type": "Point", "coordinates": [-77.6400485, 39.2657077]}, "type": "Feature", "properties": {"PRECINCT": 411, "ADDRESS": "49 South Loudoun St", "NAME": "LOVETTSVILLE ELEMENTARY SCHOOL", "OBJECTID": 48, "LC_UPD_DATE": 1348704000000}},
{"geometry": {"type": "Point", "coordinates": [-77.5794806, 39.1109798]}, "type": "Feature", "properties": {"PRECINCT": 506, "ADDRESS": "415 Dry Mill Rd", "NAME": "LOUDOUN COUNTY HIGH SCHOOL", "OBJECTID": 49, "LC_UPD_DATE": 1348704000000}},
{"geometry": {"type": "Point", "coordinates": [-77.355025, 39.0416102]}, "type": "Feature", "properties": {"PRECINCT": 217, "ADDRESS": "20747 Lowes Island Blvd", "NAME": "POTOMAC BAPTIST CHURCH", "OBJECTID": 50, "LC_UPD_DATE": 1348704000000}},
{"geometry": {"type": "Point", "coordinates": [-77.5257871, 38.9218494]}, "type": "Feature", "properties": {"PRECINCT": 114, "ADDRESS": "24950 Riding Center Dr", "NAME": "DULLES SOUTH MULTIPURPOSE CENTER", "OBJECTID": 51, "LC_UPD_DATE": 1348704000000}},
{"geometry": {"type": "Point", "coordinates": [-77.5559725, 38.9124876]}, "type": "Feature", "properties": {"PRECINCT": 313, "ADDRESS": "25480 Mindful Ct", "NAME": "PINEBROOK ELEMENTARY SCHOOL", "OBJECTID": 52, "LC_UPD_DATE": 1496275200000}},
{"geometry": {"type": "Point", "coordinates": [-77.5030554, 38.9780053]}, "type": "Feature", "properties": {"PRECINCT": 117, "ADDRESS": "43330 Loudoun Reserve Dr", "NAME": "ROSA LEE CARTER ELEMENTARY SCHOOL", "OBJECTID": 53, "LC_UPD_DATE": 1348704000000}},
{"geometry": {"type": "Point", "coordinates": [-77.7316306, 39.1565935]}, "type": "Feature", "properties": {"PRECINCT": 310, "ADDRESS": "36803 Allder School Rd", "NAME": "MOUNTAIN VIEW ELEMENTARY SCHOOL", "OBJECTID": 54, "LC_UPD_DATE": 1348704000000}},
{"geometry": {"type": "Point", "coordinates": [-77.4545913, 39.042422]}, "type": "Feature", "properties": {"PRECINCT": 623, "ADDRESS": "20700 Marblehead Dr", "NAME": "STEUART W. WELLER ELEMENTARY SCHOOL", "OBJECTID": 55, "LC_UPD_DATE": 1348704000000}},
{"geometry": {"type": "Point", "coordinates": [-77.762335, 39.1446265]}, "type": "Feature", "properties": {"PRECINCT": 311, "ADDRESS": "17115 Evening Star Dr", "NAME": "ROUND HILL ELEMENTARY SCHOOL", "OBJECTID": 56, "LC_UPD_DATE": 1348704000000}},
{"geometry": {"type": "Point", "coordinates": [-77.508724, 39.1094355]}, "type": "Feature", "properties": {"PRECINCT": 414, "ADDRESS": "43131 Lake Ridge Pl", "NAME": "RED ROCK COMMUNITY CENTER", "OBJECTID": 57, "LC_UPD_DATE": 1348704000000}},
{"geometry": {"type": "Point", "coordinates": [-77.6637133, 39.1343983]}, "type": "Feature", "properties": {"PRECINCT": 416, "ADDRESS": "16 East Colonial Hwy", "NAME": "HAMILTON BAPTIST CHURCH", "OBJECTID": 58, "LC_UPD_DATE": 1348704000000}},
{"geometry": {"type": "Point", "coordinates": [-77.4462283, 39.0600812]}, "type": "Feature", "properties": {"PRECINCT": 218, "ADDRESS": "20101 Academic Wy", "NAME": "GEORGE WASHINGTON UNIVERSITY", "OBJECTID": 59, "LC_UPD_DATE": 1348704000000}},
{"geometry": {"type": "Point", "coordinates": [-77.4080099, 39.025527]}, "type": "Feature", "properties": {"PRECINCT": 619, "ADDRESS": "21641 Ridgetop Cir", "NAME": "RIDGETOP CIRCLE COUNTY OFFICE", "OBJECTID": 60, "LC_UPD_DATE": 1348704000000}},
{"geometry": {"type": "Point", "coordinates": [-77.5262266, 38.9799887]}, "type": "Feature", "properties": {"PRECINCT": 314, "ADDRESS": "22995 Minerva Dr", "NAME": "LEGACY ELEMENTARY SCHOOL", "OBJECTID": 61, "LC_UPD_DATE": 1496275200000}},
{"geometry": {"type": "Point", "coordinates": [-77.5570691, 39.1320561]}, "type": "Feature", "properties": {"PRECINCT": 413, "ADDRESS": "801 North King St", "NAME": "TUSCARORA HIGH SCHOOL", "OBJECTID": 62, "LC_UPD_DATE": 1348704000000}},
{"geometry": {"type": "Point", "coordinates": [-77.5697859, 39.0831536]}, "type": "Feature", "properties": {"PRECINCT": 510, "ADDRESS": "520 Evergreen Mills Rd", "NAME": "HERITAGE HIGH SCHOOL", "OBJECTID": 63, "LC_UPD_DATE": 1348704000000}},
{"geometry": {"type": "Point", "coordinates": [-77.515938, 39.0153787]}, "type": "Feature", "properties": {"PRECINCT": 616, "ADDRESS": "42901 Waxpool Rd", "NAME": "EAGLE RIDGE MIDDLE SCHOOL", "OBJECTID": 64, "LC_UPD_DATE": 1348704000000}},
{"geometry": {"type": "Point", "coordinates": [-77.5596791, 38.9369219]}, "type": "Feature", "properties": {"PRECINCT": 119, "ADDRESS": "41740 Tall Cedars Pkwy", "NAME": "ARCOLA ELEMENTARY SCHOOL", "OBJECTID": 65, "LC_UPD_DATE": 1348704000000}},
{"geometry": {"type": "Point", "coordinates": [-77.5700489, 39.0903135]}, "type": "Feature", "properties": {"PRECINCT": 419, "ADDRESS": "490 Evergreen Mill Rd", "NAME": "J. LUPTON SIMPSON MIDDLE SCHOOL", "OBJECTID": 66, "LC_UPD_DATE": 1348704000000}},
{"geometry": {"type": "Point", "coordinates": [-77.5119315, 39.0578058]}, "type": "Feature", "properties": {"PRECINCT": 820, "ADDRESS": "20235 Nightwatch St", "NAME": "BELMONT STATION ELEMENTARY SCHOOL", "OBJECTID": 67, "LC_UPD_DATE": 1348704000000}},
{"geometry": {"type": "Point", "coordinates": [-77.4934918, 39.0165268]}, "type": "Feature", "properties": {"PRECINCT": 819, "ADDRESS": "21700 Shellhorn Rd", "NAME": "HERITAGE BAPTIST CHURCH", "OBJECTID": 68, "LC_UPD_DATE": 1348704000000}},
{"geometry": {"type": "Point", "coordinates": [-77.4275988, 39.0460971]}, "type": "Feature", "properties": {"PRECINCT": 219, "ADDRESS": "45425 Winding Rd", "NAME": "GALILEE UNITED METHODIST CHURCH", "OBJECTID": 69, "LC_UPD_DATE": 1348704000000}},
{"geometry": {"type": "Point", "coordinates": [-77.7398689, 39.0571307]}, "type": "Feature", "properties": {"PRECINCT": 315, "ADDRESS": "36560 Jeb Stuart Rd", "NAME": "PHILOMONT FIRE STATION", "OBJECTID": 70, "LC_UPD_DATE": 1348704000000}},
{"geometry": {"type": "Point", "coordinates": [-77.5279441, 38.9719319]}, "type": "Feature", "properties": {"PRECINCT": 316, "ADDRESS": "23171 Minerva Dr", "NAME": "CREIGHTONS CORNER ELEMENTARY SCHOOL", "OBJECTID": 71, "LC_UPD_DATE": 1496275200000}},
{"geometry": {"type": "Point", "coordinates": [-77.5219013, 38.8974135]}, "type": "Feature", "properties": {"PRECINCT": 120, "ADDRESS": "26020 Ticonderoga Rd", "NAME": "J. MICHAEL LUNSFORD MIDDLE SCHOOL", "OBJECTID": 72, "LC_UPD_DATE": 1348704000000}},
{"geometry": {"type": "Point", "coordinates": [-77.5134856, 38.9136107]}, "type": "Feature", "properties": {"PRECINCT": 121, "ADDRESS": "43055 Center St", "NAME": "SOUTH RIDING TOWN HLLL", "OBJECTID": 73, "LC_UPD_DATE": 1348704000000}},
{"geometry": {"type": "Point", "coordinates": [-77.7881962, 39.0036806]}, "type": "Feature", "properties": {"PRECINCT": 308, "ADDRESS": "35321 Snake Hill Rd", "NAME": "BANNEKER ELEMENTARY SCHOOL", "OBJECTID": 74, "LC_UPD_DATE": 1348704000000}},
{"geometry": {"type": "Point", "coordinates": [-77.7398689, 39.0571307]}, "type": "Feature", "properties": {"PRECINCT": 305, "ADDRESS": "36560 Jeb Stuart Rd", "NAME": "PHILOMONT FIRE STATION", "OBJECTID": 75, "LC_UPD_DATE": 1348704000000}},
{"geometry": {"type": "Point", "coordinates": [-77.7188878, 39.1304037]}, "type": "Feature", "properties": {"PRECINCT": 301, "ADDRESS": "440 South Nursery Av", "NAME": "EMERICK ELEMENTARY SCHOOL", "OBJECTID": 76, "LC_UPD_DATE": 1348704000000}},
{"geometry": {"type": "Point", "coordinates": [-77.7737732, 39.1356632]}, "type": "Feature", "properties": {"PRECINCT": 302, "ADDRESS": "20 High St", "NAME": "ROUND HILL CENTER", "OBJECTID": 77, "LC_UPD_DATE": 1348704000000}},
{"geometry": {"type": "Point", "coordinates": [-77.7212021, 39.2902718]}, "type": "Feature", "properties": {"PRECINCT": 421, "ADDRESS": "11762 Harpers Ferry Rd", "NAME": "BETWEEN THE HILLS COMMUNITY CENTER", "OBJECTID": 78, "LC_UPD_DATE": 1348704000000}},
{"geometry": {"type": "Point", "coordinates": [-77.6329235, 39.2696838]}, "type": "Feature", "properties": {"PRECINCT": 401, "ADDRESS": "57 East Broad Wy", "NAME": "LOVETTSVILLE COMMUNITY CENTER", "OBJECTID": 79, "LC_UPD_DATE": 1348704000000}},
{"geometry": {"type": "Point", "coordinates": [-77.7204893, 39.1983579]}, "type": "Feature", "properties": {"PRECINCT": 303, "ADDRESS": "37098 Charles Town Pke", "NAME": "OLD STONE SCHOOL", "OBJECTID": 80, "LC_UPD_DATE": 1348704000000}},
{"geometry": {"type": "Point", "coordinates": [-77.6061212, 39.1876709]}, "type": "Feature", "properties": {"PRECINCT": 402, "ADDRESS": "15513 Loyalty Rd", "NAME": "WATEFORD ELEMENTARY SCHOOL", "OBJECTID": 81, "LC_UPD_DATE": 1348704000000}},
{"geometry": {"type": "Point", "coordinates": [-77.5341616, 39.2149298]}, "type": "Feature", "properties": {"PRECINCT": 403, "ADDRESS": "42361 Lucketts Rd", "NAME": "LUCKETTS COMMUNITY CENTER", "OBJECTID": 82, "LC_UPD_DATE": 1363824000000}},
{"geometry": {"type": "Point", "coordinates": [-77.5167987, 38.8946777]}, "type": "Feature", "properties": {"PRECINCT": 123, "ADDRESS": "26155 Bullrun Postoffice Rd", "NAME": "CARDINAL RIDGE ELEMENTARY SCHOOL", "OBJECTID": 83, "LC_UPD_DATE": 1429747200000}},
{"geometry": {"type": "Point", "coordinates": [-77.5386433, 38.9122932]}, "type": "Feature", "properties": {"PRECINCT": 124, "ADDRESS": "25491 Riding Center Dr", "NAME": "LIBERTY ELEMENTARY SCHOOL", "OBJECTID": 84, "LC_UPD_DATE": 1429747200000}},
{"geometry": {"type": "Point", "coordinates": [-77.5009471, 38.9779931]}, "type": "Feature", "properties": {"PRECINCT": 125, "ADDRESS": "43460 Loudoun Reserve Dr", "NAME": "ROCK RIDGE HIGH SCHOOL", "OBJECTID": 85, "LC_UPD_DATE": 1429747200000}},
{"geometry": {"type": "Point", "coordinates": [-77.5443531, 38.9777694]}, "type": "Feature", "properties": {"PRECINCT": 318, "ADDRESS": "42380 Creighton Rd", "NAME": "MADISON'S TRUST ELEMENTARY SCHOOL", "OBJECTID": 86, "LC_UPD_DATE": 1429747200000}},
{"geometry": {"type": "Point", "coordinates": [-77.5226596, 39.0947321]}, "type": "Feature", "properties": {"PRECINCT": 420, "ADDRESS": "701 Potomac Station Dr", "NAME": "HARPER PARK MIDDLE SCHOOL", "OBJECTID": 87, "LC_UPD_DATE": 1363824000000}},
{"geometry": {"type": "Point", "coordinates": [-77.4896658, 39.0922386]}, "type": "Feature", "properties": {"PRECINCT": 822, "ADDRESS": "19019 Upper Belmont Pl", "NAME": "RIVERSIDE HIGH SCHOOL", "OBJECTID": 88, "LC_UPD_DATE": 1429747200000}},
{"geometry": {"type": "Point", "coordinates": [-77.5156465, 39.0118567]}, "type": "Feature", "properties": {"PRECINCT": 625, "ADDRESS": "42940 Ridgeway Dr", "NAME": "MILL RUN ELEMENTARY SCHOOL", "OBJECTID": 89, "LC_UPD_DATE": 1429747200000}},
{"geometry": {"type": "Point", "coordinates": [-77.4540281, 39.0326645]}, "type": "Feature", "properties": {"PRECINCT": 626, "ADDRESS": "44755 Audobon Sq", "NAME": "ASHBY PONDS' GREAT OAK CLUBHOUSE", "OBJECTID": 90, "LC_UPD_DATE": 1429747200000}},
{"geometry": {"type": "Point", "coordinates": [-77.5052545, 38.9994472]}, "type": "Feature", "properties": {"PRECINCT": 628, "ADDRESS": "22325 Mooreview Pkwy", "NAME": "MOOREFIELD STATION ELEMENTARY SCHOOL", "OBJECTID": 91, "LC_UPD_DATE": 1429747200000}},
{"geometry": {"type": "Point", "coordinates": [-77.478312, 39.0192012]}, "type": "Feature", "properties": {"PRECINCT": 629, "ADDRESS": "44020 Grace Bridge Dr", "NAME": "DISCOVERY ELEMENTARY SCHOOL", "OBJECTID": 92, "LC_UPD_DATE": 1429747200000}},
{"geometry": {"type": "Point", "coordinates": [-77.4638752, 39.0592871]}, "type": "Feature", "properties": {"PRECINCT": 627, "ADDRESS": "20145 Ashbrook Pl", "NAME": "PARKS, RECREATION, & COMMUNITY SERVICES ADMIN BUILDING", "OBJECTID": 93, "LC_UPD_DATE": 1429747200000}},
{"geometry": {"type": "Point", "coordinates": [-77.5658865, 38.9323339]}, "type": "Feature", "properties": {"PRECINCT": 319, "ADDRESS": "41535 Sacred Mountain St", "NAME": "JOHN CHAMPE HIGH SCHOOL", "OBJECTID": 94, "LC_UPD_DATE": 1496275200000}},
{"geometry": {"type": "Point", "coordinates": [-77.5126214, 38.9696199]}, "type": "Feature", "properties": {"PRECINCT": 320, "ADDRESS": "23415 Evergreen Ridge Dr", "NAME": "STONE HILL MIDDLE SCHOOL", "OBJECTID": 95, "LC_UPD_DATE": 1496275200000}},
{"geometry": {"type": "Point", "coordinates": [-77.552485, 38.9795807]}, "type": "Feature", "properties": {"PRECINCT": 321, "ADDRESS": "23070 Creighton Rd", "NAME": "BRAMBLETON MIDDLE SCHOOL", "OBJECTID": 96, "LC_UPD_DATE": 1496275200000}}
]}