{"type":"FeatureCollection","features":[
{"geometry": {"type": "Point", "coordinates": [-77.7399931, 39.0567653]}, "type": "Feature", "properties": {"PS_NAME": "PHILOMONT", "OBJECTID": 1, "PS_FULL_NAME": null, "PS_CO": "8", "PS_URL": null, "PS_UPD_DATE": 1397088000000, "PS_ADDRESS": "36560 JEB STUART RD PURCELLVILLE VA 20132", "PS_TYPE_HP": "F", "PS_STATUS": "EX", "PS_PHONE": "540.338.6506"}},
{"geometry": {"type": "Point", "coordinates": [-77.5332743, 39.2157317]}, "type": "Feature", "properties": {"PS_NAME": "LUCKETTS", "OBJECTID": 2, "PS_FULL_NAME": null, "PS_CO": "10", "PS_URL": null, "PS_UPD_DATE": 1397088000000, "PS_ADDRESS": "42367 LUCKETTS RD LEESBURG VA 21076", "PS_TYPE_HP": "FR", "PS_STATUS": "EX", "PS_PHONE": "703.777.9344"}},
{"geometry": {"type": "Point", "coordinates": [-77.5692344, 39.1149788]}, "type": "Feature", "properties": {"PS_NAME": "LEESBURG", "OBJECTID": 3, "PS_FULL_NAME": null, "PS_CO": "1", "PS_URL": null, "PS_UPD_DATE": 1397088000000, "PS_ADDRESS": "61 PLAZA ST NE LEESBURG VA 20176", "PS_TYPE_HP": "F", "PS_STATUS": "EX", "PS_PHONE": "703.771.9103"}},
{"geometry": {"type": "Point", "coordinates": [-77.4019866, 38.9997955]}, "type": "Feature", "properties": {"PS_NAME": "STERLING PARK", "OBJECTID": 4, "PS_FULL_NAME": null, "PS_CO": "11", "PS_URL": null, "PS_UPD_DATE": 1397088000000, "PS_ADDRESS": "104 COMMERCE ST STERKING VA 20164", "PS_TYPE_HP": "F", "PS_STATUS": "EX", "PS_PHONE": "703.430.7010"}},
{"geometry": {"type": "Point", "coordinates": [-77.7466378, 38.9681202]}, "type": "Feature", "properties": {"PS_NAME": "MIDDLEBURG", "OBJECTID": 5, "PS_FULL_NAME": null, "PS_CO": "3", "PS_URL": null, "PS_UPD_DATE": 1397088000000, "PS_ADDRESS": "901 WASHINGTON ST W MIDDLEBURG 20117", "PS_TYPE_HP": "FR", "PS_STATUS": "EX", "PS_PHONE": "540.687.3001"}},
{"geometry": {"type": "Point", "coordinates": [-77.7689011, 39.1332953]}, "type": "Feature", "properties": {"PS_NAME": "ROUND HILL", "OBJECTID": 6, "PS_FULL_NAME": null, "PS_CO": "4", "PS_URL": null, "PS_UPD_DATE": 1397088000000, "PS_ADDRESS": "4 MAIN ST ROUND HILL VA 20141", "PS_TYPE_HP": "FR", "PS_STATUS": "EX", "PS_PHONE": "540.338.7982"}},
{"geometry": {"type": "Point", "coordinates": [-77.4867287, 39.0449854]}, "type": "Feature", "properties": {"PS_NAME": "ASHBURN", "OBJECTID": 7, "PS_FULL_NAME": null, "PS_CO": "6", "PS_URL": null, "PS_UPD_DATE": 1397088000000, "PS_ADDRESS": "20688 ASHBURN RD ASHBURN VA 20147", "PS_TYPE_HP": "FR", "PS_STATUS": "EX", "PS_PHONE": "703.729.0006"}},
{"geometry": {"type": "Point", "coordinates": [-77.6442759, 39.2609311]}, "type": "Feature", "properties": {"PS_NAME": "LOVETTSVILLE", "OBJECTID": 8, "PS_FULL_NAME": null, "PS_CO": "12", "PS_URL": null, "PS_UPD_DATE": 1397088000000, "PS_ADDRESS": "12837 BERLIN TURNPIKE LOVETTSVILLE VA 20180", "PS_TYPE_HP": "FR", "PS_STATUS": "EX", "PS_PHONE": "540.822.5258"}},
{"geometry": {"type": "Point", "coordinates": [-77.382839, 39.0482283]}, "type": "Feature", "properties": {"PS_NAME": "CASCADES", "OBJECTID": 9, "PS_FULL_NAME": null, "PS_CO": "18", "PS_URL": null, "PS_UPD_DATE": 1397088000000, "PS_ADDRESS": "46700 MIDDLEFIELD DR STERLING VA 20165", "PS_TYPE_HP": "F", "PS_STATUS": "EX", "PS_PHONE": "703.430.2539"}},
{"geometry": {"type": "Point", "coordinates": [-77.5493047, 39.1102637]}, "type": "Feature", "properties": {"PS_NAME": "LEESBURG", "OBJECTID": 10, "PS_FULL_NAME": null, "PS_CO": "20", "PS_URL": null, "PS_UPD_DATE": 1397088000000, "PS_ADDRESS": "61 PLAZA ST NE LEESBURG VA 20176", "PS_TYPE_HP": "F", "PS_STATUS": "EX", "PS_PHONE": "703.771.9103"}},
{"geometry": {"type": "Point", "coordinates": [-77.5584752, 39.1071808]}, "type": "Feature", "properties": {"PS_NAME": "LEESBURG", "OBJECTID": 11, "PS_FULL_NAME": null, "PS_CO": "13", "PS_URL": null, "PS_UPD_DATE": 1397088000000, "PS_ADDRESS": "143 CATOCTIN CIR SE LEESBURG VA 20175", "PS_TYPE_HP": "R", "PS_STATUS": "EX", "PS_PHONE": "703.777.7185"}},
{"geometry": {"type": "Point", "coordinates": [-77.4021421, 38.9997086]}, "type": "Feature", "properties": {"PS_NAME": "STERLING PARK", "OBJECTID": 12, "PS_FULL_NAME": null, "PS_CO": "15", "PS_URL": null, "PS_UPD_DATE": 1397088000000, "PS_ADDRESS": "104 COMMERCE ST STERLING VA 20165", "PS_TYPE_HP": "R", "PS_STATUS": "EX", "PS_PHONE": "703.430.1780"}},
{"geometry": {"type": "Point", "coordinates": [-77.3829922, 39.0482899]}, "type": "Feature", "properties": {"PS_NAME": "CASCADES", "OBJECTID": 13, "PS_FULL_NAME": null, "PS_CO": "25", "PS_URL": null, "PS_UPD_DATE": 1397088000000, "PS_ADDRESS": "46700 MIDDLEFIELD DR STERLING VA 20166", "PS_TYPE_HP": "R", "PS_STATUS": "EX", "PS_PHONE": "703.430.2539"}},
{"geometry": {"type": "Point", "coordinates": [-77.4342975, 39.0500525]}, "type": "Feature", "properties": {"PS_NAME": "UNIVERSITY SUBSTA", "OBJECTID": 14, "PS_FULL_NAME": "UNIVERSITY STATION", "PS_CO": "SO", "PS_URL": "http://va-loudouncountysheriff.civicplus.com/index.aspx?NID=221", "PS_UPD_DATE": 1345075200000, "PS_ADDRESS": "45299 RESEARCH PL SUITE 100 ASHBURN VA 20147", "PS_TYPE_HP": "SO", "PS_STATUS": "EX", "PS_PHONE": "571.258.3000"}},
{"geometry": {"type": "Point", "coordinates": [-77.5488763, 39.11086]}, "type": "Feature", "properties": {"PS_NAME": "LEESBURG POLICE", "OBJECTID": 15, "PS_FULL_NAME": "LEESBURG POLICE STATION", "PS_CO": "PO", "PS_URL": "http://www.leesburgva.gov/index.aspx?page=135", "PS_UPD_DATE": 1345075200000, "PS_ADDRESS": "65 PLAZA ST NE LEESBURG VA", "PS_TYPE_HP": "PO", "PS_STATUS": "EX", "PS_PHONE": "703.771.4500"}},
{"geometry": {"type": "Point", "coordinates": [-77.7374932, 38.9671315]}, "type": "Feature", "properties": {"PS_NAME": "MIDDLEBURG POLICE", "OBJECTID": 16, "PS_FULL_NAME": "MIDDLEBURG POLICE STATION", "PS_CO": "PO", "PS_URL": "http://middleburgpolice.org/", "PS_UPD_DATE": 1345075200000, "PS_ADDRESS": "14 S MADISON ST MIDDLEBURG VA 20118", "PS_TYPE_HP": "PO", "PS_STATUS": "EX", "PS_PHONE": "540.687.6633"}},
{"geometry": {"type": "Point", "coordinates": [-77.5169597, 38.9195585]}, "type": "Feature", "properties": {"PS_NAME": "DULLES SOUTH", "OBJECTID": 17, "PS_FULL_NAME": null, "PS_CO": "19", "PS_URL": null, "PS_UPD_DATE": 1397088000000, "PS_ADDRESS": "25216 LOUDOUN COUNTY PKWY CHANTILLY VA 20152", "PS_TYPE_HP": "FR", "PS_STATUS": "EX", "PS_PHONE": "571.258.3719"}},
{"geometry": {"type": "Point", "coordinates": [-77.5169597, 38.9195585]}, "type": "Feature", "properties": {"PS_NAME": "DUL SOUTH SUBSTATION", "OBJECTID": 18, "PS_FULL_NAME": "DULLES SOUTH PUBLIC SAFETY CENTER", "PS_CO": "SO", "PS_URL": "http://va-loudouncountysheriff.civicplus.com/index.aspx?NID=219", "PS_UPD_DATE": 1345075200000, "PS_ADDRESS": "25216 LOUDOUN COUNTY PKWY CHANTILLY VA 20152", "PS_TYPE_HP": "SO", "PS_STATUS": "EX", "PS_PHONE": "571.258.3200"}},
{"geometry": {"type": "Point", "coordinates": [-77.4964535, 39.0085502]}, "type": "Feature", "properties": {"PS_NAME": "MOOREFIELD", "OBJECTID": 19, "PS_FULL_NAME": null, "PS_CO": "23", "PS_URL": null, "PS_UPD_DATE": 1397088000000, "PS_ADDRESS": "43495 OLD RYAN RD ASHBURN VA 20147", "PS_TYPE_HP": "FR", "PS_STATUS": "EX", "PS_PHONE": "571.258.3722"}},
{"geometry": {"type": "Point", "coordinates": [-77.6514323, 39.1343126]}, "type": "Feature", "properties": {"PS_NAME": "HAMILTON SAFETY CENT", "OBJECTID": 20, "PS_FULL_NAME": null, "PS_CO": "17", "PS_URL": null, "PS_UPD_DATE": 1397088000000, "PS_ADDRESS": "39077 E COLONIAL HWY HAMILTON VA 20158", "PS_TYPE_HP": "R", "PS_STATUS": "EX", "PS_PHONE": "540.338.3111"}},
{"geometry": {"type": "Point", "coordinates": [-77.650947, 39.1344112]}, "type": "Feature", "properties": {"PS_NAME": "HAMILTON SAFETY CENT", "OBJECTID": 21, "PS_FULL_NAME": null, "PS_CO": "5", "PS_URL": null, "PS_UPD_DATE": 1397088000000, "PS_ADDRESS": "39077 E COLONIAL HWY HAMILTON VA 20158", "PS_TYPE_HP": "F", "PS_STATUS": "EX", "PS_PHONE": "540.338.6001"}},
{"geometry": {"type": "Point", "coordinates": [-77.6394739, 38.9748955]}, "type": "Feature", "properties": {"PS_NAME": "ALDIE", "OBJECTID": 22, "PS_FULL_NAME": null, "PS_CO": "7", "PS_URL": null, "PS_UPD_DATE": 1397088000000, "PS_ADDRESS": "39459 JOHN MOSBY HWY ALDIE VA 20105", "PS_TYPE_HP": "FR", "PS_STATUS": "EX", "PS_PHONE": "703.327.6712"}},
{"geometry": {"type": "Point", "coordinates": [-77.4835134, 39.0768458]}, "type": "Feature", "properties": {"PS_NAME": "LANSDOWNE", "OBJECTID": 23, "PS_FULL_NAME": null, "PS_CO": "22", "PS_URL": null, "PS_UPD_DATE": 1397088000000, "PS_ADDRESS": "19485 SANDRIDGE WAY LEESBURG VA 20176", "PS_TYPE_HP": "FR", "PS_STATUS": "EX", "PS_PHONE": "571.258.3722"}},
{"geometry": {"type": "Point", "coordinates": [-77.5367137, 38.9620671]}, "type": "Feature", "properties": {"PS_NAME": "ARCOLA", "OBJECTID": 24, "PS_FULL_NAME": "ARCOLA SAFETY CENTER", "PS_CO": "9", "PS_URL": null, "PS_UPD_DATE": 1397088000000, "PS_ADDRESS": "23675 BELMONT RIDGE RD ASHBURN VA 20148", "PS_TYPE_HP": "FR", "PS_STATUS": "EX", "PS_PHONE": "571.258.3709"}},
{"geometry": {"type": "Point", "coordinates": [-77.6970301, 39.1438216]}, "type": "Feature", "properties": {"PS_NAME": "PURCELLVLLE", "OBJECTID": 25, "PS_FULL_NAME": null, "PS_CO": "2", "PS_URL": null, "PS_UPD_DATE": 1397088000000, "PS_ADDRESS": "500 MAPLE AVE N PURCELLVILLE VA 20132", "PS_TYPE_HP": "F", "PS_STATUS": "EX", "PS_PHONE": "540.338.5961"}},
{"geometry": {"type": "Point", "coordinates": [-77.6976398, 39.1435002]}, "type": "Feature", "properties": {"PS_NAME": "PURCELLVLLE", "OBJECTID": 26, "PS_FULL_NAME": null, "PS_CO": "14", "PS_URL": null, "PS_UPD_DATE": 1397088000000, "PS_ADDRESS": "500 MABLE AVE N PURCELLVILLE VA 20132", "PS_TYPE_HP": "R", "PS_STATUS": "EX", "PS_PHONE": "540.338.5961"}},
{"geometry": {"type": "Point", "coordinates": [-77.7148429, 39.1435573]}, "type": "Feature", "properties": {"PS_NAME": "PURCELLVILLE POLICE", "OBJECTID": 27, "PS_FULL_NAME": "PURCELLVILLE POLICE STATION", "PS_CO": "PO", "PS_URL": "http://purcellvilleva.gov/index.aspx?nid=50", "PS_UPD_DATE": 1345075200000, "PS_ADDRESS": "125 E HIRST RD UNIT 7A PURCELLVILLE VA", "PS_TYPE_HP": "PO", "PS_STATUS": "EX", "PS_PHONE": "540.338.7422"}},
{"geometry": {"type": "Point", "coordinates": [-77.3867331, 39.015823]}, "type": "Feature", "properties": {"PS_NAME": "EASTERN LOUDOUN", "OBJECTID": 28, "PS_FULL_NAME": "EASTERN LOUDOUN STATION", "PS_CO": "SO", "PS_URL": "http://va-loudouncountysheriff.civicplus.com/index.aspx?NID=220", "PS_UPD_DATE": 1345075200000, "PS_ADDRESS": "46620 EAST FREDERICK DR STERLING VA 20164", "PS_TYPE_HP": "SO", "PS_STATUS": "EX", "PS_PHONE": "571.258.3356"}},
{"geometry": {"type": "Point", "coordinates": [-77.5453401, 39.0750034]}, "type": "Feature", "properties": {"PS_NAME": "ADULT DETENTION CNTR", "OBJECTID": 29, "PS_FULL_NAME": "ADULT DETENTION CENTER", "PS_CO": "SO", "PS_URL": "http://va-loudouncountysheriff.civicplus.com/index.aspx?NID=218", "PS_UPD_DATE": 1345766400000, "PS_ADDRESS": "40235 LOUDOUN CENTER PLACE", "PS_TYPE_HP": "AD", "PS_STATUS": "EX", "PS_PHONE": "703.777.0405"}},
{"geometry": {"type": "Point", "coordinates": [-77.7273247, 39.2487479]}, "type": "Feature", "properties": {"PS_NAME": "LOUDOUN HEIGHTS", "OBJECTID": 30, "PS_FULL_NAME": null, "PS_CO": "26", "PS_URL": null, "PS_UPD_DATE": 1397088000000, "PS_ADDRESS": "13345 HARPERS FERRY RD PURCELVILLE VA 20132", "PS_TYPE_HP": "FR", "PS_STATUS": "FU", "PS_PHONE": null}},
{"geometry": {"type": "Point", "coordinates": [-77.4329821, 39.0301393]}, "type": "Feature", "properties": {"PS_NAME": "KINCORA", "OBJECTID": 31, "PS_FULL_NAME": null, "PS_CO": "24", "PS_URL": null, "PS_UPD_DATE": 1397088000000, "PS_ADDRESS": "21130 PACIFIC BLVD", "PS_TYPE_HP": "F", "PS_STATUS": "EX", "PS_PHONE": null}},
{"geometry": {"type": "Point", "coordinates": [-77.4329821, 39.0301393]}, "type": "Feature", "properties": {"PS_NAME": "KINCORA", "OBJECTID": 32, "PS_FULL_NAME": "KINCORA", "PS_CO": "35", "PS_URL": null, "PS_UPD_DATE": 1397088000000, "PS_ADDRESS": "21130 PACIFIC BLVD", "PS_TYPE_HP": "R", "PS_STATUS": "EX", "PS_PHONE": null}},
{"geometry": {"type": "Point", "coordinates": [-77.5534251, 39.0824184]}, "type": "Feature", "properties": {"PS_NAME": "SHERIFF OFFICE ADMIN", "OBJECTID": 33, "PS_FULL_NAME": "SHERIFF OFFICE ADMINISTRATION ", "PS_CO": "SO", "PS_URL": "http://va-loudouncountysheriff.civicplus.com/index.aspx?NID=217", "PS_UPD_DATE": 1345075200000, "PS_ADDRESS": "803 SYCOLIN RD SE LEESBURG VA 20175", "PS_TYPE_HP": "SO", "PS_STATUS": "EX", "PS_PHONE": "703.777.0407"}},
{"geometry": {"type": "Point", "coordinates": [-77.5538336, 39.0833686]}, "type": "Feature", "properties": {"PS_NAME": "FIRE RESCUE ADMIN", "OBJECTID": 34, "PS_FULL_NAME": "FIRE RESCUE OFFICE ADMINISTRATION", "PS_CO": "FR", "PS_URL": "www.loudoun.gov/fire", "PS_UPD_DATE": 1426723200000, "PS_ADDRESS": "801 SYCOLIN RD SE LEESBURG VA 20175", "PS_TYPE_HP": "FR", "PS_STATUS": "EX", "PS_PHONE": "703.777.0333"}},
{"geometry": {"type": "Point", "coordinates": [-77.7771385, 39.1331064]}, "type": "Feature", "properties": {"PS_NAME": "WESTERN LOUDOUN", "OBJECTID": 35, "PS_FULL_NAME": "WESTERN LOUDOUN STATION", "PS_CO": "SO", "PS_URL": "http://va-loudouncountysheriff.civicplus.com/index.aspx?NID=222", "PS_UPD_DATE": 1480291200000, "PS_ADDRESS": "47 W LOUDOUN ST ROUND HILL VA 20142", "PS_TYPE_HP": "SO", "PS_STATUS": "EX", "PS_PHONE": "540.338.5555"}}
]}