{"type":"FeatureCollection","features":[
{"geometry": {"type": "Point", "coordinates": [-78.6026528, 37.7595989]}, "type": "Feature", "properties": {"COORDSYSTE": "NAD83", "ELEVATION": "FT", "FID": 1, "MAPNUMBER": "37", "POSTEDDATE": "JULY 96", "COMMENTS": " ", "BENCHMARKT": "ROD & CAP", "CONTACT": "ALBEMARLE COUNTY", "LOCATION": ".15 mi from inter. Of Rt. 723 & Rt. 626", "EASTING": 11453241.28, "OWNER": "ALBEMARLE COUNTY", "Z": 0, "TYPE": "FT", "GPSLOCMAP": "Y", "NAVDELEVAT": "0", "NORTHING": 3800146}},
{"geometry": {"type": "Point", "coordinates": [-78.512916, 37.7593205]}, "type": "Feature", "properties": {"COORDSYSTE": "NAD83", "ELEVATION": "FT", "FID": 2, "MAPNUMBER": "38", "POSTEDDATE": "JULY 96", "COMMENTS": " ", "BENCHMARKT": "ROD & CAP", "CONTACT": "ALBEMARLE COUNTY", "LOCATION": "RR crossing over Rt. 625 near James River Runners", "EASTING": 11479183.51, "OWNER": "ALBEMARLE COUNTY", "Z": 0, "TYPE": "FT", "GPSLOCMAP": "Y", "NAVDELEVAT": "0", "NORTHING": 3800028.76}},
{"geometry": {"type": "Point", "coordinates": [-78.670072, 37.7292157]}, "type": "Feature", "properties": {"COORDSYSTE": "NAD83", "ELEVATION": "FT", "FID": 3, "MAPNUMBER": "39", "POSTEDDATE": "JULY 96", "COMMENTS": " ", "BENCHMARKT": "ROD & CAP", "CONTACT": "ALBEMARLE COUNTY", "LOCATION": "Rt. 724 1.3 mi. from inter. Of Rt. 602 & Rt. 724", "EASTING": 11433730.95, "OWNER": "ALBEMARLE COUNTY", "Z": 0, "TYPE": "FT", "GPSLOCMAP": "Y", "NAVDELEVAT": "0", "NORTHING": 3789110.66}},
{"geometry": {"type": "Point", "coordinates": [-78.5052838, 38.0445675]}, "type": "Feature", "properties": {"COORDSYSTE": "NAD83", "ELEVATION": "FT", "FID": 4, "MAPNUMBER": " ", "POSTEDDATE": " ", "COMMENTS": "MAPS & #'S DON'T MATCH", "BENCHMARKT": " ", "CONTACT": "CITY GAS DEPT.", "LOCATION": " ", "EASTING": 11481395.751, "OWNER": "CVILLE", "Z": 0, "TYPE": "FT", "GPSLOCMAP": "N", "NAVDELEVAT": "488.148", "NORTHING": 3903901.5653}},
{"geometry": {"type": "Point", "coordinates": [-78.5098958, 38.0463697]}, "type": "Feature", "properties": {"COORDSYSTE": "NAD83", "ELEVATION": "FT", "FID": 5, "MAPNUMBER": " ", "POSTEDDATE": " ", "COMMENTS": "MAPS & #'S DON'T MATCH", "BENCHMARKT": " ", "CONTACT": "CITY GAS DEPT.", "LOCATION": " ", "EASTING": 11480067.5934, "OWNER": "CVILLE", "Z": 0, "TYPE": "FT", "GPSLOCMAP": "N", "NAVDELEVAT": "553.11", "NORTHING": 3904557.9733}},
{"geometry": {"type": "Point", "coordinates": [-78.4858564, 38.0287479]}, "type": "Feature", "properties": {"COORDSYSTE": "NAD83", "ELEVATION": "FT", "FID": 6, "MAPNUMBER": " ", "POSTEDDATE": " ", "COMMENTS": "MAPS & #'S DON'T MATCH", "BENCHMARKT": " ", "CONTACT": "CITY GAS DEPT.", "LOCATION": " ", "EASTING": 11486991.5706, "OWNER": "CVILLE", "Z": 0, "TYPE": "FT", "GPSLOCMAP": "N", "NAVDELEVAT": "488.26", "NORTHING": 3898140.8171}},
{"geometry": {"type": "Point", "coordinates": [-78.500584, 38.0298226]}, "type": "Feature", "properties": {"COORDSYSTE": "NAD83", "ELEVATION": "FT", "FID": 7, "MAPNUMBER": " ", "POSTEDDATE": " ", "COMMENTS": "MAPS & #'S DON'T MATCH", "BENCHMARKT": " ", "CONTACT": "UVA&CITY GAS DEPT.", "LOCATION": " ", "EASTING": 11482749.22, "OWNER": "UVA&CVILLE", "Z": 0, "TYPE": "FT", "GPSLOCMAP": "N", "NAVDELEVAT": "475.97", "NORTHING": 3898531.8784}},
{"geometry": {"type": "Point", "coordinates": [-78.5129104, 38.0259274]}, "type": "Feature", "properties": {"COORDSYSTE": "NAD83", "ELEVATION": "FT", "FID": 8, "MAPNUMBER": " ", "POSTEDDATE": " ", "COMMENTS": "MAPS & #'S DON'T MATCH", "BENCHMARKT": " ", "CONTACT": "CITY GAS DEPT.", "LOCATION": " ", "EASTING": 11479198.3969, "OWNER": "CVILLE", "Z": 0, "TYPE": "FT", "GPSLOCMAP": "N", "NAVDELEVAT": "500.02", "NORTHING": 3897113.6216}},
{"geometry": {"type": "Point", "coordinates": [-78.5247396, 38.0231915]}, "type": "Feature", "properties": {"COORDSYSTE": "NAD83", "ELEVATION": "FT", "FID": 9, "MAPNUMBER": " ", "POSTEDDATE": " ", "COMMENTS": "MAPS & #'S DON'T MATCH", "BENCHMARKT": " ", "CONTACT": "CITY GAS DEPT.", "LOCATION": " ", "EASTING": 11475790.5451, "OWNER": "CVILLE", "Z": 0, "TYPE": "FT", "GPSLOCMAP": "N", "NAVDELEVAT": "494.26", "NORTHING": 3896118.0096}},
{"geometry": {"type": "Point", "coordinates": [-78.5348497, 38.0363789]}, "type": "Feature", "properties": {"COORDSYSTE": "NAD83", "ELEVATION": "FT", "FID": 10, "MAPNUMBER": " ", "POSTEDDATE": " ", "COMMENTS": "MAPS & #'S DON'T MATCH", "BENCHMARKT": " ", "CONTACT": "CITY GAS DEPT.", "LOCATION": " ", "EASTING": 11472879.8528, "OWNER": "CVILLE", "Z": 0, "TYPE": "FT", "GPSLOCMAP": "N", "NAVDELEVAT": "482.33", "NORTHING": 3900921.3299}},
{"geometry": {"type": "Point", "coordinates": [-78.5216865, 38.0369419]}, "type": "Feature", "properties": {"COORDSYSTE": "NAD83", "ELEVATION": "FT", "FID": 11, "MAPNUMBER": " ", "POSTEDDATE": " ", "COMMENTS": "MAPS & #'S DON'T MATCH", "BENCHMARKT": " ", "CONTACT": "UVA&CITY GAS DEPT.", "LOCATION": " ", "EASTING": 11476671.2376, "OWNER": "UVA&CVILLE", "Z": 0, "TYPE": "FT", "GPSLOCMAP": "N", "NAVDELEVAT": "765.95", "NORTHING": 3901125.2163}},
{"geometry": {"type": "Point", "coordinates": [-78.5122839, 38.0419157]}, "type": "Feature", "properties": {"COORDSYSTE": "NAD83", "ELEVATION": "FT", "FID": 12, "MAPNUMBER": " ", "POSTEDDATE": " ", "COMMENTS": "MAPS & #'S DON'T MATCH", "BENCHMARKT": " ", "CONTACT": "UVA&CITY GAS DEPT.", "LOCATION": " ", "EASTING": 11479379.6384, "OWNER": "UVA&CVILLE", "Z": 0, "TYPE": "FT", "GPSLOCMAP": "N", "NAVDELEVAT": "569.94", "NORTHING": 3902936.0461}},
{"geometry": {"type": "Point", "coordinates": [-78.4998009, 38.0426183]}, "type": "Feature", "properties": {"COORDSYSTE": "NAD83", "ELEVATION": "FT", "FID": 13, "MAPNUMBER": " ", "POSTEDDATE": " ", "COMMENTS": "MAPS & #'S DON'T MATCH", "BENCHMARKT": " ", "CONTACT": "UVA&CITY GAS DEPT.", "LOCATION": " ", "EASTING": 11482974.7973, "OWNER": "UVA&CVILLE", "Z": 0, "TYPE": "FT", "GPSLOCMAP": "N", "NAVDELEVAT": "596.67", "NORTHING": 3903191.6657}},
{"geometry": {"type": "Point", "coordinates": [-78.4890843, 38.0553039]}, "type": "Feature", "properties": {"COORDSYSTE": "NAD83", "ELEVATION": "FT", "FID": 14, "MAPNUMBER": " ", "POSTEDDATE": " ", "COMMENTS": "MAPS & #'S DON'T MATCH", "BENCHMARKT": " ", "CONTACT": "CITY GAS DEPT.", "LOCATION": " ", "EASTING": 11486060.6536, "OWNER": "CVILLE", "Z": 0, "TYPE": "FT", "GPSLOCMAP": "N", "NAVDELEVAT": "505.67", "NORTHING": 3907811.5615}},
{"geometry": {"type": "Point", "coordinates": [-78.502634, 38.0575163]}, "type": "Feature", "properties": {"COORDSYSTE": "NAD83", "ELEVATION": "FT", "FID": 15, "MAPNUMBER": " ", "POSTEDDATE": " ", "COMMENTS": "MAPS & #'S DON'T MATCH", "BENCHMARKT": " ", "CONTACT": "UVA&CITY GAS DEPT.", "LOCATION": " ", "EASTING": 11482158.9911, "OWNER": "UVA&CVILLE", "Z": 0, "TYPE": "FT", "GPSLOCMAP": "N", "NAVDELEVAT": "497.21", "NORTHING": 3908617.0908}},
{"geometry": {"type": "Point", "coordinates": [-78.5124834, 38.0557773]}, "type": "Feature", "properties": {"COORDSYSTE": "NAD83", "ELEVATION": "FT", "FID": 16, "MAPNUMBER": " ", "POSTEDDATE": " ", "COMMENTS": "MAPS & #'S DON'T MATCH", "BENCHMARKT": " ", "CONTACT": "UVA&CITY GAS DEPT.", "LOCATION": " ", "EASTING": 11479322.8484, "OWNER": "UVA&CVILLE", "Z": 0, "TYPE": "FT", "GPSLOCMAP": "N", "NAVDELEVAT": "549.04", "NORTHING": 3907984.0053}},
{"geometry": {"type": "Point", "coordinates": [-78.5231281, 38.0490209]}, "type": "Feature", "properties": {"COORDSYSTE": "NAD83", "ELEVATION": "FT", "FID": 17, "MAPNUMBER": " ", "POSTEDDATE": " ", "COMMENTS": "MAPS & #'S DON'T MATCH", "BENCHMARKT": " ", "CONTACT": "UVA&CITY GAS DEPT.", "LOCATION": " ", "EASTING": 11476257.1025, "OWNER": "UVA&CVILLE", "Z": 0, "TYPE": "FT", "GPSLOCMAP": "N", "NAVDELEVAT": "560.91", "NORTHING": 3905524.098}},
{"geometry": {"type": "Point", "coordinates": [-78.5052837, 38.0445675]}, "type": "Feature", "properties": {"COORDSYSTE": "NAD83", "ELEVATION": "FT", "FID": 18, "MAPNUMBER": "1", "POSTEDDATE": "1993", "COMMENTS": "FLUSH", "BENCHMARKT": "DISC", "CONTACT": "UVA", "LOCATION": "nw corner of inter. Of Massie Rd. & Emmett St.", "EASTING": 11481395.759, "OWNER": "UVA", "Z": 0, "TYPE": "FT", "GPSLOCMAP": "Y", "NAVDELEVAT": "488.148", "NORTHING": 3903901.565}},
{"geometry": {"type": "Point", "coordinates": [-78.5069162, 38.039756]}, "type": "Feature", "properties": {"COORDSYSTE": "NAD83", "ELEVATION": "FT", "FID": 19, "MAPNUMBER": "2", "POSTEDDATE": "1993", "COMMENTS": "FLUSH", "BENCHMARKT": "DISC", "CONTACT": "UVA", "LOCATION": "sw corner of inter. Of Emmett Rd. & Ivy Rd.", "EASTING": 11480925.506, "OWNER": "UVA", "Z": 0, "TYPE": "FT", "GPSLOCMAP": "Y", "NAVDELEVAT": "519.238", "NORTHING": 3902149.382}},
{"geometry": {"type": "Point", "coordinates": [-78.5016444, 38.0322626]}, "type": "Feature", "properties": {"COORDSYSTE": "NAD83", "ELEVATION": "FT", "FID": 20, "MAPNUMBER": "3", "POSTEDDATE": "1993", "COMMENTS": "FLUSH", "BENCHMARKT": "DISC", "CONTACT": "UVA", "LOCATION": "n side of JPA 40 ft. sw of library", "EASTING": 11482443.794, "OWNER": "UVA", "Z": 0, "TYPE": "FT", "GPSLOCMAP": "Y", "NAVDELEVAT": "480.002", "NORTHING": 3899420.451}},
{"geometry": {"type": "Point", "coordinates": [-78.5087463, 38.0337715]}, "type": "Feature", "properties": {"COORDSYSTE": "NAD83", "ELEVATION": "FT", "FID": 21, "MAPNUMBER": "4", "POSTEDDATE": "1994", "COMMENTS": "SET IN TOP SIDEWALK", "BENCHMARKT": "DISC", "CONTACT": "UVA", "LOCATION": "n side of McCormick Rd. just e of Emmett overpass", "EASTING": 11480398.188, "OWNER": "UVA", "Z": 0, "TYPE": "FT", "GPSLOCMAP": "Y", "NAVDELEVAT": "553.963", "NORTHING": 3899970.044}},
{"geometry": {"type": "Point", "coordinates": [-78.509896, 38.0463692]}, "type": "Feature", "properties": {"COORDSYSTE": "NAD83", "ELEVATION": "FT", "FID": 22, "MAPNUMBER": "5", "POSTEDDATE": "1993", "COMMENTS": "FLUSH", "BENCHMARKT": "DISC", "CONTACT": "UVA", "LOCATION": "sw corner of inter. Of Massie Rd. & copely Rd.", "EASTING": 11480067.524, "OWNER": "UVA", "Z": 0, "TYPE": "FT", "GPSLOCMAP": "Y", "NAVDELEVAT": "553.063", "NORTHING": 3904557.792}},
{"geometry": {"type": "Point", "coordinates": [-78.5139676, 38.0355465]}, "type": "Feature", "properties": {"COORDSYSTE": "NAD83", "ELEVATION": "FT", "FID": 23, "MAPNUMBER": "6", "POSTEDDATE": "1993", "COMMENTS": "FLUSH", "BENCHMARKT": "DISC", "CONTACT": "UVA", "LOCATION": "ne corner of inter. Of Alderman Rd. & service rd", "EASTING": 11478894.39, "OWNER": "UVA", "Z": 0, "TYPE": "FT", "GPSLOCMAP": "Y", "NAVDELEVAT": "581.503", "NORTHING": 3900616.634}},
{"geometry": {"type": "Point", "coordinates": [-78.5166633, 38.0286676]}, "type": "Feature", "properties": {"COORDSYSTE": "NAD83", "ELEVATION": "FT", "FID": 24, "MAPNUMBER": "7", "POSTEDDATE": "1993", "COMMENTS": "FLUSH", "BENCHMARKT": "DISC", "CONTACT": "UVA", "LOCATION": "ne corner of inter. Of Albderman Rd & Stadium Rd.", "EASTING": 11478117.506, "OWNER": "UVA", "Z": 0, "TYPE": "FT", "GPSLOCMAP": "Y", "NAVDELEVAT": "541.777", "NORTHING": 3898111.697}},
{"geometry": {"type": "Point", "coordinates": [-78.5094985, 38.0520965]}, "type": "Feature", "properties": {"COORDSYSTE": "NAD83", "ELEVATION": "FT", "FID": 25, "MAPNUMBER": "8", "POSTEDDATE": "1993", "COMMENTS": "FLUSH", "BENCHMARKT": "DISC", "CONTACT": "UVA", "LOCATION": "nw of inter. Of Massie Rd. & Arlington blvd.", "EASTING": 11480182.212, "OWNER": "UVA", "Z": 0, "TYPE": "FT", "GPSLOCMAP": "Y", "NAVDELEVAT": "565.907", "NORTHING": 3906643.49}},
{"geometry": {"type": "Point", "coordinates": [-78.4976748, 38.0331797]}, "type": "Feature", "properties": {"COORDSYSTE": "NAD83", "ELEVATION": "FT", "FID": 26, "MAPNUMBER": "GLO 8", "POSTEDDATE": "1993", "COMMENTS": "ON SIDEWALK", "BENCHMARKT": "G.L.O. DISC", "CONTACT": "UVA", "LOCATION": "inter. Of JPA & W. Main St.", "EASTING": 11483587.179, "OWNER": "UVA", "Z": 0, "TYPE": "FT", "GPSLOCMAP": "Y", "NAVDELEVAT": "506.415", "NORTHING": 3899754.437}},
{"geometry": {"type": "Point", "coordinates": [-78.5129104, 38.0259274]}, "type": "Feature", "properties": {"COORDSYSTE": "NAD83", "ELEVATION": "FT", "FID": 27, "MAPNUMBER": "15", "POSTEDDATE": " ", "COMMENTS": " ", "BENCHMARKT": " ", "CONTACT": "UVA", "LOCATION": " ", "EASTING": 11479198.3969, "OWNER": "UVA", "Z": 0, "TYPE": "FT", "GPSLOCMAP": "N", "NAVDELEVAT": "500.02", "NORTHING": 3897113.621}},
{"geometry": {"type": "Point", "coordinates": [-78.3312386, 37.971006]}, "type": "Feature", "properties": {"COORDSYSTE": "NAD83", "ELEVATION": "FT", "FID": 28, "MAPNUMBER": "BLO 1", "POSTEDDATE": " ", "COMMENTS": "BOYD TAVERN", "BENCHMARKT": " ", "CONTACT": " ", "LOCATION": " ", "EASTING": 11531567.4971, "OWNER": " ", "Z": 0, "TYPE": "FT", "GPSLOCMAP": " ", "NAVDELEVAT": "432.06", "NORTHING": 3877156.526}},
{"geometry": {"type": "Point", "coordinates": [-78.320249, 37.9721063]}, "type": "Feature", "properties": {"COORDSYSTE": "NAD83", "ELEVATION": "FT", "FID": 29, "MAPNUMBER": "BLO 2", "POSTEDDATE": " ", "COMMENTS": "BOYD TAVERN", "BENCHMARKT": " ", "CONTACT": " ", "LOCATION": " ", "EASTING": 11534734.7833, "OWNER": " ", "Z": 0, "TYPE": "FT", "GPSLOCMAP": " ", "NAVDELEVAT": "376.07", "NORTHING": 3877563.0663}},
{"geometry": {"type": "Point", "coordinates": [-78.327536, 37.9803895]}, "type": "Feature", "properties": {"COORDSYSTE": "NAD83", "ELEVATION": "FT", "FID": 30, "MAPNUMBER": "BLO 3", "POSTEDDATE": " ", "COMMENTS": "BOYD TAVERN", "BENCHMARKT": " ", "CONTACT": " ", "LOCATION": " ", "EASTING": 11532628.6332, "OWNER": " ", "Z": 0, "TYPE": "FT", "GPSLOCMAP": " ", "NAVDELEVAT": "441.65", "NORTHING": 3880575.5364}},
{"geometry": {"type": "Point", "coordinates": [-78.3296177, 37.9793702]}, "type": "Feature", "properties": {"COORDSYSTE": "NAD83", "ELEVATION": "FT", "FID": 31, "MAPNUMBER": "BLO 4", "POSTEDDATE": " ", "COMMENTS": "BOYD TAVERN", "BENCHMARKT": " ", "CONTACT": " ", "LOCATION": " ", "EASTING": 11532029.2554, "OWNER": " ", "Z": 0, "TYPE": "FT", "GPSLOCMAP": " ", "NAVDELEVAT": "427.68", "NORTHING": 3880203.2781}},
{"geometry": {"type": "Point", "coordinates": [-78.3383375, 37.9845587]}, "type": "Feature", "properties": {"COORDSYSTE": "NAD83", "ELEVATION": "FT", "FID": 32, "MAPNUMBER": "BOYD", "POSTEDDATE": " ", "COMMENTS": "BOYD TAVERN", "BENCHMARKT": " ", "CONTACT": " ", "LOCATION": " ", "EASTING": 11529512.5862, "OWNER": " ", "Z": 0, "TYPE": "FT", "GPSLOCMAP": " ", "NAVDELEVAT": "484.89", "NORTHING": 3882088.2791}},
{"geometry": {"type": "Point", "coordinates": [-78.459158, 38.128647]}, "type": "Feature", "properties": {"COORDSYSTE": "NAD83", "ELEVATION": " ", "FID": 33, "MAPNUMBER": "HARN", "POSTEDDATE": " ", "COMMENTS": " ", "BENCHMARKT": " ", "CONTACT": " ", "LOCATION": " ", "EASTING": 11494666.4288, "OWNER": " ", "Z": 0, "TYPE": "FT", "GPSLOCMAP": " ", "NAVDELEVAT": " ", "NORTHING": 3934523.7229}},
{"geometry": {"type": "Point", "coordinates": [-78.7018986, 38.1264636]}, "type": "Feature", "properties": {"COORDSYSTE": "NAD83", "ELEVATION": " ", "FID": 34, "MAPNUMBER": "NEO1", "POSTEDDATE": " ", "COMMENTS": " ", "BENCHMARKT": " ", "CONTACT": " ", "LOCATION": " ", "EASTING": 11424835.7972, "OWNER": " ", "Z": 0, "TYPE": "FT", "GPSLOCMAP": " ", "NAVDELEVAT": " ", "NORTHING": 3933788.1135}},
{"geometry": {"type": "Point", "coordinates": [-78.7346824, 38.1077284]}, "type": "Feature", "properties": {"COORDSYSTE": "NAD83", "ELEVATION": " ", "FID": 35, "MAPNUMBER": "NEO2", "POSTEDDATE": " ", "COMMENTS": " ", "BENCHMARKT": " ", "CONTACT": " ", "LOCATION": " ", "EASTING": 11415387.6919, "OWNER": " ", "Z": 0, "TYPE": "FT", "GPSLOCMAP": " ", "NAVDELEVAT": " ", "NORTHING": 3926986.9642}},
{"geometry": {"type": "Point", "coordinates": [-78.6955493, 38.1277089]}, "type": "Feature", "properties": {"COORDSYSTE": "NAD83", "ELEVATION": " ", "FID": 36, "MAPNUMBER": "NEO3", "POSTEDDATE": " ", "COMMENTS": " ", "BENCHMARKT": " ", "CONTACT": " ", "LOCATION": " ", "EASTING": 11426663.2795, "OWNER": " ", "Z": 0, "TYPE": "FT", "GPSLOCMAP": " ", "NAVDELEVAT": " ", "NORTHING": 3934237.7717}},
{"geometry": {"type": "Point", "coordinates": [-78.7121172, 38.1279522]}, "type": "Feature", "properties": {"COORDSYSTE": "NAD83", "ELEVATION": " ", "FID": 37, "MAPNUMBER": "NEO4", "POSTEDDATE": " ", "COMMENTS": " ", "BENCHMARKT": " ", "CONTACT": " ", "LOCATION": " ", "EASTING": 11421897.342, "OWNER": " ", "Z": 0, "TYPE": "FT", "GPSLOCMAP": " ", "NAVDELEVAT": " ", "NORTHING": 3934336.6995}},
{"geometry": {"type": "Point", "coordinates": [-78.7254134, 38.1229988]}, "type": "Feature", "properties": {"COORDSYSTE": "NAD83", "ELEVATION": " ", "FID": 38, "MAPNUMBER": "NEO5", "POSTEDDATE": " ", "COMMENTS": " ", "BENCHMARKT": " ", "CONTACT": " ", "LOCATION": " ", "EASTING": 11418068.1235, "OWNER": " ", "Z": 0, "TYPE": "FT", "GPSLOCMAP": " ", "NAVDELEVAT": " ", "NORTHING": 3932541.6356}},
{"geometry": {"type": "Point", "coordinates": [-78.7128729, 38.1098591]}, "type": "Feature", "properties": {"COORDSYSTE": "NAD83", "ELEVATION": " ", "FID": 39, "MAPNUMBER": "NEO6", "POSTEDDATE": " ", "COMMENTS": " ", "BENCHMARKT": " ", "CONTACT": " ", "LOCATION": " ", "EASTING": 11421665.1044, "OWNER": " ", "Z": 0, "TYPE": "FT", "GPSLOCMAP": " ", "NAVDELEVAT": " ", "NORTHING": 3927748.0595}},
{"geometry": {"type": "Point", "coordinates": [-78.5063946, 37.9819589]}, "type": "Feature", "properties": {"COORDSYSTE": "NAD83", "ELEVATION": "FT", "FID": 40, "MAPNUMBER": "101", "POSTEDDATE": "MARCH 94", "COMMENTS": "3\" BELOW", "BENCHMARKT": "PIN & CAP UNDERGROUND", "CONTACT": "CITY GAS DEPT.", "LOCATION": "corner of Sville Rd. & Avon St. Ext.", "EASTING": 11481074.302, "OWNER": "CVILLE", "Z": 0, "TYPE": "FT", "GPSLOCMAP": "Y", "NAVDELEVAT": "528.8", "NORTHING": 3881101.729}},
{"geometry": {"type": "Point", "coordinates": [-78.5455863, 37.9727663]}, "type": "Feature", "properties": {"COORDSYSTE": "NAD83", "ELEVATION": "FT", "FID": 41, "MAPNUMBER": "102", "POSTEDDATE": "MARCH 94", "COMMENTS": "FLUSH W/GRND", "BENCHMARKT": "PIN & CAP GRND LVL", "CONTACT": "CITY GAS DEPT.", "LOCATION": "Rt 631 .6 mi. to Rt 706", "EASTING": 11469776.27, "OWNER": "CVILLE", "Z": 0, "TYPE": "FT", "GPSLOCMAP": "Y", "NAVDELEVAT": "451.9", "NORTHING": 3877757.261}},
{"geometry": {"type": "Point", "coordinates": [-78.5273934, 38.0002452]}, "type": "Feature", "properties": {"COORDSYSTE": "NAD83", "ELEVATION": "FT", "FID": 42, "MAPNUMBER": "103", "POSTEDDATE": "MARCH 94", "COMMENTS": "2\" BELOW", "BENCHMARKT": "PIN & CAP UNDERGROUND", "CONTACT": "CITY GAS DEPT.", "LOCATION": "corner of Rt 631 & Hickory Rd.", "EASTING": 11475023.635, "OWNER": "CVILLE", "Z": 0, "TYPE": "FT", "GPSLOCMAP": "Y", "NAVDELEVAT": "487.4", "NORTHING": 3887761.978}},
{"geometry": {"type": "Point", "coordinates": [-78.50535, 37.9892728]}, "type": "Feature", "properties": {"COORDSYSTE": "NAD83", "ELEVATION": "FT", "FID": 43, "MAPNUMBER": "104", "POSTEDDATE": "MARCH 94", "COMMENTS": "1\" BELOW", "BENCHMARKT": "PIN & CAP UNDERGROUND", "CONTACT": "CITY GAS DEPT.", "LOCATION": "corner of Rts 742 & 1167", "EASTING": 11481375.528, "OWNER": "CVILLE", "Z": 0, "TYPE": "FT", "GPSLOCMAP": "Y", "NAVDELEVAT": "643.6", "NORTHING": 3883765.149}},
{"geometry": {"type": "Point", "coordinates": [-78.502022, 37.9871535]}, "type": "Feature", "properties": {"COORDSYSTE": "NAD83", "ELEVATION": "FT", "FID": 44, "MAPNUMBER": "105", "POSTEDDATE": "MARCH 94", "COMMENTS": "2\" BELOW", "BENCHMARKT": "PIN & CAP UNDERGROUND", "CONTACT": "CITY GAS DEPT.", "LOCATION": "Rt 20, 1.6 mi to Rt.53 E", "EASTING": 11482334.683, "OWNER": "CVILLE", "Z": 0, "TYPE": "FT", "GPSLOCMAP": "Y", "NAVDELEVAT": "527.7", "NORTHING": 3882993.34}},
{"geometry": {"type": "Point", "coordinates": [-78.4809061, 38.0039515]}, "type": "Feature", "properties": {"COORDSYSTE": "NAD83", "ELEVATION": "FT", "FID": 45, "MAPNUMBER": "106", "POSTEDDATE": "MARCH 94", "COMMENTS": "1\" BELOW", "BENCHMARKT": "PIN & CAP UNDERGROUND", "CONTACT": "CITY GAS DEPT.", "LOCATION": "median on Rt. 20 near Rt. 53E", "EASTING": 11488419.356, "OWNER": "CVILLE", "Z": 0, "TYPE": "FT", "GPSLOCMAP": "Y", "NAVDELEVAT": "372.8", "NORTHING": 3889111.083}},
{"geometry": {"type": "Point", "coordinates": [-78.5851711, 38.0259429]}, "type": "Feature", "properties": {"COORDSYSTE": "NAD83", "ELEVATION": "FT", "FID": 46, "MAPNUMBER": "107", "POSTEDDATE": "MARCH 94", "COMMENTS": "1\" BELOW", "BENCHMARKT": "PIN & CAP UNDERGROUND", "CONTACT": "CITY GAS DEPT.", "LOCATION": "median on I-64 2.4 mi from on ramp from 29S", "EASTING": 11458382.592, "OWNER": "CVILLE", "Z": 0, "TYPE": "FT", "GPSLOCMAP": "Y", "NAVDELEVAT": "821.3", "NORTHING": 3897130.09}},
{"geometry": {"type": "Point", "coordinates": [-78.564358, 38.0216886]}, "type": "Feature", "properties": {"COORDSYSTE": "NAD83", "ELEVATION": "FT", "FID": 47, "MAPNUMBER": "108", "POSTEDDATE": "MARCH 94", "COMMENTS": "1\" BELOW", "BENCHMARKT": "PIN & CAP UNDERGROUND", "CONTACT": "CITY GAS DEPT.", "LOCATION": "median on I-64 1.25 mi from 29S onramp", "EASTING": 11464377.091, "OWNER": "CVILLE", "Z": 0, "TYPE": "FT", "GPSLOCMAP": "Y", "NAVDELEVAT": "724.3", "NORTHING": 3895576.061}},
{"geometry": {"type": "Point", "coordinates": [-78.5428105, 38.0170575]}, "type": "Feature", "properties": {"COORDSYSTE": "NAD83", "ELEVATION": "FT", "FID": 48, "MAPNUMBER": "109", "POSTEDDATE": "MARCH 94", "COMMENTS": "2\" BELOW", "BENCHMARKT": "PIN & CAP UNDERGROUND", "CONTACT": "CITY GAS DEPT.", "LOCATION": "corner of Rt 29N and Rt. 1106", "EASTING": 11470583.758, "OWNER": "CVILLE", "Z": 0, "TYPE": "FT", "GPSLOCMAP": "Y", "NAVDELEVAT": "450.8", "NORTHING": 3893886.061}},
{"geometry": {"type": "Point", "coordinates": [-78.527602, 38.0076037]}, "type": "Feature", "properties": {"COORDSYSTE": "NAD83", "ELEVATION": "FT", "FID": 49, "MAPNUMBER": "110", "POSTEDDATE": "MARCH 94", "COMMENTS": "FLUSH W/GROUND", "BENCHMARKT": "PIN & CAP GRND LVL", "CONTACT": "CITY GAS DEPT.", "LOCATION": "corner of Rt 781 & Redfields Rd", "EASTING": 11474964.311, "OWNER": "CVILLE", "Z": 0, "TYPE": "FT", "GPSLOCMAP": "Y", "NAVDELEVAT": "560.2", "NORTHING": 3890441.688}},
{"geometry": {"type": "Point", "coordinates": [-78.507726, 38.008977]}, "type": "Feature", "properties": {"COORDSYSTE": "NAD83", "ELEVATION": "FT", "FID": 50, "MAPNUMBER": "111", "POSTEDDATE": "MARCH 94", "COMMENTS": "3\" BELOW", "BENCHMARKT": "PIN & CAP UNDERGROUND", "CONTACT": "CITY GAS DEPT.", "LOCATION": "corner of Rt 631N & I-64 W exit ramp", "EASTING": 11480691.35, "OWNER": "CVILLE", "Z": 0, "TYPE": "FT", "GPSLOCMAP": "Y", "NAVDELEVAT": "416.7", "NORTHING": 3890940.715}},
{"geometry": {"type": "Point", "coordinates": [-78.4921019, 38.0188375]}, "type": "Feature", "properties": {"COORDSYSTE": "NAD83", "ELEVATION": "FT", "FID": 51, "MAPNUMBER": "112", "POSTEDDATE": "MARCH 94", "COMMENTS": "1\" BELOW", "BENCHMARKT": "PIN & CAP UNDERGROUND", "CONTACT": "CITY GAS DEPT.", "LOCATION": "corner of Baylor Ln & Woodfolk Dr.", "EASTING": 11485192.824, "OWNER": "CVILLE", "Z": 0, "TYPE": "FT", "GPSLOCMAP": "Y", "NAVDELEVAT": "455.5", "NORTHING": 3894531.558}},
{"geometry": {"type": "Point", "coordinates": [-78.4643494, 38.0093935]}, "type": "Feature", "properties": {"COORDSYSTE": "NAD83", "ELEVATION": "FT", "FID": 52, "MAPNUMBER": "113", "POSTEDDATE": "MARCH 94", "COMMENTS": "1\" BELOW", "BENCHMARKT": "PIN & CAP UNDERGROUND", "CONTACT": "CITY GAS DEPT.", "LOCATION": "planting strip at entrance to cemetery at Rt. 53", "EASTING": 11493189.432, "OWNER": "CVILLE", "Z": 0, "TYPE": "FT", "GPSLOCMAP": "Y", "NAVDELEVAT": "520.5", "NORTHING": 3891094.242}},
{"geometry": {"type": "Point", "coordinates": [-78.4628345, 38.0201879]}, "type": "Feature", "properties": {"COORDSYSTE": "NAD83", "ELEVATION": "FT", "FID": 53, "MAPNUMBER": "114", "POSTEDDATE": "MARCH 94", "COMMENTS": "2\" BELOW", "BENCHMARKT": "PIN & CAP UNDERGROUND", "CONTACT": "CITY GAS DEPT.", "LOCATION": "near crnr of Franklin St. & entr. To Mrs Crk Plnt", "EASTING": 11493624.362, "OWNER": "CVILLE", "Z": 0, "TYPE": "FT", "GPSLOCMAP": "Y", "NAVDELEVAT": "327.3", "NORTHING": 3895025.346}},
{"geometry": {"type": "Point", "coordinates": [-78.4449043, 38.0251857]}, "type": "Feature", "properties": {"COORDSYSTE": "NAD83", "ELEVATION": "FT", "FID": 54, "MAPNUMBER": "115", "POSTEDDATE": "MARCH 94", "COMMENTS": "1\" BELOW", "BENCHMARKT": "PIN & CAP UNDERGROUND", "CONTACT": "CITY GAS DEPT.", "LOCATION": "corner of Rt 1117 & private dr (.3 mi to Rt 250)", "EASTING": 11498788.777, "OWNER": "CVILLE", "Z": 0, "TYPE": "FT", "GPSLOCMAP": "Y", "NAVDELEVAT": "512.3", "NORTHING": 3896847.902}},
{"geometry": {"type": "Point", "coordinates": [-78.4174263, 37.9924629]}, "type": "Feature", "properties": {"COORDSYSTE": "NAD83", "ELEVATION": "FT", "FID": 55, "MAPNUMBER": "116", "POSTEDDATE": "MARCH 94", "COMMENTS": "1\" BELOW", "BENCHMARKT": "PIN & CAP UNDERGROUND", "CONTACT": "CITY GAS DEPT.", "LOCATION": "Rose Hill Baptist Church", "EASTING": 11506714.726, "OWNER": "CVILLE", "Z": 0, "TYPE": "FT", "GPSLOCMAP": "Y", "NAVDELEVAT": "425.2", "NORTHING": 3884937.214}},
{"geometry": {"type": "Point", "coordinates": [-78.4041904, 38.0067425]}, "type": "Feature", "properties": {"COORDSYSTE": "NAD83", "ELEVATION": "FT", "FID": 56, "MAPNUMBER": "117", "POSTEDDATE": "MARCH 94", "COMMENTS": "1\" BELOW", "BENCHMARKT": "PIN & CAP UNDERGROUND", "CONTACT": "CITY GAS DEPT.", "LOCATION": "Rt. 732 .1 mi from Rt. 729", "EASTING": 11510523.951, "OWNER": "CVILLE", "Z": 0, "TYPE": "FT", "GPSLOCMAP": "Y", "NAVDELEVAT": "361.2", "NORTHING": 3890140.898}},
{"geometry": {"type": "Point", "coordinates": [-78.3871538, 38.0094275]}, "type": "Feature", "properties": {"COORDSYSTE": "NAD83", "ELEVATION": "FT", "FID": 57, "MAPNUMBER": "118", "POSTEDDATE": "MARCH 94", "COMMENTS": "1\" BELOW", "BENCHMARKT": "PIN & CAP UNDERGROUND", "CONTACT": "CITY GAS DEPT.", "LOCATION": "Rt. 709 near Milton Dr. intersection", "EASTING": 11515431.713, "OWNER": "CVILLE", "Z": 0, "TYPE": "FT", "GPSLOCMAP": "Y", "NAVDELEVAT": "381.9", "NORTHING": 3891124.117}},
{"geometry": {"type": "Point", "coordinates": [-78.3824732, 38.0171263]}, "type": "Feature", "properties": {"COORDSYSTE": "NAD83", "ELEVATION": "FT", "FID": 58, "MAPNUMBER": "119", "POSTEDDATE": "MARCH 94", "COMMENTS": "2\" BELOW", "BENCHMARKT": "PIN & CAP UNDERGROUND", "CONTACT": "CITY GAS DEPT.", "LOCATION": "corner of Rt. 22 & entr. To Fox Den", "EASTING": 11516776.825, "OWNER": "CVILLE", "Z": 0, "TYPE": "FT", "GPSLOCMAP": "Y", "NAVDELEVAT": "397.8", "NORTHING": 3893929.414}},
{"geometry": {"type": "Point", "coordinates": [-78.4009194, 38.0164324]}, "type": "Feature", "properties": {"COORDSYSTE": "NAD83", "ELEVATION": "FT", "FID": 59, "MAPNUMBER": "120", "POSTEDDATE": "MARCH 94", "COMMENTS": "FLUSH W/GROUND", "BENCHMARKT": "PIN & CAP GROUND LVL", "CONTACT": "CITY GAS DEPT.", "LOCATION": "Inter. of  Rt. 250 & Edgehill Dr.", "EASTING": 11511462.758, "OWNER": "CVILLE", "Z": 0, "TYPE": "FT", "GPSLOCMAP": "Y", "NAVDELEVAT": "369.4", "NORTHING": 3893670.612}},
{"geometry": {"type": "Point", "coordinates": [-78.4243228, 38.0355776]}, "type": "Feature", "properties": {"COORDSYSTE": "NAD83", "ELEVATION": "FT", "FID": 60, "MAPNUMBER": "121", "POSTEDDATE": "MARCH 94", "COMMENTS": "2\" BELOW", "BENCHMARKT": "PIN & CAP UNDERGROUND", "CONTACT": "CITY GAS DEPT.", "LOCATION": "end of Lego Dr.", "EASTING": 11504714.599, "OWNER": "CVILLE", "Z": 0, "TYPE": "FT", "GPSLOCMAP": "Y", "NAVDELEVAT": "780.0", "NORTHING": 3900636.392}},
{"geometry": {"type": "Point", "coordinates": [-78.4412208, 38.0284951]}, "type": "Feature", "properties": {"COORDSYSTE": "NAD83", "ELEVATION": "FT", "FID": 61, "MAPNUMBER": "122", "POSTEDDATE": "MARCH 94", "COMMENTS": "2\" BELOW", "BENCHMARKT": "PIN & CAP UNDERGROUND", "CONTACT": "CITY GAS DEPT.", "LOCATION": "corner of Rt 250 E & Rt. 1117", "EASTING": 11499849.1, "OWNER": "CVILLE", "Z": 0, "TYPE": "FT", "GPSLOCMAP": "Y", "NAVDELEVAT": "523.4", "NORTHING": 3898053.723}},
{"geometry": {"type": "Point", "coordinates": [-78.4230234, 38.0474681]}, "type": "Feature", "properties": {"COORDSYSTE": "NAD83", "ELEVATION": "FT", "FID": 62, "MAPNUMBER": "123", "POSTEDDATE": "MARCH 94", "COMMENTS": "1\" BELOW", "BENCHMARKT": "PIN & CAP UNDERGROUND", "CONTACT": "CITY GAS DEPT.", "LOCATION": "Rt. 769 1 mi. to Rt 20", "EASTING": 11505085.346, "OWNER": "CVILLE", "Z": 0, "TYPE": "FT", "GPSLOCMAP": "Y", "NAVDELEVAT": "585.9", "NORTHING": 3904966.869}},
{"geometry": {"type": "Point", "coordinates": [-78.4454914, 38.0427028]}, "type": "Feature", "properties": {"COORDSYSTE": "NAD83", "ELEVATION": "FT", "FID": 63, "MAPNUMBER": "124", "POSTEDDATE": "MARCH 94", "COMMENTS": "1\" BELOW", "BENCHMARKT": "PIN & CAP UNDERGROUND", "CONTACT": "CITY GAS DEPT.", "LOCATION": "Rt. 20 at inter. W/rd to Broadus Chruch", "EASTING": 11498615.95, "OWNER": "CVILLE", "Z": 0, "TYPE": "FT", "GPSLOCMAP": "Y", "NAVDELEVAT": "350.2", "NORTHING": 3903226.99}},
{"geometry": {"type": "Point", "coordinates": [-78.4564224, 38.0395127]}, "type": "Feature", "properties": {"COORDSYSTE": "NAD83", "ELEVATION": "FT", "FID": 64, "MAPNUMBER": "125", "POSTEDDATE": "MARCH 94", "COMMENTS": "SET IN TOP OF CONC. CATCH BASIN", "BENCHMARKT": "DISK", "CONTACT": "CITY GAS DEPT.", "LOCATION": "inter. of Smith St. & River Rd.", "EASTING": 11495468.361, "OWNER": "CVILLE", "Z": 0, "TYPE": "FT", "GPSLOCMAP": "Y", "NAVDELEVAT": "345.4", "NORTHING": 3902063.62}},
{"geometry": {"type": "Point", "coordinates": [-78.4749372, 38.0314003]}, "type": "Feature", "properties": {"COORDSYSTE": "NAD83", "ELEVATION": "FT", "FID": 65, "MAPNUMBER": "126", "POSTEDDATE": "MARCH 94", "COMMENTS": "1\" BELOW", "BENCHMARKT": "PIN & CAP UNDERGROUND", "CONTACT": "CITY GAS DEPT.", "LOCATION": "E. High St.", "EASTING": 11490136.636, "OWNER": "CVILLE", "Z": 0, "TYPE": "FT", "GPSLOCMAP": "Y", "NAVDELEVAT": "483.7", "NORTHING": 3899107.395}},
{"geometry": {"type": "Point", "coordinates": [-78.4861513, 38.0319949]}, "type": "Feature", "properties": {"COORDSYSTE": "NAD83", "ELEVATION": "FT", "FID": 66, "MAPNUMBER": "127", "POSTEDDATE": "MARCH 94", "COMMENTS": "1\" BELOW", "BENCHMARKT": "PIN & CAP UNDERGROUND", "CONTACT": "CITY GAS DEPT.", "LOCATION": "inter. Of 4th St NW & Jeff. School entr.", "EASTING": 11486906.436, "OWNER": "CVILLE", "Z": 0, "TYPE": "FT", "GPSLOCMAP": "Y", "NAVDELEVAT": "462.1", "NORTHING": 3899323.245}},
{"geometry": {"type": "Point", "coordinates": [-78.5281424, 38.0300168]}, "type": "Feature", "properties": {"COORDSYSTE": "NAD83", "ELEVATION": "FT", "FID": 67, "MAPNUMBER": "128", "POSTEDDATE": "MARCH 94", "COMMENTS": "1\" BELOW", "BENCHMARKT": "PIN & CAP UNDERGROUND", "CONTACT": "CITY GAS DEPT.", "LOCATION": "exit ramp to 29 Bus from 29 S", "EASTING": 11474811.033, "OWNER": "CVILLE", "Z": 0, "TYPE": "FT", "GPSLOCMAP": "Y", "NAVDELEVAT": "543.7", "NORTHING": 3898603.81}},
{"geometry": {"type": "Point", "coordinates": [-78.5755793, 38.0479013]}, "type": "Feature", "properties": {"COORDSYSTE": "NAD83", "ELEVATION": "FT", "FID": 68, "MAPNUMBER": "129", "POSTEDDATE": "MARCH 94", "COMMENTS": "1\" BELOW", "BENCHMARKT": "PIN & CAP UNDERGROUND", "CONTACT": "CITY GAS DEPT.", "LOCATION": "inter. Of Orachard House Rd. & Rt. 677", "EASTING": 11461152.058, "OWNER": "CVILLE", "Z": 0, "TYPE": "FT", "GPSLOCMAP": "Y", "NAVDELEVAT": "611.4", "NORTHING": 3905124.293}},
{"geometry": {"type": "Point", "coordinates": [-78.5612755, 38.0515631]}, "type": "Feature", "properties": {"COORDSYSTE": "NAD83", "ELEVATION": "FT", "FID": 69, "MAPNUMBER": "130", "POSTEDDATE": "MARCH 94", "COMMENTS": "1\" BELOW", "BENCHMARKT": "PIN & CAP UNDERGROUND", "CONTACT": "CITY GAS DEPT.", "LOCATION": "Rt 250 .8 mi from Rt.677 N", "EASTING": 11465272.161, "OWNER": "CVILLE", "Z": 0, "TYPE": "FT", "GPSLOCMAP": "Y", "NAVDELEVAT": "561.2", "NORTHING": 3906454.815}},
{"geometry": {"type": "Point", "coordinates": [-78.547724, 38.0508142]}, "type": "Feature", "properties": {"COORDSYSTE": "NAD83", "ELEVATION": "FT", "FID": 70, "MAPNUMBER": "131", "POSTEDDATE": "MARCH 94", "COMMENTS": "1\" BELOW", "BENCHMARKT": "PIN & CAP", "CONTACT": "CITY GAS DEPT.", "LOCATION": "Rt. 250 .4 mi. to Rt. 677", "EASTING": 11469174.388, "OWNER": "CVILLE", "Z": 0, "TYPE": "FT", "GPSLOCMAP": "Y", "NAVDELEVAT": "610.8", "NORTHING": 3906179.829}},
{"geometry": {"type": "Point", "coordinates": [-78.5244332, 38.0510557]}, "type": "Feature", "properties": {"COORDSYSTE": "NAD83", "ELEVATION": "FT", "FID": 71, "MAPNUMBER": "132", "POSTEDDATE": "MARCH 94", "COMMENTS": "1\" BELOW", "BENCHMARKT": "PIN & CAP UNDERGROUND", "CONTACT": "CITY GAS DEPT.", "LOCATION": "exit ramp from 250W Bypass", "EASTING": 11475881.461, "OWNER": "CVILLE", "Z": 0, "TYPE": "FT", "GPSLOCMAP": "Y", "NAVDELEVAT": "558.3", "NORTHING": 3906265.226}},
{"geometry": {"type": "Point", "coordinates": [-78.5060876, 38.0587497]}, "type": "Feature", "properties": {"COORDSYSTE": "NAD83", "ELEVATION": "FT", "FID": 72, "MAPNUMBER": "133", "POSTEDDATE": "MARCH 94", "COMMENTS": "1\" BELOW", "BENCHMARKT": "PIN & CAP UNDERGROUND", "CONTACT": "CITY GAS DEPT.", "LOCATION": "Rt. 654 median near Bennington Rd.", "EASTING": 11481164.597, "OWNER": "CVILLE", "Z": 0, "TYPE": "FT", "GPSLOCMAP": "Y", "NAVDELEVAT": "531.6", "NORTHING": 3909066.283}},
{"geometry": {"type": "Point", "coordinates": [-78.4776947, 38.0531703]}, "type": "Feature", "properties": {"COORDSYSTE": "NAD83", "ELEVATION": "FT", "FID": 73, "MAPNUMBER": "134", "POSTEDDATE": "MARCH 94", "COMMENTS": "1\" BELOW", "BENCHMARKT": "PIN & CAP UNDERGROUND", "CONTACT": "CITY GAS DEPT.", "LOCATION": "Cville High School", "EASTING": 11489340.492, "OWNER": "CVILLE", "Z": 0, "TYPE": "FT", "GPSLOCMAP": "Y", "NAVDELEVAT": "426.5", "NORTHING": 3907035.145}},
{"geometry": {"type": "Point", "coordinates": [-78.4585954, 38.0557666]}, "type": "Feature", "properties": {"COORDSYSTE": "NAD83", "ELEVATION": "FT", "FID": 74, "MAPNUMBER": "135", "POSTEDDATE": "MARCH 94", "COMMENTS": "FLUSH", "BENCHMARKT": "PIN & CAP FLUSH", "CONTACT": "CITY GAS DEPT.", "LOCATION": "Rt. 768 .1 mi. to Rt. 631", "EASTING": 11494839.907, "OWNER": "CVILLE", "Z": 0, "TYPE": "FT", "GPSLOCMAP": "Y", "NAVDELEVAT": "468.1", "NORTHING": 3907982.483}},
{"geometry": {"type": "Point", "coordinates": [-78.4407585, 38.05721]}, "type": "Feature", "properties": {"COORDSYSTE": "NAD83", "ELEVATION": "FT", "FID": 75, "MAPNUMBER": "136", "POSTEDDATE": "MARCH 94", "COMMENTS": "1\" BELOW", "BENCHMARKT": "PIN & CAP UNDERGROUND", "CONTACT": "CITY GAS DEPT.", "LOCATION": "corner of rt. 1445 and 1446", "EASTING": 11499975.714, "OWNER": "CVILLE", "Z": 0, "TYPE": "FT", "GPSLOCMAP": "Y", "NAVDELEVAT": "402.2", "NORTHING": 3908510.88}},
{"geometry": {"type": "Point", "coordinates": [-78.440453, 38.0846527]}, "type": "Feature", "properties": {"COORDSYSTE": "NAD83", "ELEVATION": "FT", "FID": 76, "MAPNUMBER": "137", "POSTEDDATE": "MARCH 94", "COMMENTS": "1\" BELOW", "BENCHMARKT": "PIN & CAP UNDERGROUND", "CONTACT": "CITY GAS DEPT.", "LOCATION": "end of Bentivar Dr.", "EASTING": 11500057.38, "OWNER": "CVILLE", "Z": 0, "TYPE": "FT", "GPSLOCMAP": "Y", "NAVDELEVAT": "435.3", "NORTHING": 3918504.824}},
{"geometry": {"type": "Point", "coordinates": [-78.4553708, 38.0821087]}, "type": "Feature", "properties": {"COORDSYSTE": "NAD83", "ELEVATION": "FT", "FID": 77, "MAPNUMBER": "138", "POSTEDDATE": "MARCH 94", "COMMENTS": "1\" BELOW", "BENCHMARKT": "PIN & CAP UNDERGROUND", "CONTACT": "CITY GAS DEPT.", "LOCATION": "Rt. 1427 1 mi. to Rt. 631", "EASTING": 11495763.892, "OWNER": "CVILLE", "Z": 0, "TYPE": "FT", "GPSLOCMAP": "Y", "NAVDELEVAT": "446.3", "NORTHING": 3917575.987}},
{"geometry": {"type": "Point", "coordinates": [-78.4924364, 38.0728014]}, "type": "Feature", "properties": {"COORDSYSTE": "NAD83", "ELEVATION": "FT", "FID": 78, "MAPNUMBER": "139", "POSTEDDATE": "MARCH 94", "COMMENTS": "1\" BELOW", "BENCHMARKT": "PIN & CAP UNDERGROUND", "CONTACT": "CITY GAS DEPT.", "LOCATION": "Peyton Rd. .1 mi. to Commonwealth Dr.", "EASTING": 11485094.874, "OWNER": "CVILLE", "Z": 0, "TYPE": "FT", "GPSLOCMAP": "Y", "NAVDELEVAT": "545.6", "NORTHING": 3914183.55}},
{"geometry": {"type": "Point", "coordinates": [-78.500514, 38.0770349]}, "type": "Feature", "properties": {"COORDSYSTE": "NAD83", "ELEVATION": "FT", "FID": 79, "MAPNUMBER": "140", "POSTEDDATE": "MARCH 94", "COMMENTS": "1\" BELOW", "BENCHMARKT": "PIN & CAP UNDERGROUND", "CONTACT": "CITY GAS DEPT.", "LOCATION": "JJ/Albe. High School", "EASTING": 11482769.482, "OWNER": "CVILLE", "Z": 0, "TYPE": "FT", "GPSLOCMAP": "Y", "NAVDELEVAT": "560.3", "NORTHING": 3915725.193}},
{"geometry": {"type": "Point", "coordinates": [-78.523779, 38.0701833]}, "type": "Feature", "properties": {"COORDSYSTE": "NAD83", "ELEVATION": "FT", "FID": 80, "MAPNUMBER": "141", "POSTEDDATE": "MARCH 94", "COMMENTS": "2\" BELOW GROUND SURFACE", "BENCHMARKT": "PIN & CAP UNDERGROUND", "CONTACT": "CITY GAS DEPT.", "LOCATION": "corner of Rt. 654 & Rt. 1001", "EASTING": 11476071.592, "OWNER": "CVILLE", "Z": 0, "TYPE": "FT", "GPSLOCMAP": "Y", "NAVDELEVAT": "559.9", "NORTHING": 3913230.897}},
{"geometry": {"type": "Point", "coordinates": [-78.5436396, 38.0837182]}, "type": "Feature", "properties": {"COORDSYSTE": "NAD83", "ELEVATION": "FT", "FID": 81, "MAPNUMBER": "142", "POSTEDDATE": "MARCH 94", "COMMENTS": "1\" BELOW", "BENCHMARKT": "PIN & CAP UNDERGROUND", "CONTACT": "CITY GAS DEPT.", "LOCATION": "corner of Garth Rd. & Oakencroft ln", "EASTING": 11470356.114, "OWNER": "CVILLE", "Z": 0, "TYPE": "FT", "GPSLOCMAP": "Y", "NAVDELEVAT": "568.6", "NORTHING": 3918161.99}},
{"geometry": {"type": "Point", "coordinates": [-78.5660732, 38.0707796]}, "type": "Feature", "properties": {"COORDSYSTE": "NAD83", "ELEVATION": "FT", "FID": 82, "MAPNUMBER": "143", "POSTEDDATE": "MARCH 94", "COMMENTS": "1\" BELOW", "BENCHMARKT": "PIN & CAP UNDERGROUND", "CONTACT": "CITY GAS DEPT.", "LOCATION": "corner of Rt. 1652 & Rt. 677", "EASTING": 11463895.481, "OWNER": "CVILLE", "Z": 0, "TYPE": "FT", "GPSLOCMAP": "Y", "NAVDELEVAT": "501.7", "NORTHING": 3913453.859}},
{"geometry": {"type": "Point", "coordinates": [-78.5759902, 38.0731458]}, "type": "Feature", "properties": {"COORDSYSTE": "NAD83", "ELEVATION": "FT", "FID": 83, "MAPNUMBER": "144", "POSTEDDATE": "MARCH 94", "COMMENTS": "1\" BELOW", "BENCHMARKT": "PIN & CAP UNDERGROUND", "CONTACT": "CITY GAS DEPT.", "LOCATION": "Wendover Dr. near Devonshire Rd.", "EASTING": 11461041.126, "OWNER": "CVILLE", "Z": 0, "TYPE": "FT", "GPSLOCMAP": "Y", "NAVDELEVAT": "596.1", "NORTHING": 3914317.713}},
{"geometry": {"type": "Point", "coordinates": [-78.5099018, 38.1117403]}, "type": "Feature", "properties": {"COORDSYSTE": "NAD83", "ELEVATION": "FT", "FID": 84, "MAPNUMBER": "145", "POSTEDDATE": "MARCH 94", "COMMENTS": "1\" BELOW", "BENCHMARKT": "PIN & CAP UNDERGROUND", "CONTACT": "CITY GAS DEPT.", "LOCATION": "Rt. 676 near Rt. 1500", "EASTING": 11480068.359, "OWNER": "CVILLE", "Z": 0, "TYPE": "FT", "GPSLOCMAP": "Y", "NAVDELEVAT": "540.2", "NORTHING": 3928364.223}},
{"geometry": {"type": "Point", "coordinates": [-78.4923806, 38.0901024]}, "type": "Feature", "properties": {"COORDSYSTE": "NAD83", "ELEVATION": "FT", "FID": 85, "MAPNUMBER": "146", "POSTEDDATE": "MARCH 94", "COMMENTS": "2\" BELOW", "BENCHMARKT": "PIN & CAP UNDERGROUND", "CONTACT": "CITY GAS DEPT.", "LOCATION": "entrance to Ivy Crk Natural Area", "EASTING": 11485110.432, "OWNER": "CVILLE", "Z": 0, "TYPE": "FT", "GPSLOCMAP": "Y", "NAVDELEVAT": "505.6", "NORTHING": 3920484.128}},
{"geometry": {"type": "Point", "coordinates": [-78.4784367, 38.0903124]}, "type": "Feature", "properties": {"COORDSYSTE": "NAD83", "ELEVATION": "FT", "FID": 86, "MAPNUMBER": "147", "POSTEDDATE": "MARCH 94", "COMMENTS": "3\" BELOW", "BENCHMARKT": "PIN & CAP UNDERGROUND", "CONTACT": "CITY GAS DEPT.", "LOCATION": "Rt. 659 .3 mi. to Rt. 631", "EASTING": 11489123.734, "OWNER": "CVILLE", "Z": 0, "TYPE": "FT", "GPSLOCMAP": "Y", "NAVDELEVAT": "602.0", "NORTHING": 3920561.26}},
{"geometry": {"type": "Point", "coordinates": [-78.4529406, 38.100814]}, "type": "Feature", "properties": {"COORDSYSTE": "NAD83", "ELEVATION": "FT", "FID": 87, "MAPNUMBER": "148", "POSTEDDATE": "MARCH 94", "COMMENTS": "2\" BELOW", "BENCHMARKT": "PIN & CAP UNDERGROUND", "CONTACT": "CITY GAS DEPT.", "LOCATION": "Rt. 643.4 mi. to Rt. 29", "EASTING": 11496460.035, "OWNER": "CVILLE", "Z": 0, "TYPE": "FT", "GPSLOCMAP": "Y", "NAVDELEVAT": "372.3", "NORTHING": 3924388.355}},
{"geometry": {"type": "Point", "coordinates": [-78.4386604, 38.1133482]}, "type": "Feature", "properties": {"COORDSYSTE": "NAD83", "ELEVATION": "FT", "FID": 88, "MAPNUMBER": "149", "POSTEDDATE": "MARCH 94", "COMMENTS": "2\" BELOW", "BENCHMARKT": "PIN & CAP UNDERGROUND", "CONTACT": "CITY GAS DEPT.", "LOCATION": "Hollymead Elem. School", "EASTING": 11500566.569, "OWNER": "CVILLE", "Z": 0, "TYPE": "FT", "GPSLOCMAP": "Y", "NAVDELEVAT": "471.0", "NORTHING": 3928955.377}},
{"geometry": {"type": "Point", "coordinates": [-78.4230849, 38.1061441]}, "type": "Feature", "properties": {"COORDSYSTE": "NAD83", "ELEVATION": "FT", "FID": 89, "MAPNUMBER": "150", "POSTEDDATE": "MARCH 94", "COMMENTS": "1\" BELOW", "BENCHMARKT": "PIN & CAP UNDERGROUND", "CONTACT": "CITY GAS DEPT.", "LOCATION": "Rt. 649 near Evergreen Baptist Church", "EASTING": 11505050.208, "OWNER": "CVILLE", "Z": 0, "TYPE": "FT", "GPSLOCMAP": "Y", "NAVDELEVAT": "470.6", "NORTHING": 3926335.09}},
{"geometry": {"type": "Point", "coordinates": [-78.4016171, 38.1132535]}, "type": "Feature", "properties": {"COORDSYSTE": "NAD83", "ELEVATION": "FT", "FID": 90, "MAPNUMBER": "151", "POSTEDDATE": "MARCH 94", "COMMENTS": "2\" BELOW", "BENCHMARKT": "PIN & CAP UNDERGROUND", "CONTACT": "CITY GAS DEPT.", "LOCATION": "Rt. 784 1 mi. to Rt. 600", "EASTING": 11511224.999, "OWNER": "CVILLE", "Z": 0, "TYPE": "FT", "GPSLOCMAP": "Y", "NAVDELEVAT": "470.9", "NORTHING": 3928929.895}},
{"geometry": {"type": "Point", "coordinates": [-78.4816083, 38.099655]}, "type": "Feature", "properties": {"COORDSYSTE": "NAD83", "ELEVATION": "FT", "FID": 91, "MAPNUMBER": "152", "POSTEDDATE": "MARCH 94", "COMMENTS": "1\" BELOW", "BENCHMARKT": "PIN & CAP UNDERGROUND", "CONTACT": "CITY GAS DEPT.", "LOCATION": "corner of Rt. 743 and 1560", "EASTING": 11488210.219, "OWNER": "CVILLE", "Z": 0, "TYPE": "FT", "GPSLOCMAP": "Y", "NAVDELEVAT": "481.8", "NORTHING": 3923963.415}},
{"geometry": {"type": "Point", "coordinates": [-78.4919409, 38.1012775]}, "type": "Feature", "properties": {"COORDSYSTE": "NAD83", "ELEVATION": "FT", "FID": 92, "MAPNUMBER": "153", "POSTEDDATE": "MARCH 94", "COMMENTS": "1\" BELOW", "BENCHMARKT": "PIN & CAP UNDERGROUND", "CONTACT": "CITY GAS DEPT.", "LOCATION": "Rt. 676 370 ft. to Rt. 1050", "EASTING": 11485236.642, "OWNER": "CVILLE", "Z": 0, "TYPE": "FT", "GPSLOCMAP": "Y", "NAVDELEVAT": "484.9", "NORTHING": 3924553.867}},
{"geometry": {"type": "Point", "coordinates": [-78.4774704, 38.1123665]}, "type": "Feature", "properties": {"COORDSYSTE": "NAD83", "ELEVATION": "FT", "FID": 93, "MAPNUMBER": "154", "POSTEDDATE": "MARCH 94", "COMMENTS": "1\" BELOW", "BENCHMARKT": "PIN & CAP UNDERGROUND", "CONTACT": "CITY GAS DEPT.", "LOCATION": "corner of Rt. 1565 & 743", "EASTING": 11489399.931, "OWNER": "CVILLE", "Z": 0, "TYPE": "FT", "GPSLOCMAP": "Y", "NAVDELEVAT": "563.1", "NORTHING": 3928592.901}},
{"geometry": {"type": "Point", "coordinates": [-78.4589213, 38.1297987]}, "type": "Feature", "properties": {"COORDSYSTE": "NAD83", "ELEVATION": "FT", "FID": 94, "MAPNUMBER": "155", "POSTEDDATE": "MARCH 94", "COMMENTS": "2\" BELOW", "BENCHMARKT": "PIN & CAP UNDERGROUND", "CONTACT": "CITY GAS DEPT.", "LOCATION": "corner of Rt. 743 & 606", "EASTING": 11494734.33, "OWNER": "CVILLE", "Z": 0, "TYPE": "FT", "GPSLOCMAP": "Y", "NAVDELEVAT": "631.4", "NORTHING": 3934943.177}},
{"geometry": {"type": "Point", "coordinates": [-78.4417262, 38.1261843]}, "type": "Feature", "properties": {"COORDSYSTE": "NAD83", "ELEVATION": "FT", "FID": 95, "MAPNUMBER": "156", "POSTEDDATE": "MARCH 94", "COMMENTS": "1\" BELOW", "BENCHMARKT": "PIN & CAP UNDERGROUND", "CONTACT": "CITY GAS DEPT.", "LOCATION": "Rt. 29 .5 mi. to Rt. 649", "EASTING": 11499681.558, "OWNER": "CVILLE", "Z": 0, "TYPE": "FT", "GPSLOCMAP": "Y", "NAVDELEVAT": "530.4", "NORTHING": 3933629.469}},
{"geometry": {"type": "Point", "coordinates": [-78.4306859, 38.1311253]}, "type": "Feature", "properties": {"COORDSYSTE": "NAD83", "ELEVATION": "FT", "FID": 96, "MAPNUMBER": "157", "POSTEDDATE": "MARCH 94", "COMMENTS": "FLUSH", "BENCHMARKT": "PIN & CAP FLUSH", "CONTACT": "CITY GAS DEPT.", "LOCATION": "Rt. 649 near Maple Grove Church sign", "EASTING": 11502856.302, "OWNER": "CVILLE", "Z": 0, "TYPE": "FT", "GPSLOCMAP": "Y", "NAVDELEVAT": "533.8", "NORTHING": 3935431.046}},
{"geometry": {"type": "Point", "coordinates": [-78.4133349, 38.1443004]}, "type": "Feature", "properties": {"COORDSYSTE": "NAD83", "ELEVATION": "FT", "FID": 97, "MAPNUMBER": "158", "POSTEDDATE": "MARCH 94", "COMMENTS": "FLUSH", "BENCHMARKT": "PIN & CAP FLUSH", "CONTACT": "CITY GAS DEPT.", "LOCATION": "Rt. 785 near entrance to Riverview", "EASTING": 11507843.083, "OWNER": "CVILLE", "Z": 0, "TYPE": "FT", "GPSLOCMAP": "Y", "NAVDELEVAT": "450.0", "NORTHING": 3940233.284}},
{"geometry": {"type": "Point", "coordinates": [-78.4593483, 38.1360262]}, "type": "Feature", "properties": {"COORDSYSTE": "NAD83", "ELEVATION": "FT", "FID": 98, "MAPNUMBER": "159", "POSTEDDATE": "MARCH 94", "COMMENTS": "2\" BELOW", "BENCHMARKT": "PIN & CAP UNDERGROUND", "CONTACT": "CITY GAS DEPT.", "LOCATION": "Rt. 743 at entrance to Avionics Specialties", "EASTING": 11494610.515, "OWNER": "CVILLE", "Z": 0, "TYPE": "FT", "GPSLOCMAP": "Y", "NAVDELEVAT": "606.8", "NORTHING": 3937211.059}},
{"geometry": {"type": "Point", "coordinates": [-78.4412073, 38.151757]}, "type": "Feature", "properties": {"COORDSYSTE": "NAD83", "ELEVATION": "FT", "FID": 99, "MAPNUMBER": "160", "POSTEDDATE": "MARCH 94", "COMMENTS": "1\" BELOW", "BENCHMARKT": "PIN & CAP UNDERGROUND", "CONTACT": "CITY GAS DEPT.", "LOCATION": "Rt. 850 175 ft. to Rt. 606", "EASTING": 11499825.042, "OWNER": "CVILLE", "Z": 0, "TYPE": "FT", "GPSLOCMAP": "Y", "NAVDELEVAT": "580.2", "NORTHING": 3942942.675}},
{"geometry": {"type": "Point", "coordinates": [-78.4226031, 38.1554321]}, "type": "Feature", "properties": {"COORDSYSTE": "NAD83", "ELEVATION": "FT", "FID": 100, "MAPNUMBER": "161", "POSTEDDATE": "MARCH 94", "COMMENTS": "FLUSH", "BENCHMARKT": "PIN & CAP UNDERGROUND", "CONTACT": "CITY GAS DEPT.", "LOCATION": "Rt.1512.1 mi. to Rt. 1511", "EASTING": 11505174.145, "OWNER": "CVILLE", "Z": 0, "TYPE": "FT", "GPSLOCMAP": "Y", "NAVDELEVAT": "438.5", "NORTHING": 3944284.953}},
{"geometry": {"type": "Point", "coordinates": [-78.4143102, 38.1645036]}, "type": "Feature", "properties": {"COORDSYSTE": "NAD83", "ELEVATION": "FT", "FID": 101, "MAPNUMBER": "162", "POSTEDDATE": "MARCH 94", "COMMENTS": "1\" BELOW", "BENCHMARKT": "PIN & CAP UNDERGROUND", "CONTACT": "CITY GAS DEPT.", "LOCATION": "corner of Rt. 1575 & 29S", "EASTING": 11507555.889, "OWNER": "CVILLE", "Z": 0, "TYPE": "FT", "GPSLOCMAP": "Y", "NAVDELEVAT": "439.4", "NORTHING": 3947590.72}},
{"geometry": {"type": "Point", "coordinates": [-78.459532, 38.1740575]}, "type": "Feature", "properties": {"COORDSYSTE": "NAD83", "ELEVATION": "FT", "FID": 102, "MAPNUMBER": "163", "POSTEDDATE": "MARCH 94", "COMMENTS": "2\" BELOW", "BENCHMARKT": "PIN & CAP UNDERGROUND", "CONTACT": "CITY GAS DEPT.", "LOCATION": "intersection of Rt. 743 & 664", "EASTING": 11494551.748, "OWNER": "CVILLE", "Z": 0, "TYPE": "FT", "GPSLOCMAP": "Y", "NAVDELEVAT": "594.7", "NORTHING": 3951061.468}},
{"geometry": {"type": "Point", "coordinates": [-78.5272465, 38.11455]}, "type": "Feature", "properties": {"COORDSYSTE": "NAD83", "ELEVATION": "FT", "FID": 103, "MAPNUMBER": "164", "POSTEDDATE": "MARCH 94", "COMMENTS": "3\" BELOW", "BENCHMARKT": "PIN & CAP UNDERGROUND", "CONTACT": "CITY GAS DEPT.", "LOCATION": "intersection of Rt. 676 & Beaumont Farm Rd.", "EASTING": 11475077.982, "OWNER": "CVILLE", "Z": 0, "TYPE": "FT", "GPSLOCMAP": "Y", "NAVDELEVAT": "581.4", "NORTHING": 3929388.447}},
{"geometry": {"type": "Point", "coordinates": [-78.5497408, 38.1556644]}, "type": "Feature", "properties": {"COORDSYSTE": "NAD83", "ELEVATION": "FT", "FID": 104, "MAPNUMBER": "165", "POSTEDDATE": "MARCH 94", "COMMENTS": "3\" BELOW", "BENCHMARKT": "PIN & CAP UNDERGROUND", "CONTACT": "CITY GAS DEPT.", "LOCATION": "Rt. 665 .6 mi. to Rt. 667", "EASTING": 11468613.733, "OWNER": "CVILLE", "Z": 0, "TYPE": "FT", "GPSLOCMAP": "Y", "NAVDELEVAT": "553.8", "NORTHING": 3944364.218}},
{"geometry": {"type": "Point", "coordinates": [-78.5247901, 38.1567505]}, "type": "Feature", "properties": {"COORDSYSTE": "NAD83", "ELEVATION": "FT", "FID": 105, "MAPNUMBER": "166", "POSTEDDATE": "MARCH 94", "COMMENTS": "1\" BELOW", "BENCHMARKT": "PIN & CAP UNDERGROUND", "CONTACT": "CITY GAS DEPT.", "LOCATION": "Rt. 665 101 ft. to Rt. 662", "EASTING": 11475788.79, "OWNER": "CVILLE", "Z": 0, "TYPE": "FT", "GPSLOCMAP": "Y", "NAVDELEVAT": "597.3", "NORTHING": 3944756.907}},
{"geometry": {"type": "Point", "coordinates": [-78.5745251, 38.1799189]}, "type": "Feature", "properties": {"COORDSYSTE": "NAD83", "ELEVATION": "FT", "FID": 106, "MAPNUMBER": "167", "POSTEDDATE": "MARCH 94", "COMMENTS": "1\"BELOW", "BENCHMARKT": "PIN & CAP UNDERGROUND", "CONTACT": "CITY GAS DEPT.", "LOCATION": "Rt. 601 .4 mi. to Rt. 668", "EASTING": 11461493.612, "OWNER": "CVILLE", "Z": 0, "TYPE": "FT", "GPSLOCMAP": "Y", "NAVDELEVAT": "503.6", "NORTHING": 3953202.084}},
{"geometry": {"type": "Point", "coordinates": [-78.5571155, 38.1847583]}, "type": "Feature", "properties": {"COORDSYSTE": "NAD83", "ELEVATION": "FT", "FID": 107, "MAPNUMBER": "168", "POSTEDDATE": "MARCH 94", "COMMENTS": "3\" BELOW", "BENCHMARKT": "PIN & CAP UNDERGROUND", "CONTACT": "CITY GAS DEPT.", "LOCATION": "corner of Farm Rd. & Rt. 776", "EASTING": 11466499.442, "OWNER": "CVILLE", "Z": 0, "TYPE": "FT", "GPSLOCMAP": "Y", "NAVDELEVAT": "615.0", "NORTHING": 3954961.043}},
{"geometry": {"type": "Point", "coordinates": [-78.5763316, 38.1952317]}, "type": "Feature", "properties": {"COORDSYSTE": "NAD83", "ELEVATION": "FT", "FID": 108, "MAPNUMBER": "169", "POSTEDDATE": "MARCH 94", "COMMENTS": "1\" BELOW", "BENCHMARKT": "PIN & CAP UNDERGROUND", "CONTACT": "CITY GAS DEPT.", "LOCATION": "Rt. 601 .4 mi. to Rt. 667", "EASTING": 11460978.807, "OWNER": "CVILLE", "Z": 0, "TYPE": "FT", "GPSLOCMAP": "Y", "NAVDELEVAT": "601.9", "NORTHING": 3958779.258}},
{"geometry": {"type": "Point", "coordinates": [-78.4391948, 38.1834961]}, "type": "Feature", "properties": {"COORDSYSTE": "NAD83", "ELEVATION": "FT", "FID": 109, "MAPNUMBER": "170", "POSTEDDATE": "MARCH 94", "COMMENTS": "1\" BELOW", "BENCHMARKT": "PIN & CAP UNDERGROUND", "CONTACT": "CITY GAS DEPT.", "LOCATION": "Rt. 743 near Advance Mills Supply sign", "EASTING": 11500396.346, "OWNER": "CVILLE", "Z": 0, "TYPE": "FT", "GPSLOCMAP": "Y", "NAVDELEVAT": "420.1", "NORTHING": 3954502.009}},
{"geometry": {"type": "Point", "coordinates": [-78.4243473, 38.1873791]}, "type": "Feature", "properties": {"COORDSYSTE": "NAD83", "ELEVATION": "FT", "FID": 110, "MAPNUMBER": "171", "POSTEDDATE": "MARCH 94", "COMMENTS": "1\" BELOW", "BENCHMARKT": "PIN & CAP UNDERGROUND", "CONTACT": "CITY GAS DEPT.", "LOCATION": "Rt. 641, 1 mi. to Rt. 743", "EASTING": 11504663.241, "OWNER": "CVILLE", "Z": 0, "TYPE": "FT", "GPSLOCMAP": "Y", "NAVDELEVAT": "579.4", "NORTHING": 3955919.267}},
{"geometry": {"type": "Point", "coordinates": [-78.4081351, 38.1742194]}, "type": "Feature", "properties": {"COORDSYSTE": "NAD83", "ELEVATION": "FT", "FID": 111, "MAPNUMBER": "172", "POSTEDDATE": "MARCH 94", "COMMENTS": "1\" BELOW", "BENCHMARKT": "PIN & CAP UNDERGROUND", "CONTACT": "CITY GAS DEPT.", "LOCATION": "median of Rt. 29 .2 mi. to Rt. 641", "EASTING": 11509327.992, "OWNER": "CVILLE", "Z": 0, "TYPE": "FT", "GPSLOCMAP": "Y", "NAVDELEVAT": "525.9", "NORTHING": 3951130.772}},
{"geometry": {"type": "Point", "coordinates": [-78.4081379, 38.1903743]}, "type": "Feature", "properties": {"COORDSYSTE": "NAD83", "ELEVATION": "FT", "FID": 112, "MAPNUMBER": "173", "POSTEDDATE": "MARCH 94", "COMMENTS": "2\" BELOW", "BENCHMARKT": "PIN & CAP UNDERGROUND", "CONTACT": "CITY GAS DEPT.", "LOCATION": "Rt. 641 near Spring Hill Church sign", "EASTING": 11509321.456, "OWNER": "CVILLE", "Z": 0, "TYPE": "FT", "GPSLOCMAP": "Y", "NAVDELEVAT": "628.8", "NORTHING": 3957014.192}},
{"geometry": {"type": "Point", "coordinates": [-78.4930214, 38.1235999]}, "type": "Feature", "properties": {"COORDSYSTE": "NAD83", "ELEVATION": "FT", "FID": 113, "MAPNUMBER": "174T", "POSTEDDATE": "MARCH 94", "COMMENTS": "FLUSH", "BENCHMARKT": "DISK", "CONTACT": "CITY GAS DEPT.", "LOCATION": "Rd. to Panorama Farms, near cemetery", "EASTING": 11484925.117, "OWNER": "CVILLE", "Z": 0, "TYPE": "FT", "GPSLOCMAP": "Y", "NAVDELEVAT": "516.8", "NORTHING": 3932683.171}},
{"geometry": {"type": "Point", "coordinates": [-78.4648073, 38.1220141]}, "type": "Feature", "properties": {"COORDSYSTE": "NAD83", "ELEVATION": "FT", "FID": 114, "MAPNUMBER": "175T", "POSTEDDATE": "MARCH 94", "COMMENTS": "2\" BELOW", "BENCHMARKT": "PIN UNDERGROUND", "CONTACT": "CITY GAS DEPT.", "LOCATION": "Rt. 743 .6 mi. to Rt. 606", "EASTING": 11493042.188, "OWNER": "CVILLE", "Z": 0, "TYPE": "FT", "GPSLOCMAP": "Y", "NAVDELEVAT": "596.9", "NORTHING": 3932107.49}},
{"geometry": {"type": "Point", "coordinates": [-78.4258592, 38.1623733]}, "type": "Feature", "properties": {"COORDSYSTE": "NAD83", "ELEVATION": "FT", "FID": 115, "MAPNUMBER": "176T", "POSTEDDATE": "MARCH 94", "COMMENTS": "FLUSH", "BENCHMARKT": "PIN & CAP UNDERGROUND", "CONTACT": "CITY GAS DEPT.", "LOCATION": "Rt. 606 250 ft. to one lane bridge over Rivanna", "EASTING": 11504235.81, "OWNER": "CVILLE", "Z": 0, "TYPE": "FT", "GPSLOCMAP": "Y", "NAVDELEVAT": "395.2", "NORTHING": 3946812.087}},
{"geometry": {"type": "Point", "coordinates": [-78.4592786, 38.1036136]}, "type": "Feature", "properties": {"COORDSYSTE": "NAD83", "ELEVATION": "FT", "FID": 116, "MAPNUMBER": "177T", "POSTEDDATE": "MARCH 94", "COMMENTS": "1\" BELOW", "BENCHMARKT": "PIN & CAP UNDERGROUND", "CONTACT": "CITY GAS DEPT.", "LOCATION": "median on Rt. 29 406 ft. to Rt. 643", "EASTING": 11494635.675, "OWNER": "CVILLE", "Z": 0, "TYPE": "FT", "GPSLOCMAP": "Y", "NAVDELEVAT": "387.9", "NORTHING": 3925407.031}},
{"geometry": {"type": "Point", "coordinates": [-78.4755237, 38.0034242]}, "type": "Feature", "properties": {"COORDSYSTE": "NAD83", "ELEVATION": "FT", "FID": 117, "MAPNUMBER": "178T", "POSTEDDATE": "MARCH 94", "COMMENTS": "FLUSH", "BENCHMARKT": "PIN & CAP UNDERGROUND", "CONTACT": "CITY GAS DEPT.", "LOCATION": "Rt. 53 .2 mi. to Rt. 20", "EASTING": 11489970.347, "OWNER": "CVILLE", "Z": 0, "TYPE": "FT", "GPSLOCMAP": "Y", "NAVDELEVAT": "441.7", "NORTHING": 3888919.433}},
{"geometry": {"type": "Point", "coordinates": [-78.451752, 38.0016043]}, "type": "Feature", "properties": {"COORDSYSTE": "NAD83", "ELEVATION": "FT", "FID": 118, "MAPNUMBER": "179T", "POSTEDDATE": "MARCH 94", "COMMENTS": "FLUSH", "BENCHMARKT": "PIN & CAP UNDERGROUND", "CONTACT": "CITY GAS DEPT.", "LOCATION": "Rt. 53 .8 mi. to Rt. 732", "EASTING": 11496820.556, "OWNER": "CVILLE", "Z": 0, "TYPE": "FT", "GPSLOCMAP": "Y", "NAVDELEVAT": "506.5", "NORTHING": 3888259.31}},
{"geometry": {"type": "Point", "coordinates": [-78.4200703, 38.0007055]}, "type": "Feature", "properties": {"COORDSYSTE": "NAD83", "ELEVATION": "FT", "FID": 119, "MAPNUMBER": "180T", "POSTEDDATE": "MARCH 94", "COMMENTS": "FLUSH", "BENCHMARKT": "PIN & CAP UNDERGROUND", "CONTACT": "CITY GAS DEPT.", "LOCATION": "Rt. 732 .5 mi. to Rt. 762", "EASTING": 11505950.203, "OWNER": "CVILLE", "Z": 0, "TYPE": "FT", "GPSLOCMAP": "Y", "NAVDELEVAT": "465.7", "NORTHING": 3887938.205}},
{"geometry": {"type": "Point", "coordinates": [-78.4974002, 37.9908477]}, "type": "Feature", "properties": {"COORDSYSTE": "NAD83", "ELEVATION": "FT", "FID": 120, "MAPNUMBER": "181T", "POSTEDDATE": "MARCH 94", "COMMENTS": "FLUSH", "BENCHMARKT": "PIN & CAP UNDERGROUND", "CONTACT": "CITY GAS DEPT.", "LOCATION": "Rt. 20 1.3 mi. to Rt. 53E", "EASTING": 11483666.711, "OWNER": "CVILLE", "Z": 0, "TYPE": "FT", "GPSLOCMAP": "Y", "NAVDELEVAT": "491.8", "NORTHING": 3884338.626}},
{"geometry": {"type": "Point", "coordinates": [-78.5494985, 37.9822856]}, "type": "Feature", "properties": {"COORDSYSTE": "NAD83", "ELEVATION": "FT", "FID": 121, "MAPNUMBER": "182T", "POSTEDDATE": "MARCH 94", "COMMENTS": "FLUSH", "BENCHMARKT": "PIN & CAP UNDERGROUND", "CONTACT": "CITY GAS DEPT.", "LOCATION": "Sweet hollow Ln. .1 mi. to Rt. 706", "EASTING": 11468650.291, "OWNER": "CVILLE", "Z": 0, "TYPE": "FT", "GPSLOCMAP": "Y", "NAVDELEVAT": "639.5", "NORTHING": 3881224.37}},
{"geometry": {"type": "Point", "coordinates": [-78.4099193, 38.1601005]}, "type": "Feature", "properties": {"COORDSYSTE": "NAD83", "ELEVATION": "FT", "FID": 122, "MAPNUMBER": "184T", "POSTEDDATE": "MARCH 94", "COMMENTS": "1\" BELOW", "BENCHMARKT": "PIN & CAP UNDERGROUND", "CONTACT": "CITY GAS DEPT.", "LOCATION": "private rd. .6 mi to Rt. 29", "EASTING": 11508819.935, "OWNER": "CVILLE", "Z": 0, "TYPE": "FT", "GPSLOCMAP": "Y", "NAVDELEVAT": "516.7", "NORTHING": 3945988.381}},
{"geometry": {"type": "Point", "coordinates": [-78.4393705, 37.9948519]}, "type": "Feature", "properties": {"COORDSYSTE": "NAD83", "ELEVATION": "FT", "FID": 123, "MAPNUMBER": "185T", "POSTEDDATE": "MARCH 94", "COMMENTS": "1\" BELOW", "BENCHMARKT": "PIN & CAP UNDERGROUND", "CONTACT": "CITY GAS DEPT.", "LOCATION": "Rt. 732 .3 mi. to Rt. 53", "EASTING": 11500389.962, "OWNER": "CVILLE", "Z": 0, "TYPE": "FT", "GPSLOCMAP": "Y", "NAVDELEVAT": "533.3", "NORTHING": 3885802.409}},
{"geometry": {"type": "Point", "coordinates": [-78.4279005, 38.0167297]}, "type": "Feature", "properties": {"COORDSYSTE": "NAD83", "ELEVATION": "FT", "FID": 124, "MAPNUMBER": "CVE 78-1", "POSTEDDATE": "JULY 90", "COMMENTS": "8\" BELOW", "BENCHMARKT": "DISK UNDERGROUND", "CONTACT": "ALBEMARLE COUNTY", "LOCATION": ".25 mi. s of I-64, w side of Rt. 250", "EASTING": 11503689.36, "OWNER": "ALBEMARLE COUNTY", "Z": 0, "TYPE": "FT", "GPSLOCMAP": "Y", "NAVDELEVAT": "406.6", "NORTHING": 3893771.81}},
{"geometry": {"type": "Point", "coordinates": [-78.4317198, 38.0597247]}, "type": "Feature", "properties": {"COORDSYSTE": "NAD83", "ELEVATION": "FT", "FID": 125, "MAPNUMBER": "CVE 62-1", "POSTEDDATE": "JULY 90", "COMMENTS": "3\" BELOW", "BENCHMARKT": "DISK UNDERGROUND", "CONTACT": "ALBEMARLE COUNTY", "LOCATION": "e side of Rt. 20 at Rt. 769", "EASTING": 11502577.71, "OWNER": "ALBEMARLE COUNTY", "Z": 0, "TYPE": "FT", "GPSLOCMAP": "Y", "NAVDELEVAT": "444", "NORTHING": 3909428.41}},
{"geometry": {"type": "Point", "coordinates": [-78.3911473, 38.091948]}, "type": "Feature", "properties": {"COORDSYSTE": "NAD83", "ELEVATION": "FT", "FID": 126, "MAPNUMBER": "CVE 47-1", "POSTEDDATE": "JULY 90", "COMMENTS": "3\" BELOW", "BENCHMARKT": "DISK UNDERGROUND", "CONTACT": "ALBEMARLE COUNTY", "LOCATION": "w side of Rt. 20, .35 mi. s of Rt. 746", "EASTING": 11514246.41, "OWNER": "ALBEMARLE COUNTY", "Z": 0, "TYPE": "FT", "GPSLOCMAP": "Y", "NAVDELEVAT": "401.6", "NORTHING": 3921174.23}},
{"geometry": {"type": "Point", "coordinates": [-78.3990372, 38.1735416]}, "type": "Feature", "properties": {"COORDSYSTE": "NAD83", "ELEVATION": "FT", "FID": 127, "MAPNUMBER": "ELV 21-1", "POSTEDDATE": "JULY 90", "COMMENTS": "4\" BELOW", "BENCHMARKT": "DISK UNDERGROUND", "CONTACT": "ALBEMARLE COUNTY", "LOCATION": "n side of McLane Rd., 372' e. of Rt. 600", "EASTING": 11511943.82, "OWNER": "ALBEMARLE COUNTY", "Z": 0, "TYPE": "FT", "GPSLOCMAP": "Y", "NAVDELEVAT": "554.6", "NORTHING": 3950886.59}},
{"geometry": {"type": "Point", "coordinates": [-78.4993346, 38.1773373]}, "type": "Feature", "properties": {"COORDSYSTE": "NAD83", "ELEVATION": "FT", "FID": 128, "MAPNUMBER": "ELV 19-1", "POSTEDDATE": "JULY 90", "COMMENTS": "3\" BELOW", "BENCHMARKT": "DISK UNDERGROUND", "CONTACT": "ALBEMARLE COUNTY", "LOCATION": "nw corner, inter. Of Rt. 664 & 665", "EASTING": 11483108.74, "OWNER": "ALBEMARLE COUNTY", "Z": 0, "TYPE": "FT", "GPSLOCMAP": "Y", "NAVDELEVAT": "658.9", "NORTHING": 3952253.42}},
{"geometry": {"type": "Point", "coordinates": [-78.50799, 38.1237674]}, "type": "Feature", "properties": {"COORDSYSTE": "NAD83", "ELEVATION": "FT", "FID": 129, "MAPNUMBER": "CVW 44-1", "POSTEDDATE": "JULY 90", "COMMENTS": "5\" BELOW", "BENCHMARKT": "DISK UNDERGROUND", "CONTACT": "ALBEMARLE COUNTY", "LOCATION": "w side of 1531, .15 mi. n of Rt. 1530", "EASTING": 11480618.83, "OWNER": "ALBEMARLE COUNTY", "Z": 0, "TYPE": "FT", "GPSLOCMAP": "Y", "NAVDELEVAT": "506.4", "NORTHING": 3932744.21}},
{"geometry": {"type": "Point", "coordinates": [-78.542054, 38.0077228]}, "type": "Feature", "properties": {"COORDSYSTE": "NAD83", "ELEVATION": "FT", "FID": 130, "MAPNUMBER": "CVW 75-1", "POSTEDDATE": "JULY 90", "COMMENTS": "2\" BELOW", "BENCHMARKT": "DISK UNDERGROUND", "CONTACT": "ALBEMARLE COUNTY", "LOCATION": "w side. Of Chestnut Oak Ln, .1 mi. sw of Rt. 859", "EASTING": 11470800.2, "OWNER": "ALBEMARLE COUNTY", "Z": 0, "TYPE": "FT", "GPSLOCMAP": "Y", "NAVDELEVAT": "212.8", "NORTHING": 3890486.59}},
{"geometry": {"type": "Point", "coordinates": [-78.458736, 37.9762996]}, "type": "Feature", "properties": {"COORDSYSTE": "NAD83", "ELEVATION": "FT", "FID": 131, "MAPNUMBER": "SEO 91-1", "POSTEDDATE": "JULY 90", "COMMENTS": "1/4\" BELOW", "BENCHMARKT": "DISK UNDERGROUND", "CONTACT": "ALBEMARLE COUNTY", "LOCATION": "center line of cul-de-sac Rt. 1807", "EASTING": 11494812.08, "OWNER": "ALBEMARLE COUNTY", "Z": 0, "TYPE": "FT", "GPSLOCMAP": "Y", "NAVDELEVAT": "529.3", "NORTHING": 3879043.34}},
{"geometry": {"type": "Point", "coordinates": [-78.6433234, 38.0617761]}, "type": "Feature", "properties": {"COORDSYSTE": "NAD83", "ELEVATION": "FT", "FID": 132, "MAPNUMBER": "CRZ 57-1", "POSTEDDATE": "JULY 90", "COMMENTS": "3\" BELOW", "BENCHMARKT": "DISK UNDERGROUND", "CONTACT": "ALBEMARLE COUNTY", "LOCATION": "inter. Of Rt. 250 & Rt. 682", "EASTING": 11441650.76, "OWNER": "ALBEMARLE COUNTY", "Z": 0, "TYPE": "FT", "GPSLOCMAP": "Y", "NAVDELEVAT": "497", "NORTHING": 3910199.71}},
{"geometry": {"type": "Point", "coordinates": [-78.7295822, 38.0898157]}, "type": "Feature", "properties": {"COORDSYSTE": "NAD83", "ELEVATION": "FT", "FID": 133, "MAPNUMBER": "CRZ 39-1", "POSTEDDATE": "JULY 90", "COMMENTS": "3\" BELOW", "BENCHMARKT": "DISK UNDERGROUND", "CONTACT": "ALBEMARLE COUNTY", "LOCATION": "Emerald Green Rd, .35 mi. se of Rt. 684", "EASTING": 11416839.39, "OWNER": "ALBEMARLE COUNTY", "Z": 0, "TYPE": "FT", "GPSLOCMAP": "Y", "NAVDELEVAT": "1157.7", "NORTHING": 3920460}},
{"geometry": {"type": "Point", "coordinates": [-78.7492918, 38.0397258]}, "type": "Feature", "properties": {"COORDSYSTE": "NAD83", "ELEVATION": "FT", "FID": 134, "MAPNUMBER": "WBE 70-1", "POSTEDDATE": "JULY 90", "COMMENTS": "4\" BELOW", "BENCHMARKT": "DISK UNDERGROUND", "CONTACT": "ALBEMARLE COUNTY", "LOCATION": "n side of Rt. 250, .12 mi. e of Rt. 690", "EASTING": 11411118.45, "OWNER": "ALBEMARLE COUNTY", "Z": 0, "TYPE": "FT", "GPSLOCMAP": "Y", "NAVDELEVAT": "655", "NORTHING": 3902233.11}},
{"geometry": {"type": "Point", "coordinates": [-78.6596675, 38.2826782]}, "type": "Feature", "properties": {"COORDSYSTE": "NAD83", "ELEVATION": "FT", "FID": 135, "MAPNUMBER": "1", "POSTEDDATE": "JULY 96", "COMMENTS": " ", "BENCHMARKT": "ROD & CAP", "CONTACT": "ALBEMARLE COUNTY", "LOCATION": "Skyline Dr. near Ivy Creek Overlook", "EASTING": 11437080.94, "OWNER": "ALBEMARLE COUNTY", "Z": 0, "TYPE": "FT", "GPSLOCMAP": "Y", "NAVDELEVAT": "0", "NORTHING": 3990656.99}},
{"geometry": {"type": "Point", "coordinates": [-78.6871769, 38.2506198]}, "type": "Feature", "properties": {"COORDSYSTE": "NAD83", "ELEVATION": "FT", "FID": 136, "MAPNUMBER": "2", "POSTEDDATE": "JULY 96", "COMMENTS": " ", "BENCHMARKT": "ROD & CAP", "CONTACT": "ALBEMARLE COUNTY", "LOCATION": "Skyline Dr. .5mi. From Doyles River Overlook", "EASTING": 11429160.54, "OWNER": "ALBEMARLE COUNTY", "Z": 0, "TYPE": "FT", "GPSLOCMAP": "Y", "NAVDELEVAT": "0", "NORTHING": 3978995.78}},
{"geometry": {"type": "Point", "coordinates": [-78.5938797, 38.261118]}, "type": "Feature", "properties": {"COORDSYSTE": "NAD83", "ELEVATION": "FT", "FID": 137, "MAPNUMBER": "3", "POSTEDDATE": "JULY 96", "COMMENTS": " ", "BENCHMARKT": "ROD & CAP", "CONTACT": "ALBEMARLE COUNTY", "LOCATION": "corner of Rt. 628 & Rt. 614", "EASTING": 11455959.14, "OWNER": "ALBEMARLE COUNTY", "Z": 0, "TYPE": "FT", "GPSLOCMAP": "Y", "NAVDELEVAT": "0", "NORTHING": 3982779.34}},
{"geometry": {"type": "Point", "coordinates": [-78.7454631, 38.2055107]}, "type": "Feature", "properties": {"COORDSYSTE": "NAD83", "ELEVATION": "FT", "FID": 138, "MAPNUMBER": "4", "POSTEDDATE": "JULY 96", "COMMENTS": " ", "BENCHMARKT": "ROD & CAP", "CONTACT": "ALBEMARLE COUNTY", "LOCATION": "Skyline Dr. at Trayfoot Mtn. Overlook", "EASTING": 11412378.16, "OWNER": "ALBEMARLE COUNTY", "Z": 0, "TYPE": "FT", "GPSLOCMAP": "Y", "NAVDELEVAT": "0", "NORTHING": 3962605.62}},
{"geometry": {"type": "Point", "coordinates": [-78.5791521, 38.2050397]}, "type": "Feature", "properties": {"COORDSYSTE": "NAD83", "ELEVATION": "FT", "FID": 139, "MAPNUMBER": "5", "POSTEDDATE": "JULY 96", "COMMENTS": " ", "BENCHMARKT": "ROD & CAP", "CONTACT": "ALBEMARLE COUNTY", "LOCATION": "inter. Of Rt. 601 & Rt. 671 (in middle of rd)", "EASTING": 11460171.17, "OWNER": "ALBEMARLE COUNTY", "Z": 0, "TYPE": "FT", "GPSLOCMAP": "Y", "NAVDELEVAT": "0", "NORTHING": 3962351.92}},
{"geometry": {"type": "Point", "coordinates": [-78.4395426, 38.1980068]}, "type": "Feature", "properties": {"COORDSYSTE": "NAD83", "ELEVATION": "FT", "FID": 140, "MAPNUMBER": "6", "POSTEDDATE": "JULY 96", "COMMENTS": " ", "BENCHMARKT": "ROD & CAP", "CONTACT": "ALBEMARLE COUNTY", "LOCATION": "inter. Of Rt. 743 & Merriefield Ln.", "EASTING": 11500292.98, "OWNER": "ALBEMARLE COUNTY", "Z": 0, "TYPE": "FT", "GPSLOCMAP": "Y", "NAVDELEVAT": "0", "NORTHING": 3959786.6}},
{"geometry": {"type": "Point", "coordinates": [-78.7730622, 38.1608508]}, "type": "Feature", "properties": {"COORDSYSTE": "NAD83", "ELEVATION": "FT", "FID": 141, "MAPNUMBER": "7", "POSTEDDATE": "JULY 96", "COMMENTS": " ", "BENCHMARKT": "ROD & CAP", "CONTACT": "ALBEMARLE COUNTY", "LOCATION": "Skyline Dr. at Riprap Overlook", "EASTING": 11404399.9, "OWNER": "ALBEMARLE COUNTY", "Z": 0, "TYPE": "FT", "GPSLOCMAP": "Y", "NAVDELEVAT": "0", "NORTHING": 3946362.83}},
{"geometry": {"type": "Point", "coordinates": [-78.3090737, 38.1579956]}, "type": "Feature", "properties": {"COORDSYSTE": "NAD83", "ELEVATION": "FT", "FID": 142, "MAPNUMBER": "8", "POSTEDDATE": "JULY 96", "COMMENTS": " ", "BENCHMARKT": "ROD & CAP", "CONTACT": "ALBEMARLE COUNTY", "LOCATION": "inter. Of Rt. 20 & Rt. 641", "EASTING": 11537819.39, "OWNER": "ALBEMARLE COUNTY", "Z": 0, "TYPE": "FT", "GPSLOCMAP": "Y", "NAVDELEVAT": "0", "NORTHING": 3945264.95}},
{"geometry": {"type": "Point", "coordinates": [-78.7847672, 38.1290976]}, "type": "Feature", "properties": {"COORDSYSTE": "NAD83", "ELEVATION": "FT", "FID": 143, "MAPNUMBER": "9", "POSTEDDATE": "JULY 96", "COMMENTS": " ", "BENCHMARKT": "ROD & CAP", "CONTACT": "ALBEMARLE COUNTY", "LOCATION": "Skyline Dr. at entrance to Turk gap pkng area", "EASTING": 11400999.33, "OWNER": "ALBEMARLE COUNTY", "Z": 0, "TYPE": "FT", "GPSLOCMAP": "Y", "NAVDELEVAT": "0", "NORTHING": 3934808.83}},
{"geometry": {"type": "Point", "coordinates": [-78.612637, 38.1221004]}, "type": "Feature", "properties": {"COORDSYSTE": "NAD83", "ELEVATION": "FT", "FID": 144, "MAPNUMBER": "10", "POSTEDDATE": "JULY 96", "COMMENTS": " ", "BENCHMARKT": "ROD & CAP", "CONTACT": "ALBEMARLE COUNTY", "LOCATION": "rt. 674 bridge over Moorman's River", "EASTING": 11450512.42, "OWNER": "ALBEMARLE COUNTY", "Z": 0, "TYPE": "FT", "GPSLOCMAP": "Y", "NAVDELEVAT": "0", "NORTHING": 3932156.35}},
{"geometry": {"type": "Point", "coordinates": [-78.2104, 38.1188212]}, "type": "Feature", "properties": {"COORDSYSTE": "NAD83", "ELEVATION": "FT", "FID": 145, "MAPNUMBER": "11", "POSTEDDATE": "JULY 96", "COMMENTS": " ", "BENCHMARKT": "ROD & CAP", "CONTACT": "ALBEMARLE COUNTY", "LOCATION": "Rt. 860 at RR crossing", "EASTING": 11566237.27, "OWNER": "ALBEMARLE COUNTY", "Z": 0, "TYPE": "FT", "GPSLOCMAP": "Y", "NAVDELEVAT": "0", "NORTHING": 3931070.6}},
{"geometry": {"type": "Point", "coordinates": [-78.8025911, 38.0779769]}, "type": "Feature", "properties": {"COORDSYSTE": "NAD83", "ELEVATION": "FT", "FID": 146, "MAPNUMBER": "12", "POSTEDDATE": "JULY 96", "COMMENTS": " ", "BENCHMARKT": "ROD & CAP", "CONTACT": "ALBEMARLE COUNTY", "LOCATION": "Skyline Dr. at Calf mtn. Overlook", "EASTING": 11395812.31, "OWNER": "ALBEMARLE COUNTY", "Z": 0, "TYPE": "FT", "GPSLOCMAP": "Y", "NAVDELEVAT": "0", "NORTHING": 3916207.87}},
{"geometry": {"type": "Point", "coordinates": [-78.6162313, 38.0805342]}, "type": "Feature", "properties": {"COORDSYSTE": "NAD83", "ELEVATION": "FT", "FID": 147, "MAPNUMBER": "13", "POSTEDDATE": "JULY 96", "COMMENTS": " ", "BENCHMARKT": "ROD & CAP", "CONTACT": "ALBEMARLE COUNTY", "LOCATION": "inter. Of Rt 676 & Bailey's Retreat Dr.", "EASTING": 11449459.72, "OWNER": "ALBEMARLE COUNTY", "Z": 0, "TYPE": "FT", "GPSLOCMAP": "Y", "NAVDELEVAT": "0", "NORTHING": 3917020.17}},
{"geometry": {"type": "Point", "coordinates": [-78.2464379, 38.0884477]}, "type": "Feature", "properties": {"COORDSYSTE": "NAD83", "ELEVATION": "FT", "FID": 148, "MAPNUMBER": "14", "POSTEDDATE": "JULY 96", "COMMENTS": " ", "BENCHMARKT": "ROD & CAP", "CONTACT": "ALBEMARLE COUNTY", "LOCATION": "Rt. 615 near inter. W/Rt. 639", "EASTING": 11555898.68, "OWNER": "ALBEMARLE COUNTY", "Z": 0, "TYPE": "FT", "GPSLOCMAP": "Y", "NAVDELEVAT": "0", "NORTHING": 3919979.47}},
{"geometry": {"type": "Point", "coordinates": [-78.8390879, 38.0328585]}, "type": "Feature", "properties": {"COORDSYSTE": "NAD83", "ELEVATION": "FT", "FID": 149, "MAPNUMBER": "15", "POSTEDDATE": "JULY 96", "COMMENTS": " ", "BENCHMARKT": "ROD & CAP", "CONTACT": "ALBEMARLE COUNTY", "LOCATION": "bridge at Rt. 6 near inter. W/ Rt. 750", "EASTING": 11385247.23, "OWNER": "ALBEMARLE COUNTY", "Z": 0, "TYPE": "FT", "GPSLOCMAP": "Y", "NAVDELEVAT": "0", "NORTHING": 3899812.87}},
{"geometry": {"type": "Point", "coordinates": [-78.3025461, 38.0319564]}, "type": "Feature", "properties": {"COORDSYSTE": "NAD83", "ELEVATION": "FT", "FID": 150, "MAPNUMBER": "16", "POSTEDDATE": "JULY 96", "COMMENTS": " ", "BENCHMARKT": "ROD & CAP", "CONTACT": "ALBEMARLE COUNTY", "LOCATION": "Rt. 600 at RR crossing", "EASTING": 11539792.44, "OWNER": "ALBEMARLE COUNTY", "Z": 0, "TYPE": "FT", "GPSLOCMAP": "Y", "NAVDELEVAT": "0", "NORTHING": 3899368.43}},
{"geometry": {"type": "Point", "coordinates": [-78.8244236, 37.9879841]}, "type": "Feature", "properties": {"COORDSYSTE": "NAD83", "ELEVATION": "FT", "FID": 151, "MAPNUMBER": "17", "POSTEDDATE": "JULY 96", "COMMENTS": " ", "BENCHMARKT": "ROD & CAP", "CONTACT": "ALBEMARLE COUNTY", "LOCATION": "inter. Of Rt. 638 & Rt. 636", "EASTING": 11389414.94, "OWNER": "ALBEMARLE COUNTY", "Z": 0, "TYPE": "FT", "GPSLOCMAP": "Y", "NAVDELEVAT": "0", "NORTHING": 3883456.47}},
{"geometry": {"type": "Point", "coordinates": [-78.6832474, 38.0405687]}, "type": "Feature", "properties": {"COORDSYSTE": "NAD83", "ELEVATION": "FT", "FID": 152, "MAPNUMBER": "18", "POSTEDDATE": "JULY 96", "COMMENTS": " ", "BENCHMARKT": "ROD & CAP", "CONTACT": "ALBEMARLE COUNTY", "LOCATION": "Rt. 683 at bridge over Stockton Creek", "EASTING": 11430140.59, "OWNER": "ALBEMARLE COUNTY", "Z": 0, "TYPE": "FT", "GPSLOCMAP": "Y", "NAVDELEVAT": "0", "NORTHING": 3902496.5}},
{"geometry": {"type": "Point", "coordinates": [-78.7185012, 37.9888654]}, "type": "Feature", "properties": {"COORDSYSTE": "NAD83", "ELEVATION": "FT", "FID": 153, "MAPNUMBER": "19", "POSTEDDATE": "JULY 96", "COMMENTS": " ", "BENCHMARKT": "ROD & CAP", "CONTACT": "ALBEMARLE COUNTY", "LOCATION": "Rt. 693 at bridge", "EASTING": 11419943.62, "OWNER": "ALBEMARLE COUNTY", "Z": 0, "TYPE": "FT", "GPSLOCMAP": "Y", "NAVDELEVAT": "0", "NORTHING": 3883689.61}},
{"geometry": {"type": "Point", "coordinates": [-78.3378891, 37.9842377]}, "type": "Feature", "properties": {"COORDSYSTE": "NAD83", "ELEVATION": "FT", "FID": 154, "MAPNUMBER": "20", "POSTEDDATE": "JULY 96", "COMMENTS": " ", "BENCHMARKT": "ROD & CAP", "CONTACT": "ALBEMARLE COUNTY", "LOCATION": "inter. Of Rt. 616 & Rt. 759", "EASTING": 11529642.03, "OWNER": "ALBEMARLE COUNTY", "Z": 0, "TYPE": "FT", "GPSLOCMAP": "Y", "NAVDELEVAT": "0", "NORTHING": 3881971.63}},
{"geometry": {"type": "Point", "coordinates": [-78.3810865, 37.9599787]}, "type": "Feature", "properties": {"COORDSYSTE": "NAD83", "ELEVATION": "FT", "FID": 155, "MAPNUMBER": "21", "POSTEDDATE": "JULY 96", "COMMENTS": " ", "BENCHMARKT": "ROD & CAP", "CONTACT": "ALBEMARLE COUNTY", "LOCATION": "Rt. 53 1.85 mi. from inter. With Rt. 729", "EASTING": 11517202.54, "OWNER": "ALBEMARLE COUNTY", "Z": 0, "TYPE": "FT", "GPSLOCMAP": "Y", "NAVDELEVAT": "0", "NORTHING": 3873118.96}},
{"geometry": {"type": "Point", "coordinates": [-78.7635956, 37.968067]}, "type": "Feature", "properties": {"COORDSYSTE": "NAD83", "ELEVATION": "FT", "FID": 156, "MAPNUMBER": "22", "POSTEDDATE": "JULY 96", "COMMENTS": " ", "BENCHMARKT": "ROD & CAP", "CONTACT": "ALBEMARLE COUNTY", "LOCATION": "inter. Of Rt. 635 & rt. 691", "EASTING": 11406925.95, "OWNER": "ALBEMARLE COUNTY", "Z": 0, "TYPE": "FT", "GPSLOCMAP": "Y", "NAVDELEVAT": "0", "NORTHING": 3876148.87}},
{"geometry": {"type": "Point", "coordinates": [-78.7539907, 37.9200894]}, "type": "Feature", "properties": {"COORDSYSTE": "NAD83", "ELEVATION": "FT", "FID": 157, "MAPNUMBER": "23", "POSTEDDATE": "JULY 96", "COMMENTS": " ", "BENCHMARKT": "ROD & CAP", "CONTACT": "ALBEMARLE COUNTY", "LOCATION": "inter. Of Rt. 633 & Rt. 634", "EASTING": 11409647.89, "OWNER": "ALBEMARLE COUNTY", "Z": 0, "TYPE": "FT", "GPSLOCMAP": "Y", "NAVDELEVAT": "0", "NORTHING": 3858670.03}},
{"geometry": {"type": "Point", "coordinates": [-78.6272863, 37.9175877]}, "type": "Feature", "properties": {"COORDSYSTE": "NAD83", "ELEVATION": "FT", "FID": 158, "MAPNUMBER": "24", "POSTEDDATE": "JULY 96", "COMMENTS": " ", "BENCHMARKT": "ROD & CAP", "CONTACT": "ALBEMARLE COUNTY", "LOCATION": "inter. Of Rt. 712 & Rt. 631 near Sprint station", "EASTING": 11446197.49, "OWNER": "ALBEMARLE COUNTY", "Z": 0, "TYPE": "FT", "GPSLOCMAP": "Y", "NAVDELEVAT": "0", "NORTHING": 3857685.2}},
{"geometry": {"type": "Point", "coordinates": [-78.4950427, 37.9111302]}, "type": "Feature", "properties": {"COORDSYSTE": "NAD83", "ELEVATION": "FT", "FID": 159, "MAPNUMBER": "25", "POSTEDDATE": "JULY 96", "COMMENTS": " ", "BENCHMARKT": "ROD & CAP", "CONTACT": "ALBEMARLE COUNTY", "LOCATION": "Rt. 727 .55 mi. to inter. W/ Rt. 795", "EASTING": 11484347.67, "OWNER": "ALBEMARLE COUNTY", "Z": 0, "TYPE": "FT", "GPSLOCMAP": "Y", "NAVDELEVAT": "0", "NORTHING": 3855308.97}},
{"geometry": {"type": "Point", "coordinates": [-78.3998237, 37.9187509]}, "type": "Feature", "properties": {"COORDSYSTE": "NAD83", "ELEVATION": "FT", "FID": 160, "MAPNUMBER": "26", "POSTEDDATE": "JULY 96", "COMMENTS": " ", "BENCHMARKT": "ROD & CAP", "CONTACT": "ALBEMARLE COUNTY", "LOCATION": "inter. Of Rt. 618 & Rt. 729", "EASTING": 11511816.18, "OWNER": "ALBEMARLE COUNTY", "Z": 0, "TYPE": "FT", "GPSLOCMAP": "Y", "NAVDELEVAT": "0", "NORTHING": 3858099.35}},
{"geometry": {"type": "Point", "coordinates": [-78.7134003, 37.8824961]}, "type": "Feature", "properties": {"COORDSYSTE": "NAD83", "ELEVATION": "FT", "FID": 161, "MAPNUMBER": "27", "POSTEDDATE": "JULY 96", "COMMENTS": " ", "BENCHMARKT": "ROD & CAP", "CONTACT": "ALBEMARLE COUNTY", "LOCATION": "inter. Of Rt. 29 & Rt. 699", "EASTING": 11421326.17, "OWNER": "ALBEMARLE COUNTY", "Z": 0, "TYPE": "FT", "GPSLOCMAP": "Y", "NAVDELEVAT": "0", "NORTHING": 3844951.45}},
{"geometry": {"type": "Point", "coordinates": [-78.5526818, 37.8737765]}, "type": "Feature", "properties": {"COORDSYSTE": "NAD83", "ELEVATION": "FT", "FID": 162, "MAPNUMBER": "28", "POSTEDDATE": "JULY 96", "COMMENTS": " ", "BENCHMARKT": "ROD & CAP", "CONTACT": "ALBEMARLE COUNTY", "LOCATION": "Rt. 20 at bridge over Thomas Creek", "EASTING": 11467710.73, "OWNER": "ALBEMARLE COUNTY", "Z": 0, "TYPE": "FT", "GPSLOCMAP": "Y", "NAVDELEVAT": "0", "NORTHING": 3841710.86}},
{"geometry": {"type": "Point", "coordinates": [-78.4200015, 37.8779122]}, "type": "Feature", "properties": {"COORDSYSTE": "NAD83", "ELEVATION": "FT", "FID": 163, "MAPNUMBER": "29", "POSTEDDATE": "JULY 96", "COMMENTS": " ", "BENCHMARKT": "ROD & CAP", "CONTACT": "ALBEMARLE COUNTY", "LOCATION": "inter. Of Rt. 620 & Blueberry Hill Dr.", "EASTING": 11506007.92, "OWNER": "ALBEMARLE COUNTY", "Z": 0, "TYPE": "FT", "GPSLOCMAP": "Y", "NAVDELEVAT": "0", "NORTHING": 3843222.38}},
{"geometry": {"type": "Point", "coordinates": [-78.7276521, 37.8411726]}, "type": "Feature", "properties": {"COORDSYSTE": "NAD83", "ELEVATION": "FT", "FID": 164, "MAPNUMBER": "30", "POSTEDDATE": "JULY 96", "COMMENTS": " ", "BENCHMARKT": "ROD & CAP", "CONTACT": "ALBEMARLE COUNTY", "LOCATION": "inter. Of Rt. 632 & Rt. 774", "EASTING": 11417176.56, "OWNER": "ALBEMARLE COUNTY", "Z": 0, "TYPE": "FT", "GPSLOCMAP": "Y", "NAVDELEVAT": "0", "NORTHING": 3829913.31}},
{"geometry": {"type": "Point", "coordinates": [-78.592101, 37.8384835]}, "type": "Feature", "properties": {"COORDSYSTE": "NAD83", "ELEVATION": "FT", "FID": 165, "MAPNUMBER": "31", "POSTEDDATE": "JULY 96", "COMMENTS": " ", "BENCHMARKT": "ROD & CAP", "CONTACT": "ALBEMARLE COUNTY", "LOCATION": "inter. Of Rt. 627 & Rt. 826", "EASTING": 11456319.75, "OWNER": "ALBEMARLE COUNTY", "Z": 0, "TYPE": "FT", "GPSLOCMAP": "Y", "NAVDELEVAT": "0", "NORTHING": 3828867.79}},
{"geometry": {"type": "Point", "coordinates": [-78.459693, 37.8373106]}, "type": "Feature", "properties": {"COORDSYSTE": "NAD83", "ELEVATION": "FT", "FID": 166, "MAPNUMBER": "32", "POSTEDDATE": "JULY 96", "COMMENTS": " ", "BENCHMARKT": "ROD & CAP", "CONTACT": "ALBEMARLE COUNTY", "LOCATION": "Rt. 622 1.1 mi from inter.w/ Rt. 761", "EASTING": 11494557.81, "OWNER": "ALBEMARLE COUNTY", "Z": 0, "TYPE": "FT", "GPSLOCMAP": "Y", "NAVDELEVAT": "0", "NORTHING": 3828430.2}},
{"geometry": {"type": "Point", "coordinates": [-78.6908398, 37.7890776]}, "type": "Feature", "properties": {"COORDSYSTE": "NAD83", "ELEVATION": "FT", "FID": 167, "MAPNUMBER": "33", "POSTEDDATE": "JULY 96", "COMMENTS": " ", "BENCHMARKT": "ROD & CAP", "CONTACT": "ALBEMARLE COUNTY", "LOCATION": "Rt. 617 .45 mi. from inter. W/ Rt. 693", "EASTING": 11427768.77, "OWNER": "ALBEMARLE COUNTY", "Z": 0, "TYPE": "FT", "GPSLOCMAP": "Y", "NAVDELEVAT": "0", "NORTHING": 3810919.87}},
{"geometry": {"type": "Point", "coordinates": [-78.5858013, 37.7991707]}, "type": "Feature", "properties": {"COORDSYSTE": "NAD83", "ELEVATION": "FT", "FID": 168, "MAPNUMBER": "34", "POSTEDDATE": "JULY 96", "COMMENTS": " ", "BENCHMARKT": "ROD & CAP", "CONTACT": "ALBEMARLE COUNTY", "LOCATION": "inter. Of Rt. 627 & Stonehedge Farm Ln.", "EASTING": 11458126.02, "OWNER": "ALBEMARLE COUNTY", "Z": 0, "TYPE": "FT", "GPSLOCMAP": "Y", "NAVDELEVAT": "0", "NORTHING": 3814550.69}},
{"geometry": {"type": "Point", "coordinates": [-78.4914364, 37.7981444]}, "type": "Feature", "properties": {"COORDSYSTE": "NAD83", "ELEVATION": "FT", "FID": 169, "MAPNUMBER": "35", "POSTEDDATE": "JULY 96", "COMMENTS": " ", "BENCHMARKT": "ROD & CAP", "CONTACT": "ALBEMARLE COUNTY", "LOCATION": "RR crossing at Ferry St. near Inter. W/ Rt. 6", "EASTING": 11485391.85, "OWNER": "ALBEMARLE COUNTY", "Z": 0, "TYPE": "FT", "GPSLOCMAP": "Y", "NAVDELEVAT": "0", "NORTHING": 3814165.82}},
{"geometry": {"type": "Point", "coordinates": [-78.6594595, 37.7583125]}, "type": "Feature", "properties": {"COORDSYSTE": "NAD83", "ELEVATION": "FT", "FID": 170, "MAPNUMBER": "36", "POSTEDDATE": "JULY 96", "COMMENTS": " ", "BENCHMARKT": "ROD & CAP", "CONTACT": "ALBEMARLE COUNTY", "LOCATION": "inter. Of Rt. 602 & Rt. 735", "EASTING": 11436818.08, "OWNER": "ALBEMARLE COUNTY", "Z": 0, "TYPE": "FT", "GPSLOCMAP": "Y", "NAVDELEVAT": "0", "NORTHING": 3799700.4}}
]}