{"type":"FeatureCollection","features":[
{"geometry": {"type": "Point", "coordinates": [30.5234985, 50.4500732]}, "type": "Feature", "properties": {"DBI": "UHR385.00 = US$24.32/day", "city": "Kiev", "best_hoste": "Magic Bus Kiev\u00a0\u2013 65.00/night", "num_DBI": 24.32, "OBJECTID": 1, "attraction": 10, "country": "Ukraine", "longitude": 30.5234, "meals": 192, "drinks_ent": 96, "transporta": 4, "FID": 1, "latitude": 50.4501, "currency_": "Ukraine Hryvnia"}},
{"geometry": {"type": "Point", "coordinates": [26.102478, 44.4268799]}, "type": "Feature", "properties": {"DBI": "RON99.70 \u2013 US$26.38/day", "city": "Bucharest", "best_hoste": "Funky Chicken Hostel\u00a0= 15.64/night", "num_DBI": 26.38, "OBJECTID": 2, "attraction": 12, "country": "Romania", "longitude": 26.102538, "meals": 43.2, "drinks_ent": 12, "transporta": 4, "FID": 2, "latitude": 44.426767, "currency_": "Romanian leu"}},
{"geometry": {"type": "Point", "coordinates": [23.3218994, 42.6976929]}, "type": "Feature", "properties": {"DBI": "BGN44.72 = US$27.27/day", "city": "Sofia", "best_hoste": "Hostel Mostel\u00a0\u2013 13.70 (includes breakfast)", "num_DBI": 27.27, "OBJECTID": 3, "attraction": 4, "country": "Bulgaria", "longitude": 23.321868, "meals": 16.8, "drinks_ent": 7.5, "transporta": 2, "FID": 3, "latitude": 42.697708, "currency_": "Bulgaria Leva"}},
{"geometry": {"type": "Point", "coordinates": [19.9451294, 50.0646973]}, "type": "Feature", "properties": {"DBI": "PLN100.60 = US$27.79/day", "city": "Krakow", "best_hoste": "Benedict Hostel\u00a0\u2013 30.00/night", "num_DBI": 27.79, "OBJECTID": 4, "attraction": 15, "country": "Poland", "longitude": 19.94498, "meals": 24, "drinks_ent": 18, "transporta": 5.6, "FID": 4, "latitude": 50.06465, "currency_": "Polish Zlotych"}},
{"geometry": {"type": "Point", "coordinates": [-111.112793, 45.7910767]}, "type": "Feature", "properties": {"DBI": "\u20ac25.08 = US$29.86/day", "city": "Belgrade", "best_hoste": "City Break Hostel\u00a0\u2013 4.52/night", "num_DBI": 29.86, "OBJECTID": 5, "attraction": 3, "country": "Serbia", "longitude": -111.112796, "meals": 9.6, "drinks_ent": 4.5, "transporta": 1.68, "FID": 5, "latitude": 45.791035, "currency_": "Serbian Dinar"}},
{"geometry": {"type": "Point", "coordinates": [21.0123291, 52.2296753]}, "type": "Feature", "properties": {"DBI": "PLN112.40 = US$31.05/day", "city": "Warsaw", "best_hoste": "Hoza Hostel\u00a0\u2013 35.00/night", "num_DBI": 31.05, "OBJECTID": 6, "attraction": 18, "country": "Poland", "longitude": 21.012229, "meals": 39.6, "drinks_ent": 21, "transporta": 6.8, "FID": 6, "latitude": 52.229676, "currency_": "Polish Zlotych"}},
{"geometry": {"type": "Point", "coordinates": [18.401123, 43.8552856]}, "type": "Feature", "properties": {"DBI": "\u20ac26.22 = US$31.21/day", "city": "Sarajevo", "best_hoste": "Hostel Ljubicica\u00a0\u2013 5.56/night", "num_DBI": 31.21, "OBJECTID": 7, "attraction": 4, "country": "Bosnia and Herzegovina", "longitude": 18.401048, "meals": 9.6, "drinks_ent": 3.75, "transporta": 3.6, "FID": 7, "latitude": 43.855197, "currency_": "Converted Mark (fixed, so prices below are in euros)"}},
{"geometry": {"type": "Point", "coordinates": [19.0402832, 47.4979248]}, "type": "Feature", "properties": {"DBI": "HUF8,370 = US$31.23/day", "city": "Budapest", "best_hoste": "Lowcostel Hostels\u00a0\u2013 2045/night", "num_DBI": 31.23, "OBJECTID": 8, "attraction": 1500, "country": "Hungary", "longitude": 19.040235, "meals": 3120, "drinks_ent": 1050, "transporta": 700, "FID": 8, "latitude": 47.497912, "currency_": "Hungary Forint"}},
{"geometry": {"type": "Point", "coordinates": [14.3175049, 48.8126831]}, "type": "Feature", "properties": {"DBI": "CZK791 = US$34.01/day", "city": "Cesky Krumlov", "best_hoste": "Hostel Merlin\u00a0\u2013 265/night", "num_DBI": 34.01, "OBJECTID": 9, "attraction": 100, "country": "Czech Republic", "longitude": 14.317466, "meals": 288, "drinks_ent": 90, "transporta": 48, "FID": 9, "latitude": 48.812735, "currency_": "Czech krona"}},
{"geometry": {"type": "Point", "coordinates": [30.335083, 59.9343262]}, "type": "Feature", "properties": {"DBI": "RUB2,158 = US$34.27/day", "city": "Saint Petersburg", "best_hoste": "Mozaika Hostel\u00a0\u2013 370/night", "num_DBI": 34.27, "OBJECTID": 10, "attraction": 400, "country": "Russia", "longitude": 30.335099, "meals": 936, "drinks_ent": 360, "transporta": 62, "FID": 10, "latitude": 59.93428, "currency_": "Russian ruble"}},
{"geometry": {"type": "Point", "coordinates": [24.1052856, 56.949707]}, "type": "Feature", "properties": {"DBI": "\u20ac30.40 = US$36.19/day", "city": "Riga", "best_hoste": "Central Hostel\u00a0\u2013 5.30/night", "num_DBI": 36.19, "OBJECTID": 11, "attraction": 5, "country": "Latvia", "longitude": 24.105186, "meals": 12, "drinks_ent": 6, "transporta": 2.4, "FID": 11, "latitude": 56.949649, "currency_": "Euro"}},
{"geometry": {"type": "Point", "coordinates": [15.9818726, 45.8151245]}, "type": "Feature", "properties": {"DBI": "HRK233.40 = US$36.19/day", "city": "Zagreb", "best_hoste": "Ravnice Youth Hostel\u00a0\u2013 60/night", "num_DBI": 36.19, "OBJECTID": 12, "attraction": 30, "country": "Croatia", "longitude": 15.981919, "meals": 84, "drinks_ent": 36, "transporta": 20, "FID": 12, "latitude": 45.815011, "currency_": "Croatian kuna"}},
{"geometry": {"type": "Point", "coordinates": [25.2797241, 54.6870728]}, "type": "Feature", "properties": {"DBI": "\u20ac31.20 = US$37.14/day", "city": "Vilnius", "best_hoste": "Downtown Forest Hostel & Camping\u00a0\u2013 32.73/night", "num_DBI": 37.14, "OBJECTID": 13, "attraction": 3, "country": "Lithuania", "longitude": 25.279651, "meals": 13.2, "drinks_ent": 6, "transporta": 2, "FID": 13, "latitude": 54.687156, "currency_": "Euro"}},
{"geometry": {"type": "Point", "coordinates": [17.1071167, 48.145874]}, "type": "Feature", "properties": {"DBI": "\u20ac34.40 = US$40.95/day", "city": "Bratislava", "best_hoste": "Wild Elephants Hostel\u00a0\u2013 12/night", "num_DBI": 40.95, "OBJECTID": 14, "attraction": 5, "country": "Slovakia", "longitude": 17.107137, "meals": 12, "drinks_ent": 6, "transporta": 1.4, "FID": 14, "latitude": 48.145892, "currency_": "Euro"}},
{"geometry": {"type": "Point", "coordinates": [28.9771118, 41.0053101]}, "type": "Feature", "properties": {"DBI": "TRY97.62 = US$42.08/day", "city": "Istanbul", "best_hoste": "Aga Hamam Hostel\u00a0\u2013 20.36/night", "num_DBI": 42.08, "OBJECTID": 15, "attraction": 25, "country": "Turkey", "longitude": 28.97696, "meals": 24, "drinks_ent": 21, "transporta": 4, "FID": 15, "latitude": 41.00527, "currency_": "Turkish lira"}},
{"geometry": {"type": "Point", "coordinates": [16.4403076, 43.5081177]}, "type": "Feature", "properties": {"DBI": "271.80 = US$42.14/day", "city": "Split", "best_hoste": "Hostel Sunseekers\u00a0\u2013 81/night", "num_DBI": 42.14, "OBJECTID": 16, "attraction": 30, "country": "Croatia", "longitude": 16.440193, "meals": 100.8, "drinks_ent": 42, "transporta": 18, "FID": 16, "latitude": 43.508132, "currency_": "Croatian kuna"}},
{"geometry": {"type": "Point", "coordinates": [14.4379272, 50.0756836]}, "type": "Feature", "properties": {"DBI": "CZK1,045 = US$44.93/day", "city": "Prague", "best_hoste": "Czech Inn \u2013 297/night", "num_DBI": 44.93, "OBJECTID": 17, "attraction": 250, "country": "Czech Republic", "longitude": 14.4378, "meals": 372, "drinks_ent": 105, "transporta": 48, "FID": 17, "latitude": 50.075538, "currency_": "Czech krona"}},
{"geometry": {"type": "Point", "coordinates": [14.4379272, 46.0568848]}, "type": "Feature", "properties": {"DBI": "\u20ac38.60 = US$45.95/day", "city": "Ljubljana", "best_hoste": "Hostel 24\u00a0\u2013 9/night", "num_DBI": 45.95, "OBJECTID": 18, "attraction": 5, "country": "Slovenia", "longitude": 14.4378, "meals": 16.2, "drinks_ent": 6, "transporta": 2.4, "FID": 18, "latitude": 46.056947, "currency_": "Euro"}},
{"geometry": {"type": "Point", "coordinates": [-16.6290894, 28.291687]}, "type": "Feature", "properties": {"DBI": "\u20ac40.60 = US$48.33/day", "city": "Tenerife", "best_hoste": "Hostel Tenerife\u00a0\u2013 13/night", "num_DBI": 48.33, "OBJECTID": 19, "attraction": 3, "country": "Spain", "longitude": -16.62913, "meals": 14.4, "drinks_ent": 7.5, "transporta": 2.7, "FID": 19, "latitude": 28.291564, "currency_": "Euro"}},
{"geometry": {"type": "Point", "coordinates": [37.6173096, 55.7559204]}, "type": "Feature", "properties": {"DBI": "RUB3,050 = US$48.44/day", "city": "Moscow", "best_hoste": "TNT Hostel\u00a0500/night", "num_DBI": 48.44, "OBJECTID": 20, "attraction": 350, "country": "Russia", "longitude": 37.6173, "meals": 1128, "drinks_ent": 750, "transporta": 80, "FID": 20, "latitude": 55.755826, "currency_": "Russian ruble"}},
{"geometry": {"type": "Point", "coordinates": [24.7537231, 59.4370728]}, "type": "Feature", "properties": {"DBI": "\u20ac41.40 = US$49.29/day", "city": "Tallin", "best_hoste": "The Monk\u2019s Bunk\u00a0\u2013 9.00/night", "num_DBI": 49.29, "OBJECTID": 21, "attraction": 5, "country": "Estonia", "longitude": 24.753575, "meals": 14.4, "drinks_ent": 9, "transporta": 2, "FID": 21, "latitude": 59.436961, "currency_": "Euro"}},
{"geometry": {"type": "Point", "coordinates": [-9.1392822, 38.72229]}, "type": "Feature", "properties": {"DBI": "\u20ac42.90 = US$51.07/day", "city": "Lisbin", "best_hoste": "Equity Point Lisboa\u00a0\u2013 7.90/night", "num_DBI": 51.07, "OBJECTID": 22, "attraction": 6, "country": "Portugal", "longitude": -9.139337, "meals": 16.8, "drinks_ent": 9, "transporta": 2.8, "FID": 22, "latitude": 38.722252, "currency_": "Euro"}},
{"geometry": {"type": "Point", "coordinates": [25.4614868, 36.3931274]}, "type": "Feature", "properties": {"DBI": "\u20ac43.30 = US$51.55/day", "city": "Santorini", "best_hoste": "Anny Studios Perissa Beach\u00a0\u2013 11/night", "num_DBI": 51.55, "OBJECTID": 23, "attraction": 3, "country": "Greece", "longitude": 25.461509, "meals": 15.6, "drinks_ent": 10.5, "transporta": 3.2, "FID": 23, "latitude": 36.393156, "currency_": "Euro"}},
{"geometry": {"type": "Point", "coordinates": [14.5145264, 35.8989258]}, "type": "Feature", "properties": {"DBI": "\u20ac44.30 = US$52.74/day", "city": "Valletta", "best_hoste": "Hostel Malti\u00a0\u2013 12/night", "num_DBI": 52.74, "OBJECTID": 24, "attraction": 6, "country": "Malta", "longitude": 14.514553, "meals": 14.4, "drinks_ent": 7.5, "transporta": 4.4, "FID": 24, "latitude": 35.898908, "currency_": "Euro"}},
{"geometry": {"type": "Point", "coordinates": [23.7294922, 37.9838867]}, "type": "Feature", "properties": {"DBI": "\u20ac47.10 = US$56.07/day", "city": "Athens", "best_hoste": "Pagration Hostel\u00a0\u2013 8/night", "num_DBI": 56.07, "OBJECTID": 25, "attraction": 8, "country": "Greece", "longitude": 23.72936, "meals": 19.2, "drinks_ent": 7.5, "transporta": 2.4, "FID": 25, "latitude": 37.983917, "currency_": "Euro"}},
{"geometry": {"type": "Point", "coordinates": [14.2681274, 40.8516846]}, "type": "Feature", "properties": {"DBI": "\u20ac47.20 = US$56.19/day", "city": "Naples", "best_hoste": "Welcome Inn\u00a0\u2013 12/night", "num_DBI": 56.19, "OBJECTID": 26, "attraction": 9, "country": "Italy", "longitude": 14.268124, "meals": 15.6, "drinks_ent": 6, "transporta": 2.6, "FID": 26, "latitude": 40.851775, "currency_": "Euro"}},
{"geometry": {"type": "Point", "coordinates": [-3.7037964, 40.416687]}, "type": "Feature", "properties": {"DBI": "\u20ac49.78 = US$59.26/day", "city": "Madrid", "best_hoste": "Mad Hostel\u00a0\u2013 11.00/night", "num_DBI": 59.26, "OBJECTID": 27, "attraction": 10, "country": "Spain", "longitude": -3.70379, "meals": 19.2, "drinks_ent": 6, "transporta": 3, "FID": 27, "latitude": 40.416775, "currency_": "Euro"}},
{"geometry": {"type": "Point", "coordinates": [2.1735229, 41.3850708]}, "type": "Feature", "properties": {"DBI": "\u20ac51.20 = US$60.95/day", "city": "Barcelona", "best_hoste": "Cool Hostel\u00a0\u2013 8.90/night", "num_DBI": 60.95, "OBJECTID": 28, "attraction": 11, "country": "Spain", "longitude": 2.173403, "meals": 19.2, "drinks_ent": 9, "transporta": 4, "FID": 28, "latitude": 41.385064, "currency_": "Euro"}},
{"geometry": {"type": "Point", "coordinates": [13.4050903, 52.5200806]}, "type": "Feature", "properties": {"DBI": "\u20ac52.20 = US$62.14/day", "city": "Berlin", "best_hoste": "Heart of Gold Hostel\u00a0\u2013 12.00/night", "num_DBI": 62.14, "OBJECTID": 29, "attraction": 10, "country": "Germany", "longitude": 13.404954, "meals": 16.8, "drinks_ent": 9, "transporta": 5.4, "FID": 29, "latitude": 52.520007, "currency_": "Euro"}},
{"geometry": {"type": "Point", "coordinates": [3.2246704, 51.2094727]}, "type": "Feature", "properties": {"DBI": "\u20ac55.50 = US$66.07/day", "city": "Bruges", "best_hoste": "Snuffel Backpacker Hostel\u00a0\u2013 16/night", "num_DBI": 66.07, "OBJECTID": 30, "attraction": 6, "country": "Belgium", "longitude": 3.2247, "meals": 20.4, "drinks_ent": 10.5, "transporta": 2.6, "FID": 30, "latitude": 51.209348, "currency_": "Euro"}},
{"geometry": {"type": "Point", "coordinates": [7.262085, 43.710083]}, "type": "Feature", "properties": {"DBI": "\u20ac58.20 = US$69.29/day", "city": "Nice", "best_hoste": "Hostel Pastoral\u00a0\u2013 15/night", "num_DBI": 69.29, "OBJECTID": 31, "attraction": 7, "country": "France", "longitude": 7.261953, "meals": 19.2, "drinks_ent": 9, "transporta": 3, "FID": 31, "latitude": 43.710173, "currency_": "Euro"}},
{"geometry": {"type": "Point", "coordinates": [11.5820923, 48.1350708]}, "type": "Feature", "properties": {"DBI": "\u20ac59.90 = US$71.31/day", "city": "Munich", "best_hoste": "Euro Youth Hostel\u00a0\u2013 14.50/night", "num_DBI": 71.31, "OBJECTID": 32, "attraction": 9, "country": "Germany", "longitude": 11.581981, "meals": 19.2, "drinks_ent": 9, "transporta": 5.2, "FID": 32, "latitude": 48.135125, "currency_": "Euro"}},
{"geometry": {"type": "Point", "coordinates": [11.2559204, 43.7694702]}, "type": "Feature", "properties": {"DBI": "\u20ac55.90 = US$76.58/day", "city": "Florence", "best_hoste": "Hostel 7 Santi\u00a0\u2013 17/night", "num_DBI": 76.58, "OBJECTID": 33, "attraction": 11, "country": "Italy", "longitude": 11.255814, "meals": 18, "drinks_ent": 9, "transporta": 2.4, "FID": 33, "latitude": 43.76956, "currency_": "Euro"}},
{"geometry": {"type": "Point", "coordinates": [16.3739014, 48.208313]}, "type": "Feature", "properties": {"DBI": "\u20ac61.80 = US$73.57/day", "city": "Vienna", "best_hoste": "Wombats City Hostel \u2013 at The Naschmarkt\u00a0\u2013 11.00/night", "num_DBI": 73.57, "OBJECTID": 34, "attraction": 11.5, "country": "Austria", "longitude": 16.373819, "meals": 20.4, "drinks_ent": 10.5, "transporta": 4.4, "FID": 34, "latitude": 48.208174, "currency_": "Euro"}},
{"geometry": {"type": "Point", "coordinates": [-6.2603149, 53.3499145]}, "type": "Feature", "properties": {"DBI": "\u20ac62.20 = US$74.05/day", "city": "Dublin", "best_hoste": "Generator Dublin\u00a0\u2013 9/night (including breakfast)", "num_DBI": 74.05, "OBJECTID": 35, "attraction": 10, "country": "Ireland", "longitude": -6.26031, "meals": 19.2, "drinks_ent": 15, "transporta": 4, "FID": 35, "latitude": 53.349805, "currency_": "Euro"}},
{"geometry": {"type": "Point", "coordinates": [1.4207153, 38.9066772]}, "type": "Feature", "properties": {"DBI": "\u20ac62.60 = US$74.52/day", "city": "Ibiza", "best_hoste": "Hostal Giramundo Ibiza\u00a0\u2013 18.00/night", "num_DBI": 74.52, "OBJECTID": 36, "attraction": 10, "country": "Spain", "longitude": 1.420598, "meals": 18, "drinks_ent": 9, "transporta": 2.6, "FID": 36, "latitude": 38.906734, "currency_": "Euro"}},
{"geometry": {"type": "Point", "coordinates": [-21.9332886, 64.1334839]}, "type": "Feature", "properties": {"DBI": "ISK9,777 = US$75.47/day", "city": "Reykjavik", "best_hoste": "Bus Hostel Reykjavik\u00a0\u2013 2491/night", "num_DBI": 75.47, "OBJECTID": 37, "attraction": 1500, "country": "Iceland", "longitude": -21.933333, "meals": 2520, "drinks_ent": 2400, "transporta": 700, "FID": 37, "latitude": 64.133333, "currency_": "Iceland kronur"}},
{"geometry": {"type": "Point", "coordinates": [6.1320801, 49.6116943]}, "type": "Feature", "properties": {"DBI": "\u20ac64.30 = US$76.55/day", "city": "Luxembourg City", "best_hoste": "Luxembourg City Hostel\u00a0\u2013 25.00/night (including breakfast)", "num_DBI": 76.55, "OBJECTID": 38, "attraction": 5, "country": "Luxembourg", "longitude": 6.131935, "meals": 19.8, "drinks_ent": 10.5, "transporta": 4, "FID": 38, "latitude": 49.611621, "currency_": "Euro"}},
{"geometry": {"type": "Point", "coordinates": [13.0551147, 47.8095093]}, "type": "Feature", "properties": {"DBI": "\u20ac64.40 = US$76.67/day", "city": "Salzburg", "best_hoste": "YoHo international Youth Hostel\u00a0\u2013 19/night", "num_DBI": 76.67, "OBJECTID": 39, "attraction": 10, "country": "Austria", "longitude": 13.05501, "meals": 21.6, "drinks_ent": 9, "transporta": 4.8, "FID": 39, "latitude": 47.80949, "currency_": "Euro"}},
{"geometry": {"type": "Point", "coordinates": [9.9937134, 53.5510864]}, "type": "Feature", "properties": {"DBI": "\u20ac65.00 = US$77.38/day", "city": "Hamburg", "best_hoste": "Superbude Hotel & Hostel St.Pauli\u00a0\u2013 15/night", "num_DBI": 77.38, "OBJECTID": 40, "attraction": 10, "country": "Germany", "longitude": 9.993682, "meals": 18, "drinks_ent": 9, "transporta": 3, "FID": 40, "latitude": 53.551085, "currency_": "Euro"}},
{"geometry": {"type": "Point", "coordinates": [18.0944824, 42.6506958]}, "type": "Feature", "properties": {"DBI": "HRK502.80 = US$77.95/day", "city": "Dubrovnik", "best_hoste": "GuestHouse Maria\u00a0\u2013 165/night", "num_DBI": 77.95, "OBJECTID": 41, "attraction": 90, "country": "Croatia", "longitude": 18.094424, "meals": 136.8, "drinks_ent": 90, "transporta": 24, "FID": 41, "latitude": 42.650661, "currency_": "Croatian kuna"}},
{"geometry": {"type": "Point", "coordinates": [9.1859131, 45.4655151]}, "type": "Feature", "properties": {"DBI": "\u20ac65.50 = US$77.98/day", "city": "Milan", "best_hoste": "Ostello Burigozzo 11\u00a0\u2013 16/night", "num_DBI": 77.98, "OBJECTID": 42, "attraction": 10, "country": "Italy", "longitude": 9.185924, "meals": 18, "drinks_ent": 10.5, "transporta": 3, "FID": 42, "latitude": 45.465422, "currency_": "Euro"}},
{"geometry": {"type": "Point", "coordinates": [12.4962769, 41.9028931]}, "type": "Feature", "properties": {"DBI": "\u20ac67.60 = US$80.48/day", "city": "Rome", "best_hoste": "The Yellow\u00a0\u2013 14.90/night", "num_DBI": 80.48, "OBJECTID": 43, "attraction": 12, "country": "Italy", "longitude": 12.496366, "meals": 19.2, "drinks_ent": 9, "transporta": 3, "FID": 43, "latitude": 41.902783, "currency_": "Euro"}},
{"geometry": {"type": "Point", "coordinates": [-3.1882935, 55.9533081]}, "type": "Feature", "properties": {"DBI": "\u00a353.35 = US$80.83/day", "city": "Edinburgh", "best_hoste": "High Street Hostel\u00a0\u2013 9.99/night", "num_DBI": 80.83, "OBJECTID": 44, "attraction": 12, "country": "Scotland", "longitude": -3.188267, "meals": 15.6, "drinks_ent": 9, "transporta": 3, "FID": 44, "latitude": 55.953252, "currency_": "Euro"}},
{"geometry": {"type": "Point", "coordinates": [4.3516846, 50.8502808]}, "type": "Feature", "properties": {"DBI": "\u20ac71.60 = US$85.24/day", "city": "Brussels", "best_hoste": "Hostel Grand Place\u00a0\u2013 25/night", "num_DBI": 85.24, "OBJECTID": 45, "attraction": 8, "country": "Belgium", "longitude": 4.35171, "meals": 21.6, "drinks_ent": 12, "transporta": 4, "FID": 45, "latitude": 50.85034, "currency_": "Euro"}},
{"geometry": {"type": "Point", "coordinates": [2.3522949, 48.8566895]}, "type": "Feature", "properties": {"DBI": "\u20ac72.80 = US$86.67/day", "city": "Paris", "best_hoste": "Le Village Hostel & Budget Hotel\u00a0\u2013 19.84/night", "num_DBI": 88.67, "OBJECTID": 46, "attraction": 12, "country": "France", "longitude": 2.352222, "meals": 20.4, "drinks_ent": 12, "transporta": 3.4, "FID": 46, "latitude": 48.856614, "currency_": "Euro"}},
{"geometry": {"type": "Point", "coordinates": [7.8696899, 46.6875]}, "type": "Feature", "properties": {"DBI": "CHF89.60 = US$88.71/day", "city": "Interlaken", "best_hoste": "Happy Inn Lodge\u00a0\u2013 24.42/night", "num_DBI": 88.71, "OBJECTID": 47, "attraction": 10, "country": "Switzerland", "longitude": 7.869551, "meals": 38.4, "drinks_ent": 15, "transporta": 0, "FID": 47, "latitude": 46.687384, "currency_": "Euro"}},
{"geometry": {"type": "Point", "coordinates": [10.7523193, 59.9138794]}, "type": "Feature", "properties": {"DBI": "NOK689 = US$89.36/day", "city": "Oslo", "best_hoste": "Anker Apartment\u00a0\u2013 230/night", "num_DBI": 89.36, "OBJECTID": 48, "attraction": 50, "country": "Norway", "longitude": 10.752245, "meals": 228, "drinks_ent": 120, "transporta": 56, "FID": 48, "latitude": 59.913869, "currency_": "Norwegian kroner"}},
{"geometry": {"type": "Point", "coordinates": [12.5684814, 55.6760864]}, "type": "Feature", "properties": {"DBI": "DKK 497 = US$91.87/day", "city": "Copenhagen", "best_hoste": "Sleep in Heaven\u00a0\u2013 160/night", "num_DBI": 91.87, "OBJECTID": 49, "attraction": 80, "country": "Denmark", "longitude": 12.568337, "meals": 168, "drinks_ent": 90, "transporta": 48, "FID": 49, "latitude": 55.676097, "currency_": "Danish kroner"}},
{"geometry": {"type": "Point", "coordinates": [18.0687256, 59.3292847]}, "type": "Feature", "properties": {"DBI": "SEK739 = US$93.31/day", "city": "Stockholm", "best_hoste": "Crafoord Place\u00a0\u2013 199/night", "num_DBI": 93.31, "OBJECTID": 50, "attraction": 130, "country": "Sweden", "longitude": 18.068581, "meals": 216, "drinks_ent": 120, "transporta": 72, "FID": 50, "latitude": 59.329323, "currency_": "Swedish kronor"}},
{"geometry": {"type": "Point", "coordinates": [4.8950806, 52.3703003]}, "type": "Feature", "properties": {"DBI": "\u20ac80.10 = US$95.36/day", "city": "Amsterdam", "best_hoste": "Flying Pig Uptown\u00a0\u2013 21.90/night", "num_DBI": 95.36, "OBJECTID": 51, "attraction": 15, "country": "Netherlands", "longitude": 4.895168, "meals": 15.6, "drinks_ent": 12, "transporta": 5.6, "FID": 51, "latitude": 52.370216, "currency_": "Euro"}},
{"geometry": {"type": "Point", "coordinates": [24.9411011, 60.1732788]}, "type": "Feature", "properties": {"DBI": "\u20ac80.60 = US$95.95/day", "city": "Helsinki", "best_hoste": "Eurohostel\u00a0\u2013 25/night", "num_DBI": 95.95, "OBJECTID": 52, "attraction": 7, "country": "Finland", "longitude": 24.941025, "meals": 22.8, "drinks_ent": 18, "transporta": 4.4, "FID": 52, "latitude": 60.173324, "currency_": "Euro"}},
{"geometry": {"type": "Point", "coordinates": [12.3154907, 45.440918]}, "type": "Feature", "properties": {"DBI": "\u20ac81.90 = US$97.50/day", "city": "Venice", "best_hoste": "San Geremia Rooms\u00a0\u2013 25/night", "num_DBI": 97.5, "OBJECTID": 53, "attraction": 11, "country": "Italy", "longitude": 12.315515, "meals": 26.4, "drinks_ent": 10.5, "transporta": 7, "FID": 53, "latitude": 45.440847, "currency_": "Euro"}},
{"geometry": {"type": "Point", "coordinates": [-0.1276855, 51.5073242]}, "type": "Feature", "properties": {"DBI": "\u00a369.70 = US$105.51/day", "city": "London", "best_hoste": "The Walrus Waterloo\u00a0\u2013 14/night (including breakfast)", "num_DBI": 105.51, "OBJECTID": 54, "attraction": 12, "country": "England", "longitude": -0.127758, "meals": 21, "drinks_ent": 10.5, "transporta": 5.6, "FID": 54, "latitude": 51.507351, "currency_": "British pound"}},
{"geometry": {"type": "Point", "coordinates": [5.3220825, 60.3912964]}, "type": "Feature", "properties": {"DBI": "NOK818 = US$106.10/day", "city": "Bergen", "best_hoste": "HI Montana Youth and Family Hostel\u00a0\u2013 276/night", "num_DBI": 106.1, "OBJECTID": 55, "attraction": 60, "country": "Norway", "longitude": 5.322054, "meals": 240, "drinks_ent": 180, "transporta": 62, "FID": 55, "latitude": 60.391263, "currency_": "Norwegian kroner"}},
{"geometry": {"type": "Point", "coordinates": [8.5393066, 47.3687134]}, "type": "Feature", "properties": {"DBI": "CHF125.40 = US$124.16/day", "city": "Zurich", "best_hoste": "Youth Hostel Zurich\u00a0\u2013 41/night", "num_DBI": 124.16, "OBJECTID": 56, "attraction": 17, "country": "Switzerland", "longitude": 8.539183, "meals": 37.2, "drinks_ent": 21, "transporta": 5.2, "FID": 56, "latitude": 47.36865, "currency_": "Swiss franc"}}
]}