{"type":"FeatureCollection","features":[
{"geometry": {"type": "Point", "coordinates": [-76.6967787, 36.9644321]}, "type": "Feature", "properties": {"CITY": "Smithfield", "NAME": "SPSA Transfer Station", "OBJECTID": 1, "ZIPCODE": 23430, "Hours": "8am to 3pm Mon-Fri, 8am - 12pm Sat", "Phone": "(757) 961-3874", "STATE": "VA", "FID": 1, "ADDRESS": "13191 Foursquare Road", "TYPE": "Transfer Station"}},
{"geometry": {"type": "Point", "coordinates": [-76.6595092, 37.0284237]}, "type": "Feature", "properties": {"CITY": "Smithfield", "NAME": "Wrenn's Mill Center", "OBJECTID": 2, "ZIPCODE": 23430, "Hours": "7 - 7 Mon + Tue and Thur thru Sat, 1pm - 7pm Sun, Closed Wed", "Phone": "(757) 356-1040", "STATE": "VA", "FID": 2, "ADDRESS": "8196 Old Stage Highway", "TYPE": "Refuse and Recycling Centers"}},
{"geometry": {"type": "Point", "coordinates": [-76.5596827, 36.9754728]}, "type": "Feature", "properties": {"CITY": "Carollton", "NAME": "Jones Creek Center", "OBJECTID": 3, "ZIPCODE": 23314, "Hours": "7 - 7 Mon + Tue and Thur thru Sat, 1pm - 7pm Sun, Closed Wed", "Phone": "(757) 356-1037", "STATE": "VA", "FID": 3, "ADDRESS": "21203 Boundary Road", "TYPE": "Refuse and Recycling Center"}},
{"geometry": {"type": "Point", "coordinates": [-76.6379381, 36.8955523]}, "type": "Feature", "properties": {"CITY": "Windsor", "NAME": "Carroll Bridge Center", "OBJECTID": 4, "ZIPCODE": 23487, "Hours": "7 - 7 Mon + Tue and Thur thru Sat, 1pm - 7pm Sun, Closed Wed", "Phone": "(757) 356-1018", "STATE": "VA", "FID": 4, "ADDRESS": "17634 Carroll Bridge Road", "TYPE": "Refuse and Recycling Center"}},
{"geometry": {"type": "Point", "coordinates": [-76.7634231, 36.8218548]}, "type": "Feature", "properties": {"CITY": "Windsor", "NAME": "Stave Mill Center", "OBJECTID": 5, "ZIPCODE": 23487, "Hours": "7 - 7 Mon + Tue and Thur thru Sat, 1pm - 7pm Sun, Closed Wed", "Phone": "(757) 242-3597", "STATE": "VA", "FID": 5, "ADDRESS": "23254 Stave Mill Road", "TYPE": "Refuse and Recycling Center"}},
{"geometry": {"type": "Point", "coordinates": [-76.8242641, 36.7120129]}, "type": "Feature", "properties": {"CITY": "Carrsville", "NAME": "Carrsville Center", "OBJECTID": 6, "ZIPCODE": 23315, "Hours": "7 - 7 Mon + Tue and Thur thru Sat, 1pm - 7pm Sun, Closed Wed", "Phone": "(757) 516-2851", "STATE": "VA", "FID": 6, "ADDRESS": "6135 Carrsville Highway", "TYPE": "Refuse and Recycling Center"}},
{"geometry": {"type": "Point", "coordinates": [-76.9052681, 36.6787143]}, "type": "Feature", "properties": {"CITY": "Franklin", "NAME": "Camptown Center", "OBJECTID": 7, "ZIPCODE": 23851, "Hours": "7 - 7 Mon + Tue and Thur thru Sat, 1pm - 7pm Sun, Closed Wed", "Phone": "(757) 516-2850", "STATE": "VA", "FID": 7, "ADDRESS": "34010 Carver Road", "TYPE": "Refuse and Recycling Center"}},
{"geometry": {"type": "Point", "coordinates": [-76.7582966, 36.9152672]}, "type": "Feature", "properties": {"CITY": "Windsor", "NAME": "Crocker's Center", "OBJECTID": 8, "ZIPCODE": 23487, "Hours": "7 - 7 Mon + Tue and Thur thru Sat, 1pm - 7pm Sun, Closed Wed", "Phone": "(757) 356-1026", "STATE": "VA", "FID": 8, "ADDRESS": "9421 Whispering Pines Trail", "TYPE": "Refuse and Recycling Center"}},
{"geometry": {"type": "Point", "coordinates": [-76.8653796, 36.7685837]}, "type": "Feature", "properties": {"CITY": "Carrsville", "NAME": "Walters Center", "OBJECTID": 9, "ZIPCODE": 23315, "Hours": "7 - 7 Mon + Tue and Thur thru Sat, 1pm - 7pm Sun, Closed Wed", "Phone": "(757) 516-2852", "STATE": "VA", "FID": 9, "ADDRESS": "3403 Burdette Road", "TYPE": "Refuse and Recycling Center"}},
{"geometry": {"type": "Point", "coordinates": [-76.9852096, 36.659085]}, "type": "Feature", "properties": {"CITY": "Franklin", "NAME": "SPSA Transfer Station", "OBJECTID": 812, "ZIPCODE": 23851, "Hours": "8am to 3pm Mon-Fri, 8am - 12pm Sat", "Phone": "(757) 691-3683", "STATE": "VA", "FID": 10, "ADDRESS": "30521 General Thomal Hwy", "TYPE": "Transfer Station"}}
]}