{"type":"FeatureCollection","features":[
{"geometry": {"type": "Point", "coordinates": [-76.9188627, 36.6800421]}, "type": "Feature", "properties": {"CITY": "Franklin", "NAME": "Franklin VRS", "ZIPCODE": 23851, "STATE": "VA", "FID": 1, "ADDRESS": "357 Carrsville Hwy", "TYPE": "Volunteer_Fire"}},
{"geometry": {"type": "Point", "coordinates": [-76.7426257, 36.8080233]}, "type": "Feature", "properties": {"CITY": "Windsor", "NAME": "Windsor Police", "ZIPCODE": 23487, "STATE": "VA", "FID": 2, "ADDRESS": "8 East Windsor Boulevard", "TYPE": "Police"}},
{"geometry": {"type": "Point", "coordinates": [-76.608307, 36.964153]}, "type": "Feature", "properties": {"CITY": "Smithfield", "NAME": "Isle of Wight VRS", "ZIPCODE": 23430, "STATE": "VA", "FID": 3, "ADDRESS": "1802A S Church St", "TYPE": "Volunteer_Rescue"}},
{"geometry": {"type": "Point", "coordinates": [-76.7415961, 36.8070778]}, "type": "Feature", "properties": {"CITY": "Windsor", "NAME": "Windsor VRS", "ZIPCODE": 23487, "STATE": "VA", "FID": 4, "ADDRESS": "19 E Windsor Blvd", "TYPE": "Volunteer_Rescue"}},
{"geometry": {"type": "Point", "coordinates": [-76.5307543, 36.9345658]}, "type": "Feature", "properties": {"CITY": "Carollton", "NAME": "Carrollton VRS", "ZIPCODE": 23314, "STATE": "VA", "FID": 5, "ADDRESS": "15020 Carrollton Blvd", "TYPE": "Volunteer_Rescue"}},
{"geometry": {"type": "Point", "coordinates": [-76.7324615, 36.8056622]}, "type": "Feature", "properties": {"CITY": "Windsor", "NAME": "Windsor VFD", "ZIPCODE": 23487, "STATE": "VA", "FID": 6, "ADDRESS": "80 E Windsor Blvd", "TYPE": "Volunteer_Fire"}},
{"geometry": {"type": "Point", "coordinates": [-76.5306449, 36.934554]}, "type": "Feature", "properties": {"CITY": "Carollton", "NAME": "Carrollton VFD", "ZIPCODE": 23314, "STATE": "VA", "FID": 7, "ADDRESS": "15020 Carrollton Blvd", "TYPE": "Volunteer_Fire"}},
{"geometry": {"type": "Point", "coordinates": [-76.6772765, 37.0663593]}, "type": "Feature", "properties": {"CITY": "Smithfield", "NAME": "Rushmere VFD", "ZIPCODE": 23430, "STATE": "VA", "FID": 8, "ADDRESS": "5354 Old Stage hwy", "TYPE": "Volunteer_Fire"}},
{"geometry": {"type": "Point", "coordinates": [-76.7083046, 36.9090274]}, "type": "Feature", "properties": {"CITY": "IOW", "NAME": "Central Dispatch", "ZIPCODE": 23397, "STATE": "VA", "FID": 9, "ADDRESS": "17110 Monument Circle", "TYPE": "Dispatch"}},
{"geometry": {"type": "Point", "coordinates": [-76.7081613, 36.9091208]}, "type": "Feature", "properties": {"CITY": "IOW", "NAME": "Isle of Wight Sheriff's Office", "ZIPCODE": 23397, "STATE": "VA", "FID": 10, "ADDRESS": "17110 Monument Circle", "TYPE": "Police"}},
{"geometry": {"type": "Point", "coordinates": [-76.822393, 36.7101264]}, "type": "Feature", "properties": {"CITY": "Carrsville", "NAME": "Carrsville VFD", "ZIPCODE": 23315, "STATE": "VA", "FID": 11, "ADDRESS": "6201 Carrsville Hwy", "TYPE": "Volunteer_Fire"}},
{"geometry": {"type": "Point", "coordinates": [-76.822323, 36.7103011]}, "type": "Feature", "properties": {"CITY": "Carrsville", "NAME": "Carrsville Rescue", "ZIPCODE": 23315, "STATE": "VA", "FID": 12, "ADDRESS": "6201 Carrsville Hwy", "TYPE": "Volunteer_Rescue"}},
{"geometry": {"type": "Point", "coordinates": [-76.6070826, 36.9639241]}, "type": "Feature", "properties": {"CITY": "Smithfield", "NAME": "Smithfield VFD", "ZIPCODE": 23430, "STATE": "VA", "FID": 13, "ADDRESS": "310 Institue St", "TYPE": "Volunteer_Fire"}},
{"geometry": {"type": "Point", "coordinates": [-76.611495, 36.9777842]}, "type": "Feature", "properties": {"CITY": "Smithfield", "NAME": "Smithfield Police", "ZIPCODE": 23430, "STATE": "VA", "FID": 14, "ADDRESS": "1613 S Church St", "TYPE": "Police"}}
]}