{"type":"FeatureCollection","features":[
{"geometry": {"type": "Point", "coordinates": [-77.421074, 37.5263686]}, "type": "Feature", "properties": {"GenericField2": null, "City": "Richmond", "GenericField1": null, "Name": "Great Shiplock Park", "Zip": 23223, "Image": null, "MileMarker": null, "GlobalID": "6738fb4a-a333-4582-9025-bd35f59f5faf", "OBJECTID": 1, "Address": "2803 Dock St.", "IconType": null, "Description": "Overnight and Day Parking Available.  No parking across Dock Street."}},
{"geometry": {"type": "Point", "coordinates": [-77.4168092, 37.5210334]}, "type": "Feature", "properties": {"GenericField2": null, "City": "Richmond", "GenericField1": null, "Name": "Riverfront Parking Lot", "Zip": 23223, "Image": "", "MileMarker": null, "GlobalID": "9b1c6dbc-c2a9-45f2-bce6-72dd3147a72c", "OBJECTID": 2, "Address": "Wharf Street", "IconType": 1, "Description": "Limited but free."}},
{"geometry": {"type": "Point", "coordinates": [-76.8722752, 37.2662256]}, "type": "Feature", "properties": {"GenericField2": null, "City": "Williamsburg", "GenericField1": null, "Name": "Chickahominy Riverfront Park", "Zip": 23185, "Image": "", "MileMarker": null, "GlobalID": "2a44e148-0d41-4200-9201-a357156a5754", "OBJECTID": 5, "Address": "1350 John Tyler Memorial Hwy", "IconType": 0, "Description": "Overnight and Day Parking Available."}},
{"geometry": {"type": "Point", "coordinates": [-77.3402175, 37.460538]}, "type": "Feature", "properties": {"GenericField2": null, "City": "Henrico", "GenericField1": null, "Name": "Dorey Park", "Zip": 23231, "Image": null, "MileMarker": null, "GlobalID": "e58a6465-110a-4684-9d90-d3ab7cd0acc5", "OBJECTID": 8, "Address": "2999 Darbytown Rd.", "IconType": null, "Description": "Drive to far end of the park from the entrance. Connector to Capital Trail complete by spring 2016."}},
{"geometry": {"type": "Point", "coordinates": [-77.3290273, 37.4349252]}, "type": "Feature", "properties": {"GenericField2": null, "City": "Henrico, VA", "GenericField1": null, "Name": "Four Mile Creek Trailhead", "Zip": 23231, "Image": null, "MileMarker": null, "GlobalID": "5ce122c1-12dc-41f6-a207-13c53e8e9e31", "OBJECTID": 9, "Address": "3274 New Market Rd.", "IconType": null, "Description": null}},
{"geometry": {"type": "Point", "coordinates": [-77.1819779, 37.3302922]}, "type": "Feature", "properties": {"GenericField2": null, "City": "Charles City, VA", "GenericField1": null, "Name": "Herring Creek Trailhead", "Zip": 23030, "Image": null, "MileMarker": null, "GlobalID": "3e1c4ab5-a0b7-43d3-b5c8-166f9d250254", "OBJECTID": 10, "Address": "5100 Herring Creek Road", "IconType": null, "Description": null}},
{"geometry": {"type": "Point", "coordinates": [-77.0976921, 37.3183349]}, "type": "Feature", "properties": {"GenericField2": null, "City": "Charles City", "GenericField1": null, "Name": "Lawrence Lewis Jr. Park", "Zip": 23030, "Image": null, "MileMarker": null, "GlobalID": "6dd68d82-b7a5-4e0b-beaf-1ecbd566d0a6", "OBJECTID": 11, "Address": "12400 Wilcox Wharf Rd.", "IconType": null, "Description": null}},
{"geometry": {"type": "Point", "coordinates": [-76.7872747, 37.2497371]}, "type": "Feature", "properties": {"GenericField2": null, "City": "Williamsburg", "GenericField1": null, "Name": "Jamestown High School", "Zip": 23185, "Image": null, "MileMarker": null, "GlobalID": "00cd50d2-9fc1-48c7-83e5-485369300d1e", "OBJECTID": 12, "Address": "3751 John Tyler Hwy", "IconType": null, "Description": "Park in the way back behind the school."}},
{"geometry": {"type": "Point", "coordinates": [-76.7849412, 37.234944]}, "type": "Feature", "properties": {"GenericField2": null, "City": "Williamsburg", "GenericField1": null, "Name": "Mainland Farm", "Zip": 23185, "Image": null, "MileMarker": null, "GlobalID": "3e6e368c-1f55-4a40-9eec-0cf4b22fe4bd", "OBJECTID": 13, "Address": "2590 Greensprings Rd.", "IconType": null, "Description": "Limited number of spaces"}},
{"geometry": {"type": "Point", "coordinates": [-76.7823395, 37.2271022]}, "type": "Feature", "properties": {"GenericField2": null, "City": "Williamsburg", "GenericField1": null, "Name": "Jamestown Settlement", "Zip": 23185, "Image": null, "MileMarker": null, "GlobalID": "545f45ff-b166-48fc-86c5-b06fe2bc04d7", "OBJECTID": 14, "Address": "2110 Jamestown Rd", "IconType": null, "Description": "Overnight Parking Available. Please park in the spots closest to the Trail."}},
{"geometry": {"type": "Point", "coordinates": [-76.779503, 37.2267371]}, "type": "Feature", "properties": {"GenericField2": null, "City": "Williamsburg", "GenericField1": null, "Name": "James City County Marina", "Zip": 23185, "Image": null, "MileMarker": null, "GlobalID": "c05c9ccc-2556-4726-8c20-bb62a4a9c3c4", "OBJECTID": 16, "Address": "2054 Jamestown Road", "IconType": null, "Description": "(757)565-3699, Overnight Parking available with a permit obtained at the marina store (during store hours)."}},
{"geometry": {"type": "Point", "coordinates": [-77.4306747, 37.5329145]}, "type": "Feature", "properties": {"GenericField2": null, "City": "Richmond", "GenericField1": null, "Name": "Daily Self-Pay Parking", "Zip": 23219, "Image": null, "MileMarker": null, "GlobalID": "4bdda7c2-a041-4ab7-9053-79466d55d1cd", "OBJECTID": 17, "Address": null, "IconType": null, "Description": "$5"}},
{"geometry": {"type": "Point", "coordinates": [-77.4303153, 37.5334293]}, "type": "Feature", "properties": {"GenericField2": null, "City": "Richmond", "GenericField1": null, "Name": "Daily Self-Pay Parking", "Zip": 23219, "Image": null, "MileMarker": null, "GlobalID": "04033a72-336f-4966-bff8-a5aadce7e11f", "OBJECTID": 18, "Address": null, "IconType": null, "Description": null}},
{"geometry": {"type": "Point", "coordinates": [-77.4320265, 37.5345395]}, "type": "Feature", "properties": {"GenericField2": null, "City": "Richmond", "GenericField1": null, "Name": "Parking Deck - 14th and Cary Street Intersection", "Zip": 23219, "Image": null, "MileMarker": null, "GlobalID": "1105f46e-a6e4-4446-8806-202a26902dbd", "OBJECTID": 19, "Address": null, "IconType": null, "Description": "Garage; $5 flat rate, pay on exit; No overnight parking"}},
{"geometry": {"type": "Point", "coordinates": [-77.4313667, 37.5340163]}, "type": "Feature", "properties": {"GenericField2": null, "City": "Richmond", "GenericField1": null, "Name": "15th & Cary Street Lot", "Zip": 23219, "Image": null, "MileMarker": null, "GlobalID": "2e5123fd-32e7-4a6e-b525-48ca17ffb452", "OBJECTID": 20, "Address": "1434 East Cary Street", "IconType": null, "Description": "Not covered; 2 Hours-\t$6.00;12 Hours-$8.00; 24 Hours-$10.00"}},
{"geometry": {"type": "Point", "coordinates": [-77.4308464, 37.5337143]}, "type": "Feature", "properties": {"GenericField2": null, "City": "Richmond", "GenericField1": null, "Name": "Scott Lot", "Zip": 23219, "Image": null, "MileMarker": null, "GlobalID": "867e7b06-845b-4161-b921-5af5699e503b", "OBJECTID": 21, "Address": "1504 East Cary Street", "IconType": null, "Description": "Overnight Parking available ($10); $5 - 12 hour"}},
{"geometry": {"type": "Point", "coordinates": [-77.0718912, 37.3417212]}, "type": "Feature", "properties": {"GenericField2": null, "City": "Charles City", "GenericField1": null, "Name": "Charles City Courthouse", "Zip": 23030, "Image": "https://upload.wikimedia.org/wikipedia/commons/thumb/2/28/Charles_City_Courthouse.JPG/225px-Charles_City_Courthouse.JPG", "MileMarker": null, "GlobalID": "2866e054-8e1c-4154-b974-97eacd4b925b", "OBJECTID": 22, "Address": "10780 Courthouse Rd,", "IconType": null, "Description": null}}
]}