{"type":"FeatureCollection","features":[
{"geometry": {"type": "Point", "coordinates": [-77.4293929, 37.5323934]}, "type": "Feature", "properties": {"GenericField2": null, "City": "Richmond", "GenericField1": null, "Name": "Bottoms Up Pizza", "Zip": 23223, "Image": "https://res.cloudinary.com/roadtrippers/image/upload/c_fill,h_316,w_520/v1385581039/bottoms-up-pizza-5296498b85c07ac55600008c.jpg", "MileMarker": null, "GlobalID": "4642a274-898a-4793-91d4-665a6c1b1686", "OBJECTID": 2, "Address": "1700 Dock St.", "IconType": null, "Description": "(804)644-4400; www.bottomsuppizza.com"}},
{"geometry": {"type": "Point", "coordinates": [-77.4161535, 37.518175]}, "type": "Feature", "properties": {"GenericField2": null, "City": "Richmond, Virginia", "GenericField1": null, "Name": "The Boathouse at Rockett's Landing", "Zip": 23231, "Image": "http://rockettsvillage.com/media/W1siZiIsIjIwMTMvMDkvMDQvMTZfMTVfMzZfNTI5X3RoZV9ib2F0aG91c2VfcmVzdGF1cmFudC5qcGciXSxbInAiLCJ0aHVtYiIsIjUwMHgzMDAjIl1d", "MileMarker": null, "GlobalID": "9df78b5a-ff34-4145-a98a-fb1fa9143047", "OBJECTID": 3, "Address": "4708 Old Main St.", "IconType": null, "Description": "(804) 622-2628; http://www.boathouserva.com/"}},
{"geometry": {"type": "Point", "coordinates": [-77.4160623, 37.5176134]}, "type": "Feature", "properties": {"GenericField2": null, "City": "Richmond", "GenericField1": null, "Name": "Conch Republic", "Zip": 23231, "Image": "http://conchrepublicrocketts.com/wp-content/uploads/conch-outside-front1-1920x1100.jpg", "MileMarker": null, "GlobalID": "87d005d0-80fe-49a0-bf8f-c12844042d8f", "OBJECTID": 4, "Address": "11 Orleans St.", "IconType": null, "Description": "(804) 226-6242; http://conchrepublicrocketts.com/"}},
{"geometry": {"type": "Point", "coordinates": [-77.3301324, 37.4338007]}, "type": "Feature", "properties": {"GenericField2": "http://www.dairyqueen.com/us-en/locator/Detail/?lo", "City": "Henrico", "GenericField1": "804-795-4957", "Name": "Dairy Queen", "Zip": 23231, "Image": null, "MileMarker": null, "GlobalID": "5a6c7826-c5fe-4e17-b1aa-294e90eea4da", "OBJECTID": 5, "Address": "3275 New Market Rd.", "IconType": null, "Description": "Located inside the Exxon Gas Station"}},
{"geometry": {"type": "Point", "coordinates": [-77.0732518, 37.3420001]}, "type": "Feature", "properties": {"GenericField2": null, "City": "Charles City", "GenericField1": null, "Name": "Cul's Courthouse Grille", "Zip": 23030, "Image": "http://s3-media2.fl.yelpcdn.com/bphoto/ER9HSHc1WUJ7I0iUzIS2JA/o.jpg", "MileMarker": null, "GlobalID": "60630882-db63-49cb-a5be-2d99aa2c49fa", "OBJECTID": 6, "Address": "10801 Courthouse Rd.", "IconType": null, "Description": "804-829-2205 http://www.culscourthousegrille.com/"}},
{"geometry": {"type": "Point", "coordinates": [-76.7835465, 37.2255004]}, "type": "Feature", "properties": {"GenericField2": null, "City": "Williamsburg", "GenericField1": null, "Name": "Jamestown Settlement Cafe", "Zip": 23185, "Image": null, "MileMarker": null, "GlobalID": "19875223-2af4-49a8-9aa7-d4f06f92d15a", "OBJECTID": 7, "Address": "1760 Jamestown Rd.", "IconType": null, "Description": "No reservations needed.  Located inside the Settlement building."}},
{"geometry": {"type": "Point", "coordinates": [-77.371205, 37.4541377]}, "type": "Feature", "properties": {"GenericField2": "http://ronniesbbq.com/", "City": "Henrico", "GenericField1": "804-507-1575", "Name": "Ronnie's BBQ", "Zip": 23231, "Image": "http://s3-media3.fl.yelpcdn.com/bphoto/aQar32dffiwfH6WMVwIxig/348s.jpg", "MileMarker": null, "GlobalID": "ef69380c-9870-4992-8618-64a775bd4452", "OBJECTID": 9, "Address": "2097 New Market Rd.", "IconType": null, "Description": null}},
{"geometry": {"type": "Point", "coordinates": [-77.3533159, 37.4463065]}, "type": "Feature", "properties": {"GenericField2": null, "City": "Varina", "GenericField1": null, "Name": "Valero Restaurant", "Zip": 23231, "Image": null, "MileMarker": null, "GlobalID": "a970e68e-5528-4639-b5c8-cbab51ddc980", "OBJECTID": 10, "Address": "2650 New Market Rd.", "IconType": null, "Description": null}},
{"geometry": {"type": "Point", "coordinates": [-77.3528689, 37.4442275]}, "type": "Feature", "properties": {"GenericField2": null, "City": "Richmond", "GenericField1": null, "Name": "China Taste", "Zip": 23231, "Image": null, "MileMarker": null, "GlobalID": "3bcec1b0-deb3-417b-a97e-6b1c2488715d", "OBJECTID": 13, "Address": "New Market Square - 2623 New Market Rd", "IconType": null, "Description": "(804)795-9988, http://www.viewmenu.com/china-taste-111/menu?ref=google"}},
{"geometry": {"type": "Point", "coordinates": [-77.352193, 37.4450026]}, "type": "Feature", "properties": {"GenericField2": null, "City": "Richmond", "GenericField1": null, "Name": "Subway", "Zip": 23231, "Image": null, "MileMarker": null, "GlobalID": "bf4d37c0-d407-490f-b888-9358c7372449", "OBJECTID": 14, "Address": "2650 New Market Rd", "IconType": null, "Description": "(804)795-1002, Hours: 6AM-10PM"}},
{"geometry": {"type": "Point", "coordinates": [-76.7648911, 37.2518912]}, "type": "Feature", "properties": {"GenericField2": null, "City": "Williamsburg", "GenericField1": null, "Name": "Starbucks - Governors Green Shopping Center", "Zip": 23185, "Image": null, "MileMarker": null, "GlobalID": "4d0d397e-4cd5-469d-9b28-30504cc6ed08", "OBJECTID": 15, "Address": "4511 John Tyler Hwy", "IconType": null, "Description": "(757)941-1680"}},
{"geometry": {"type": "Point", "coordinates": [-76.7645693, 37.2524848]}, "type": "Feature", "properties": {"GenericField2": null, "City": "Williamsburg", "GenericField1": null, "Name": "McDonald's", "Zip": 23185, "Image": null, "MileMarker": null, "GlobalID": "a3feaf4c-1fdd-4174-95f5-17a5fe969573", "OBJECTID": 17, "Address": "4521 John Tyler Highway", "IconType": null, "Description": "(757)253-2088, Hours: 5AM - 11PM"}},
{"geometry": {"type": "Point", "coordinates": [-76.7660284, 37.251998]}, "type": "Feature", "properties": {"GenericField2": null, "City": "Williamsburg", "GenericField1": null, "Name": "Five Forks Cafe", "Zip": 23185, "Image": "http://williamandmarried.com/wp-content/uploads/2015/12/five-forks-1-660x500.jpg", "MileMarker": null, "GlobalID": "7540eef9-b285-4edf-8fed-3742f31eedaa", "OBJECTID": 18, "Address": "4456 John Tyler Hwy", "IconType": null, "Description": "(757)221-0484, www.fiveforkscafe.com"}},
{"geometry": {"type": "Point", "coordinates": [-76.7648375, 37.2531637]}, "type": "Feature", "properties": {"GenericField2": null, "City": "Williamsburg", "GenericField1": null, "Name": "Two Sisters Pizzeria", "Zip": 23188, "Image": "https://media-cdn.tripadvisor.com/media/photo-s/0b/3f/bc/41/two-sisters-pizzeria.jpg", "MileMarker": null, "GlobalID": "8b0063b0-b148-4102-9a2c-cc156cd2d948", "OBJECTID": 19, "Address": "4506 John Tyler Hwy", "IconType": null, "Description": "(757)258-1600, http://www.viewmenu.com/two-sisters-pizzeria/menu?ref=google"}},
{"geometry": {"type": "Point", "coordinates": [-77.434621, 37.5356399]}, "type": "Feature", "properties": {"GenericField2": null, "City": "Richmond", "GenericField1": null, "Name": "The Tobacco Company", "Zip": 23219, "Image": "http://virginiabloggers.com/wp-content/uploads/2013/01/tobacco-company.jpg", "MileMarker": null, "GlobalID": "f922e570-160f-4c6a-8a32-03641d5db60c", "OBJECTID": 25, "Address": "1201 E Cary St", "IconType": null, "Description": "(804)782-9555, www.thetobaccocompany.com"}},
{"geometry": {"type": "Point", "coordinates": [-77.4341972, 37.535206]}, "type": "Feature", "properties": {"GenericField2": null, "City": "Richmond", "GenericField1": null, "Name": "Bistro Bobette", "Zip": 23219, "Image": "http://shockoedesigndistrict.com/images/uploads/BisBobette(wrongname_in_directory).jpg", "MileMarker": null, "GlobalID": "d75efbb8-0cc1-4b62-86f6-920498d2007b", "OBJECTID": 26, "Address": "1209 E Cary St", "IconType": null, "Description": "(804)225-9116, www.bistrobobette.com"}},
{"geometry": {"type": "Point", "coordinates": [-77.4339397, 37.5357505]}, "type": "Feature", "properties": {"GenericField2": null, "City": "Richmond", "GenericField1": null, "Name": "Sam Miller\u2019s Restaurant & Oyster Bar", "Zip": 23219, "Image": "http://shockoedesigndistrict.com/images/uploads/SamMillers.jpg", "MileMarker": null, "GlobalID": "839ea68d-e6aa-4d49-b6d4-77b7fd647d68", "OBJECTID": 27, "Address": "1210 E Cary St", "IconType": null, "Description": "(804)644-5465, http://www.sammillers.com"}},
{"geometry": {"type": "Point", "coordinates": [-77.4344547, 37.5354102]}, "type": "Feature", "properties": {"GenericField2": null, "City": "Richmond", "GenericField1": null, "Name": "Urban Farmhouse Market & Caf\u00e9", "Zip": 23219, "Image": "http://architecturerichmond.com/wp-content/uploads/2013/06/img_7081.jpg", "MileMarker": null, "GlobalID": "7887f06a-fc51-4053-8532-df52fdc194e4", "OBJECTID": 28, "Address": "1217 E Cary St", "IconType": null, "Description": "(804)325-3988, theurbanfarmhouse.net"}},
{"geometry": {"type": "Point", "coordinates": [-77.4337949, 37.5355718]}, "type": "Feature", "properties": {"GenericField2": null, "City": "Richmond", "GenericField1": null, "Name": "La Grotta Ristorante", "Zip": 23219, "Image": "http://shockoedesigndistrict.com/images/uploads/LaGrotta.jpg", "MileMarker": null, "GlobalID": "c1b3a636-0ca8-4339-88d5-9ab135bc4f15", "OBJECTID": 29, "Address": "1218 E Cary St", "IconType": null, "Description": "(804)644-2466, http://m.mainstreethub.com/lagrottaristorante"}},
{"geometry": {"type": "Point", "coordinates": [-77.4333898, 37.5354461]}, "type": "Feature", "properties": {"GenericField2": null, "City": "Richmond", "GenericField1": null, "Name": "Kobe Japanese Steaks & Sushi", "Zip": 23219, "Image": null, "MileMarker": null, "GlobalID": "571f481a-81bc-41bd-8b8d-a3075c9b9c26", "OBJECTID": 30, "Address": "19 S 13th St", "IconType": null, "Description": "(804)643-8080, www.kobesteaksandsushi.com"}},
{"geometry": {"type": "Point", "coordinates": [-77.4345941, 37.5352207]}, "type": "Feature", "properties": {"GenericField2": null, "City": "Richmond", "GenericField1": null, "Name": "Shockoe Espresso", "Zip": 23219, "Image": "http://shockoedesigndistrict.com/images/uploads/ShockoeEspresso.jpg", "MileMarker": null, "GlobalID": "a0120b8f-aa9a-426f-a5dc-297a75311a70", "OBJECTID": 31, "Address": "104 Shockoe Slip", "IconType": null, "Description": "(804)648-3734, www.millmountaincoffee.com"}},
{"geometry": {"type": "Point", "coordinates": [-77.4335695, 37.5353228]}, "type": "Feature", "properties": {"GenericField2": null, "City": "Richmond", "GenericField1": null, "Name": "Peking Restaurant", "Zip": 23219, "Image": "http://static1.squarespace.com/static/563783ede4b069623e8141d6/t/563ce0d7e4b048c548555705/1446830295538/?format=300w", "MileMarker": null, "GlobalID": "e01bcfb2-e51b-45e0-9326-a760eac16b4c", "OBJECTID": 32, "Address": "1302 E Cary St", "IconType": null, "Description": "(804)649-8888, www.pekingdining.com"}},
{"geometry": {"type": "Point", "coordinates": [-77.4340063, 37.5334593]}, "type": "Feature", "properties": {"GenericField2": null, "City": "Richmond", "GenericField1": null, "Name": "Barrel House", "Zip": 23219, "Image": "http://barrelhouseva.com/wp-content/uploads/photo-gallery/thumb/Barrel%20House%20Patio%204.jpg", "MileMarker": null, "GlobalID": "8920e9a8-1a41-421b-a976-fe3783e10fd8", "OBJECTID": 33, "Address": "140 Virginia St", "IconType": null, "Description": "(804)562-6504, http://barrelhouseva.com"}},
{"geometry": {"type": "Point", "coordinates": [-77.4332419, 37.5352246]}, "type": "Feature", "properties": {"GenericField2": null, "City": "Richmond", "GenericField1": null, "Name": "City Dogs", "Zip": 23219, "Image": "http://shockoedesigndistrict.com/images/uploads/CityDogs.jpg", "MileMarker": null, "GlobalID": "881a0196-79fb-4a10-b6c7-231409d35056", "OBJECTID": 34, "Address": "1316 E Cary St", "IconType": null, "Description": "(804)343-3647, http://www.citydogsrva.com"}},
{"geometry": {"type": "Point", "coordinates": [-77.4327806, 37.5344845]}, "type": "Feature", "properties": {"GenericField2": null, "City": "Richmond", "GenericField1": null, "Name": "Kitchen on Cary", "Zip": 23219, "Image": null, "MileMarker": null, "GlobalID": "918fc7f9-b420-4cc2-8eb0-fc636078c3c9", "OBJECTID": 35, "Address": "1331 E Cary St", "IconType": null, "Description": "(804)643-1315, www.kitchenoncary.com"}},
{"geometry": {"type": "Point", "coordinates": [-77.4328744, 37.534578]}, "type": "Feature", "properties": {"GenericField2": null, "City": "Richmond", "GenericField1": null, "Name": "Sin\u00e9 Irish Pub & Restaurant", "Zip": 23219, "Image": "http://bloximages.newyork1.vip.townnews.com/richmond.com/content/tncms/assets/v3/editorial/1/42/142e98ce-e770-527d-aabc-9cf2e3596208/52cd86c7ec574.image.jpg", "MileMarker": null, "GlobalID": "dd13aa96-4cc0-424c-8a19-9148e8410c05", "OBJECTID": 36, "Address": "1327 E Cary St", "IconType": null, "Description": "(804)649-7767, www.sineirishpub.com"}},
{"geometry": {"type": "Point", "coordinates": [-77.434001, 37.535633]}, "type": "Feature", "properties": {"GenericField2": null, "City": "Richmond", "GenericField1": null, "Name": "Kai", "Zip": 23219, "Image": "http://shockoedesigndistrict.com/images/uploads/Kai(was_Bubbling).JPG", "MileMarker": null, "GlobalID": "d84b0d51-976b-4067-934a-e40156b2ecfe", "OBJECTID": 37, "Address": "1212 E Cary St", "IconType": null, "Description": "(804)644-0565"}},
{"geometry": {"type": "Point", "coordinates": [-77.4322575, 37.534276]}, "type": "Feature", "properties": {"GenericField2": null, "City": "Richmond", "GenericField1": null, "Name": "Torero Tapas Bar & Grill", "Zip": 23219, "Image": "https://media-cdn.tripadvisor.com/media/photo-s/06/c3/32/f1/torero-tapas-bar-grill.jpg", "MileMarker": null, "GlobalID": "83b600a8-6f72-4ad6-8a9c-d6e2473db2c6", "OBJECTID": 38, "Address": "1409 E Cary St", "IconType": null, "Description": "(804)643-0911, www.torerorva.com"}},
{"geometry": {"type": "Point", "coordinates": [-77.4321663, 37.5342037]}, "type": "Feature", "properties": {"GenericField2": null, "City": "Richmond", "GenericField1": null, "Name": "The Hard Shell", "Zip": 23219, "Image": "https://partyrva.com/uploads/listings/107/769_full.jpg?v=1420937977", "MileMarker": null, "GlobalID": "713a546a-9044-4ca6-b298-018fa75a3e0f", "OBJECTID": 39, "Address": "1411 E Cary St", "IconType": null, "Description": "(804)643-2333, www.thehardshell.com"}},
{"geometry": {"type": "Point", "coordinates": [-77.4320269, 37.5340803]}, "type": "Feature", "properties": {"GenericField2": null, "City": "Richmond", "GenericField1": null, "Name": "Cha Cha\u2019s Cantina", "Zip": 23219, "Image": "http://shockoedesigndistrict.com/images/uploads/ChaChas.jpg", "MileMarker": null, "GlobalID": "1f2b7f48-8f62-4cf9-89dd-348ff12fda91", "OBJECTID": 40, "Address": "1419 E Cary St", "IconType": null, "Description": "(804)726-6296, http://www.chachascantina.com"}},
{"geometry": {"type": "Point", "coordinates": [-77.4318016, 37.5338932]}, "type": "Feature", "properties": {"GenericField2": null, "City": "Richmond", "GenericField1": null, "Name": "Society American Bistro", "Zip": 23219, "Image": "http://bloximages.newyork1.vip.townnews.com/richmond.com/content/tncms/assets/v3/editorial/1/4e/14ef0a7e-56ab-11e3-82e2-0019bb30f31a/5294b6fe65091.image.jpg", "MileMarker": null, "GlobalID": "955d3be3-ac04-495d-b655-d96ab7baa5e3", "OBJECTID": 41, "Address": "1421 E Cary St", "IconType": null, "Description": "(804)648-5100"}},
{"geometry": {"type": "Point", "coordinates": [-77.4310559, 37.5335103]}, "type": "Feature", "properties": {"GenericField2": null, "City": "Richmond", "GenericField1": null, "Name": "Buffalo Wild Wings", "Zip": 23219, "Image": "http://virginiabreweries.com/wp-content/uploads/2014/12/BWW-RVA1-450x300.jpg", "MileMarker": null, "GlobalID": "90cbdf89-6009-45b3-bb82-11d1eaef8483", "OBJECTID": 42, "Address": "1501 E Cary St", "IconType": null, "Description": "(804)648-8900, http://www.buffalowildwings.com"}},
{"geometry": {"type": "Point", "coordinates": [-77.4312758, 37.5332933]}, "type": "Feature", "properties": {"GenericField2": null, "City": "Richmond", "GenericField1": null, "Name": "Fish Bowl Bistro & Bar", "Zip": 23219, "Image": "http://shockoedesigndistrict.com/images/uploads/FishBowl.jpg", "MileMarker": null, "GlobalID": "f096b487-0238-40bd-a400-920ce1c4c1c4", "OBJECTID": 43, "Address": "101 S 15th St", "IconType": null, "Description": "(804)562-1438, www.fishbowlrva.com"}},
{"geometry": {"type": "Point", "coordinates": [-77.4331212, 37.5341101]}, "type": "Feature", "properties": {"GenericField2": null, "City": "Richmond", "GenericField1": null, "Name": "Morton\u2019s Steakhouse", "Zip": 23219, "Image": "http://shockoedesigndistrict.com/images/uploads/Mortons.jpg", "MileMarker": null, "GlobalID": "68c6fb7c-8b19-41c0-b7d9-1e87e8c4e632", "OBJECTID": 44, "Address": "111 Virginia St", "IconType": null, "Description": "(804)648-1662, http://mortons.com"}},
{"geometry": {"type": "Point", "coordinates": [-77.4327725, 37.5340208]}, "type": "Feature", "properties": {"GenericField2": null, "City": "Richmond", "GenericField1": null, "Name": "Southern Railway Taphouse", "Zip": 23219, "Image": "http://bloximages.newyork1.vip.townnews.com/richmond.com/content/tncms/assets/v3/editorial/0/9f/09fcc8de-7977-50c1-995d-57b6629d4b7c/52d6b76651c3c.image.jpg", "MileMarker": null, "GlobalID": "55b3d8a2-5c1a-4631-9fbf-137f21e684cc", "OBJECTID": 45, "Address": "111 Virginia St", "IconType": null, "Description": "(804)308-8350, www.srtaphouse.com"}},
{"geometry": {"type": "Point", "coordinates": [-77.4369407, 37.5340165]}, "type": "Feature", "properties": {"GenericField2": null, "City": "Richmond", "GenericField1": null, "Name": "Casa del Barco", "Zip": 23219, "Image": "http://casadelbarco.com/assets/cdb/home-322bd761fe6a6b8f8aa65d71f76e1793.jpg", "MileMarker": null, "GlobalID": "2c918c9e-2ea3-47b7-b5ea-2bf1a7761817", "OBJECTID": 46, "Address": "320 S 12th St", "IconType": null, "Description": "(804)775-2628, www.casadelbarco.com"}},
{"geometry": {"type": "Point", "coordinates": [-77.4315414, 37.5329105]}, "type": "Feature", "properties": {"GenericField2": null, "City": "Richmond", "GenericField1": null, "Name": "7 Hills Brewing Co.", "Zip": 23219, "Image": "http://vabrewpass.com/wp-content/uploads/2015/12/7hills-1.jpg", "MileMarker": null, "GlobalID": "7014fef4-4f44-4b73-aa2a-b882926d8ac1", "OBJECTID": 47, "Address": "115 S 15th St", "IconType": null, "Description": "(804)716-8307, http://www.7hillsbrewingco.com/home.html"}},
{"geometry": {"type": "Point", "coordinates": [-77.4341619, 37.5361435]}, "type": "Feature", "properties": {"GenericField2": null, "City": "Richmond", "GenericField1": null, "Name": "Jo Jo\u2019s Pizza", "Zip": 23219, "Image": "http://s3.amazonaws.com/dresscodefinder/photos/thumb/2096982.jpg?1427943260", "MileMarker": null, "GlobalID": "2c091bb7-d291-4792-8947-c74b5551bc03", "OBJECTID": 48, "Address": "1201 E Main St", "IconType": null, "Description": "(804)225-9600; www.jojosfamouspizza.com"}},
{"geometry": {"type": "Point", "coordinates": [-77.4340278, 37.5360669]}, "type": "Feature", "properties": {"GenericField2": null, "City": "Richmond", "GenericField1": null, "Name": "Citizen Restaurant", "Zip": 23219, "Image": "http://www.citizenrva.com/_/rsrc/1455253430727/home/WebWindow_web_coloradjust.jpg", "MileMarker": null, "GlobalID": "7d326931-7fa0-48db-af45-7fdf5f04d4f7", "OBJECTID": 49, "Address": "1203 E Main St", "IconType": null, "Description": "(804)780-9038, www.citizenrva.com"}},
{"geometry": {"type": "Point", "coordinates": [-77.4336147, 37.5363817]}, "type": "Feature", "properties": {"GenericField2": null, "City": "Richmond", "GenericField1": null, "Name": "Subway", "Zip": 23219, "Image": null, "MileMarker": null, "GlobalID": "15f07cef-fb1e-4484-a842-707c103176f8", "OBJECTID": 50, "Address": "1209 E Main St", "IconType": null, "Description": "(804)864-2992, www.subway.com"}},
{"geometry": {"type": "Point", "coordinates": [-77.4296277, 37.5325489]}, "type": "Feature", "properties": {"GenericField2": null, "City": "Richmond", "GenericField1": null, "Name": "The Canal Club", "Zip": 23219, "Image": "http://rdc.rdcimage.com/partner-images/13899/micrositeimage_321077photo1.jpg", "MileMarker": null, "GlobalID": "a2f2cd67-1ee6-4b1c-91c7-a89e3bf3261d", "OBJECTID": 51, "Address": "1545 E Cary St", "IconType": null, "Description": "(804)643-2582, http://www.thecanalclub.com"}},
{"geometry": {"type": "Point", "coordinates": [-77.4278091, 37.5339315]}, "type": "Feature", "properties": {"GenericField2": null, "City": "Richmond", "GenericField1": null, "Name": "Lulu's Restaurant", "Zip": 23219, "Image": "http://www.foxrichmond.com/sections/community/restaurant_guide/images/LuLuspic.jpg", "MileMarker": null, "GlobalID": "c975bc13-c668-4aef-a3e3-2e7d5e28f62a", "OBJECTID": 52, "Address": "21 N 17th St", "IconType": null, "Description": "(804)343-9771, www.lulusrichmond.com"}},
{"geometry": {"type": "Point", "coordinates": [-77.4288498, 37.5337613]}, "type": "Feature", "properties": {"GenericField2": null, "City": "Richmond", "GenericField1": null, "Name": "Rosie Connolly's Pub", "Zip": 23219, "Image": "https://media-cdn.tripadvisor.com/media/photo-s/03/c4/d7/71/rosie-connolly-s-pub.jpg", "MileMarker": null, "GlobalID": "bf8ab977-3116-4a48-b2bb-34e9a6e7401b", "OBJECTID": 54, "Address": "1548 E Main St", "IconType": null, "Description": "(804)343-1063, www.rosieconnollys.com"}},
{"geometry": {"type": "Point", "coordinates": [-77.428367, 37.534191]}, "type": "Feature", "properties": {"GenericField2": null, "City": "Richmond", "GenericField1": null, "Name": "Havana 59", "Zip": 23219, "Image": "https://c2.staticflickr.com/4/3952/15294139148_1db7d4957c_b.jpg", "MileMarker": null, "GlobalID": "9d8ac20a-0548-4b00-b6b3-e75be61b6948", "OBJECTID": 55, "Address": "16 N 17th St", "IconType": null, "Description": "(804)780-2822, www.havana59.net"}},
{"geometry": {"type": "Point", "coordinates": [-77.4283295, 37.5334721]}, "type": "Feature", "properties": {"GenericField2": null, "City": "Richmond", "GenericField1": null, "Name": "Halligan Bar and Grill", "Zip": 23219, "Image": "http://www.thehalliganbar.com/files/4414/4122/7572/Shockoe_exterior.png", "MileMarker": null, "GlobalID": "834f4218-e4da-40dc-a89a-e1fa62a20d59", "OBJECTID": 56, "Address": "3 N 17th St", "IconType": null, "Description": "(804)447-7981, www.thehalliganbar.com"}},
{"geometry": {"type": "Point", "coordinates": [-77.4282329, 37.5335571]}, "type": "Feature", "properties": {"GenericField2": null, "City": "Richmond", "GenericField1": null, "Name": "River City Diner", "Zip": 23219, "Image": "http://www.capstonecontracting.com/wp-content/uploads/2015/02/17thst-005.jpg", "MileMarker": null, "GlobalID": "47a8b76c-77af-4c46-be6f-7b61c190d0e5", "OBJECTID": 57, "Address": "7 N 17th St", "IconType": null, "Description": "(804)644-9418,www.rivercitydiner.com"}},
{"geometry": {"type": "Point", "coordinates": [-77.4281471, 37.5336252]}, "type": "Feature", "properties": {"GenericField2": null, "City": "Richmond", "GenericField1": null, "Name": "Addis", "Zip": 23219, "Image": "https://media-cdn.tripadvisor.com/media/photo-s/06/22/01/f5/addis-restaurant.jpg", "MileMarker": null, "GlobalID": "0736eb67-3883-446b-8e29-fad5d7e8c90f", "OBJECTID": 58, "Address": "9 N 17th St", "IconType": null, "Description": "(804)308-3649, www.locu.com"}},
{"geometry": {"type": "Point", "coordinates": [-77.4280666, 37.5337188]}, "type": "Feature", "properties": {"GenericField2": null, "City": "Richmond", "GenericField1": null, "Name": "Alex\u2019s Thai Cuisine", "Zip": 23219, "Image": "http://svcdn.simpleviewinc.com/v3/cache/www.visitrichmondva.com/63E31EED89F8AE00A021080E7CB9DFE7.jpg", "MileMarker": null, "GlobalID": "7eeb50b0-4a98-45cc-b16c-628cd568eeb6", "OBJECTID": 59, "Address": "13 N 17th St", "IconType": null, "Description": "(804)343-3934"}},
{"geometry": {"type": "Point", "coordinates": [-77.4280022, 37.5337741]}, "type": "Feature", "properties": {"GenericField2": null, "City": "Richmond", "GenericField1": null, "Name": "C\u2019est Le Vin", "Zip": 23219, "Image": "https://frequensee.files.wordpress.com/2014/05/summer2010-140.jpg", "MileMarker": null, "GlobalID": "2ec4e87c-fb0f-4bbe-ac2f-5c277b85565c", "OBJECTID": 60, "Address": "15 N 17th St", "IconType": null, "Description": "(804)649-9463, www.cestlevinrva.com"}},
{"geometry": {"type": "Point", "coordinates": [-77.4283026, 37.5333742]}, "type": "Feature", "properties": {"GenericField2": null, "City": "Richmond", "GenericField1": null, "Name": "Sweet Teas", "Zip": 23219, "Image": "http://www.richmondbizsense.com/images/Sweet-Teas-exterior.jpg", "MileMarker": null, "GlobalID": "403f5441-8956-4787-ac69-a9b227d3e8b1", "OBJECTID": 61, "Address": "1700 E Main St", "IconType": null, "Description": "(804)225-8252, sweetteascuisine.com"}},
{"geometry": {"type": "Point", "coordinates": [-77.428013, 37.5334083]}, "type": "Feature", "properties": {"GenericField2": null, "City": "Richmond", "GenericField1": null, "Name": "Aqua Lounge", "Zip": 23219, "Image": "http://shockoedesigndistrict.com/images/uploads/Aqua.jpg", "MileMarker": null, "GlobalID": "8dc7ce75-a8f4-4b4c-8be6-6ade907a91e8", "OBJECTID": 62, "Address": "1708 E Main St", "IconType": null, "Description": "(804)303-2091"}},
{"geometry": {"type": "Point", "coordinates": [-77.428249, 37.5331147]}, "type": "Feature", "properties": {"GenericField2": null, "City": "Richmond", "GenericField1": null, "Name": "Sumo San", "Zip": 23219, "Image": "http://www.sumosanrva.com/images/pic1b.jpg", "MileMarker": null, "GlobalID": "e54d574c-f3b6-42d4-8172-92fa75a2d25d", "OBJECTID": 63, "Address": "1725 E Main St", "IconType": null, "Description": "(804)643-6500, http://www.sumosanrva.com"}},
{"geometry": {"type": "Point", "coordinates": [-77.4279003, 37.5329063]}, "type": "Feature", "properties": {"GenericField2": null, "City": "Richmond", "GenericField1": null, "Name": "The Pizza Place", "Zip": 23219, "Image": "http://shockoedesigndistrict.com/images/uploads/The_Pizza_Place.jpg", "MileMarker": null, "GlobalID": "98a2f0fe-3617-4929-a1e7-2f99648815a6", "OBJECTID": 64, "Address": "1731 E Main St", "IconType": null, "Description": "(804)343-1300, www.richmondpizzaplace.com"}},
{"geometry": {"type": "Point", "coordinates": [-77.4277018, 37.5330892]}, "type": "Feature", "properties": {"GenericField2": null, "City": "Richmond", "GenericField1": null, "Name": "Southern Kitchen", "Zip": 23219, "Image": "http://bloximages.newyork1.vip.townnews.com/richmond.com/content/tncms/assets/v3/editorial/9/fe/9feb8996-f1e4-5ad0-8908-7e51db545c7f/56439d7c80d53.image.jpg?resize=760%2C507", "MileMarker": null, "GlobalID": "00385405-c6b3-4c77-a511-67ef7a019778", "OBJECTID": 65, "Address": "1726 E Main St", "IconType": null, "Description": "(804)729-4141, www.southernkitchenrva.com"}},
{"geometry": {"type": "Point", "coordinates": [-77.4280291, 37.5332806]}, "type": "Feature", "properties": {"GenericField2": null, "City": "Richmond", "GenericField1": null, "Name": "Visions Ultra Lounge and Restaurant", "Zip": 23219, "Image": null, "MileMarker": null, "GlobalID": "baad2db4-7259-4b74-a09a-a5e6494ab6d8", "OBJECTID": 66, "Address": "1718 E Main St", "IconType": null, "Description": "(804)658-0903"}},
{"geometry": {"type": "Point", "coordinates": [-77.4275731, 37.5332466]}, "type": "Feature", "properties": {"GenericField2": null, "City": "Richmond", "GenericField1": null, "Name": "TK\u2019s Restaurant", "Zip": 23219, "Image": null, "MileMarker": null, "GlobalID": "8c86e86f-0c50-4509-a517-064a98961be9", "OBJECTID": 67, "Address": "4 N 18th St", "IconType": null, "Description": "(804)225-8828"}},
{"geometry": {"type": "Point", "coordinates": [-77.4274765, 37.5333487]}, "type": "Feature", "properties": {"GenericField2": null, "City": "Richmond", "GenericField1": null, "Name": "McCormack\u2019s Irish Pub", "Zip": 23219, "Image": "https://s3-media3.fl.yelpcdn.com/bphoto/qn6o52-oYg7a9Pj1qGNaPQ/ls.jpg", "MileMarker": null, "GlobalID": "27bd5112-e4e9-4017-bc6f-4a0139fe9a15", "OBJECTID": 68, "Address": "12 N 18th St", "IconType": null, "Description": "(804)648-1003"}},
{"geometry": {"type": "Point", "coordinates": [-77.4275355, 37.5334848]}, "type": "Feature", "properties": {"GenericField2": null, "City": "Richmond", "GenericField1": null, "Name": "Shockoe Whisky and Wine", "Zip": 23219, "Image": "http://static.panoramio.com/photos/large/126528963.jpg", "MileMarker": null, "GlobalID": "42d534cd-bf68-4695-b500-a7c86dca192a", "OBJECTID": 69, "Address": "1721 E Franklin St", "IconType": null, "Description": "(804)771-1711, www.shockoewhiskeyandwine.com"}},
{"geometry": {"type": "Point", "coordinates": [-77.4272083, 37.5335657]}, "type": "Feature", "properties": {"GenericField2": null, "City": "Richmond", "GenericField1": null, "Name": "The Luncheonette", "Zip": 23219, "Image": "http://bloximages.newyork1.vip.townnews.com/richmond.com/content/tncms/assets/v3/editorial/8/73/873f73ed-58b3-5d52-a918-c00eb6766167/50be4038b1f19.image.jpg?resize=300%2C225", "MileMarker": null, "GlobalID": "0d6b692a-94f1-4b40-ae81-3c0b6369d984", "OBJECTID": 70, "Address": "104 N 18th St", "IconType": null, "Description": "(804)643-1640, www.luncheonetterva.com"}},
{"geometry": {"type": "Point", "coordinates": [-77.4268328, 37.5325489]}, "type": "Feature", "properties": {"GenericField2": null, "City": "Richmond", "GenericField1": null, "Name": "Castanea Restaurant", "Zip": 23219, "Image": "http://bloximages.newyork1.vip.townnews.com/richmond.com/content/tncms/assets/v3/editorial/1/3a/13a743f9-f16c-59b7-86f7-853d28b60e35/55e4a7042d14a.image.jpg?resize=300%2C200", "MileMarker": null, "GlobalID": "6a472a17-458b-4115-8980-29bc52f69413", "OBJECTID": 72, "Address": "1814 E Main St", "IconType": null, "Description": "(804)643-2312"}},
{"geometry": {"type": "Point", "coordinates": [-77.4262213, 37.5340889]}, "type": "Feature", "properties": {"GenericField2": null, "City": "Richmond", "GenericField1": null, "Name": "25 Watt Club", "Zip": 23219, "Image": "http://media1.fdncms.com/styleweekly/imager/diamond-hairbrush-bitchmouth-hot-dolphin/u/original/2097328/night30_25_watt.jpg", "MileMarker": null, "GlobalID": "63050347-3e2c-4f83-b63e-fa3f55e9ac70", "OBJECTID": 73, "Address": "115 N 18th St", "IconType": null, "Description": "(804)823-9332, http://www.25wattrva.com"}},
{"geometry": {"type": "Point", "coordinates": [-77.4264948, 37.5337954]}, "type": "Feature", "properties": {"GenericField2": null, "City": "Richmond", "GenericField1": null, "Name": "On the Rox", "Zip": 23219, "Image": "http://shockoedesigndistrict.com/images/uploads/OntheRox.jpg", "MileMarker": null, "GlobalID": "9087e3fb-947d-4118-9dc2-37b573fba1e0", "OBJECTID": 74, "Address": "119 N 18th St", "IconType": null, "Description": "(804)303-9444, http://www.ontheroxva.com"}},
{"geometry": {"type": "Point", "coordinates": [-77.4270581, 37.5333104]}, "type": "Feature", "properties": {"GenericField2": null, "City": "Richmond", "GenericField1": null, "Name": "La Bamba Mexican Restaurant", "Zip": 23219, "Image": "http://shockoedesigndistrict.com/images/uploads/LaBamba_2.jpg", "MileMarker": null, "GlobalID": "8114633c-7f7b-4fee-9a2d-91258b97436b", "OBJECTID": 75, "Address": "19 N 18th St", "IconType": null, "Description": "(804)225-8883, http://labambarichmond.com"}},
{"geometry": {"type": "Point", "coordinates": [-77.4272405, 37.5324256]}, "type": "Feature", "properties": {"GenericField2": null, "City": "Richmond", "GenericField1": null, "Name": "Grace Japanese Noodle & Bar", "Zip": 23219, "Image": "http://www.richmondbizsense.com/images/Grace-Japanese-Noodle-2.jpg", "MileMarker": null, "GlobalID": "730feaad-04a4-45dd-8f3f-6c0e70e51066", "OBJECTID": 77, "Address": "1823 E Main St", "IconType": null, "Description": "(804)855-0495, http://gracenoodlerva.letseat.at"}},
{"geometry": {"type": "Point", "coordinates": [-77.4264948, 37.5323703]}, "type": "Feature", "properties": {"GenericField2": null, "City": "Richmond", "GenericField1": null, "Name": "East Villa Restaurant", "Zip": 23219, "Image": "http://shockoedesigndistrict.com/images/uploads/East_Villa.jpg", "MileMarker": null, "GlobalID": "66c2f297-807c-4c10-82d0-6cd8648e61b9", "OBJECTID": 78, "Address": "1900 E Main St", "IconType": null, "Description": "(804)644-0961,"}},
{"geometry": {"type": "Point", "coordinates": [-77.4256258, 37.5317705]}, "type": "Feature", "properties": {"GenericField2": null, "City": "Richmond", "GenericField1": null, "Name": "Station 2", "Zip": 23219, "Image": "data:image/jpeg;base64,/9j/4AAQSkZJRgABAQAAAQABAAD/2wCEAAkGBxMTEhUTExMVFhUXFx0XFxcYGBsYGBgVFxcaFhcXFxcaHSggHRolHRcVITEhJSkrLi4uFx8zODMtNygtLisBCgoKDg0OGhAQGi0dHyUtLS0tLS0tLS0tLS0tLS0tLS0tLS0tLS0tLS0tLS0tLS0tLS0tLS0tLS0tLS0tLS0tLf/AABEIAQEAxAMBIgACEQEDEQH/xAAcAAAABwEBAAAAAAAAAAAAAAAAAQIDBAUGBwj/xABIEAABAwEFBAYFCQYFAwUAAAABAAIRAwQFEiExQVFhcQYTIoGRoTJSsdHwFBUjQmJyssHhBzNTgpKiJKPC0tOT4uM0Q1Rz8f/EABgBAQEBAQEAAAAAAAAAAAAAAAEAAgME/8QAJBEBAQEAAgICAQQDAAAAAAAAAAERAjESIQNBEyJCUYEyM2H/2gAMAwEAAhEDEQA/AO2dVxd4lDquLvFKBRyoEdVxd4o+r+0UtBSI6v7R8vci6s+s7y9ycQUjfVn1neXuR4D6x8vcloKRGA+sfL3IsB9byCcVT0pcRZnua4tIggj7wH5qRvpXSmy1JIMQdNuILnQZy8P1UirbargQ6o4g6jL3KPiT0AIPDw/VWfRmlNppyQIJdOmYBInPRVeNKbUP1XEcirTjrLXE6OaeQ/VKh29vgfeuYXbejqNRlRxe9rTm3FqCC3Kcts9y6Rdt4067MdJwcNu8Hc4agoR/tbx4H3odrh5paCkR2uHmh2uHmloKRvtfZ80O39nzTiCkb7X2fNDtfZ804gpG+19nzQTiCkaBS8SZxI0k9KNNApxpQBoIIKQIIKpvbpBRoS3EHVAP3Yc0HPTESYA8+CkV0jvB9", "MileMarker": null, "GlobalID": "37bd60ca-d2cb-4dc9-b6de-5418918382e9", "OBJECTID": 79, "Address": "2016 E Main St", "IconType": null, "Description": "(804)249-4702, http://station2richmond.com"}},
{"geometry": {"type": "Point", "coordinates": [-77.4247407, 37.5312387]}, "type": "Feature", "properties": {"GenericField2": null, "City": "Richmond", "GenericField1": null, "Name": "Whisk Bakery", "Zip": 23223, "Image": null, "MileMarker": null, "GlobalID": "c0683c09-f638-47d7-9e63-c46fdfbc1393", "OBJECTID": 80, "Address": "2100 E Main St", "IconType": null, "Description": "(804)728-1576, www.whiskrva.com"}},
{"geometry": {"type": "Point", "coordinates": [-77.4244456, 37.5310643]}, "type": "Feature", "properties": {"GenericField2": null, "City": "Richmond", "GenericField1": null, "Name": "Pizza Tonight", "Zip": 23223, "Image": null, "MileMarker": null, "GlobalID": "805b818e-a5b7-4442-ac37-688f8acc2264", "OBJECTID": 81, "Address": "2110 E Main St", "IconType": null, "Description": "(804)477-3355, www.pizzatonight.com"}},
{"geometry": {"type": "Point", "coordinates": [-77.4233084, 37.529018]}, "type": "Feature", "properties": {"GenericField2": null, "City": "Richmond", "GenericField1": null, "Name": "Old Original Bookbinders", "Zip": 23223, "Image": "http://bookbindersrichmond.com/wp-content/uploads/2014/09/bbhours.jpg", "MileMarker": null, "GlobalID": "9351d308-ef28-426c-8c96-c7a790bd03b5", "OBJECTID": 82, "Address": "2306 E Cary St", "IconType": null, "Description": "(804)643-6900, www.bookbindersrichmond.com"}},
{"geometry": {"type": "Point", "coordinates": [-77.4203418, 37.5282438]}, "type": "Feature", "properties": {"GenericField2": null, "City": "Richmond", "GenericField1": null, "Name": "Millie's Diner", "Zip": 23223, "Image": "http://milliesdiner.com/wp-content/uploads/2011/04/featured1outside.jpg", "MileMarker": null, "GlobalID": "ac866170-481e-4f89-ad1b-94d56aaa459b", "OBJECTID": 83, "Address": "2603 E Main St", "IconType": null, "Description": "(804)643-5512, www.milliesdiner.com"}},
{"geometry": {"type": "Point", "coordinates": [-77.4190866, 37.5278056]}, "type": "Feature", "properties": {"GenericField2": null, "City": "Richmond", "GenericField1": null, "Name": "Poe's Pub", "Zip": 23223, "Image": "http://s3-media3.fl.yelpcdn.com/bphoto/IWFGQonvevwc60DKBCan_A/o.jpg", "MileMarker": null, "GlobalID": "1c30d49d-3556-48fe-a534-e57096b51470", "OBJECTID": 84, "Address": "2706 E Main St", "IconType": null, "Description": "(804)648-2120, www.locu.com"}},
{"geometry": {"type": "Point", "coordinates": [-77.2524952, 37.3463542]}, "type": "Feature", "properties": {"GenericField2": "www.uppershirley.com", "City": "Charles City, VA", "GenericField1": "804-829-9463", "Name": "Upper Shirley Vineyards", "Zip": 23030, "Image": "https://lh3.googleusercontent.com/-1BdK9dz7Z6M/VteiHi4laJI/AAAAAAAAM2w/phegumF8nIM/IMG_6343.jpg?imgmax=800", "MileMarker": null, "GlobalID": "34322067-67ac-44ee-b09b-2924b1a2d9ed", "OBJECTID": 85, "Address": "600 Shirley Plantation Road", "IconType": null, "Description": null}},
{"geometry": {"type": "Point", "coordinates": [-76.9167992, 37.3627402]}, "type": "Feature", "properties": {"GenericField2": null, "City": "Charles City", "GenericField1": null, "Name": "Blue Heron Restaurant", "Zip": 23030, "Image": null, "MileMarker": null, "GlobalID": "8350b32d-9ade-4053-a264-49a33d6eaf60", "OBJECTID": 86, "Address": "9100 Wilcox Neck Rd", "IconType": null, "Description": "(804) 829-9070 http://www.riversrest.com/restaurant.htm"}},
{"geometry": {"type": "Point", "coordinates": [-76.7643669, 37.2518615]}, "type": "Feature", "properties": {"GenericField2": null, "City": "Williamsburg", "GenericField1": null, "Name": "Sushiya", "Zip": 23185, "Image": "http://s3-media2.fl.yelpcdn.com/bphoto/Uqgo67SyvwP5dlZujS3DUg/o.jpg", "MileMarker": null, "GlobalID": "e25a4230-9f61-4a60-ae1c-b7c7732d179c", "OBJECTID": 87, "Address": "4511 John Tyler Hwy", "IconType": null, "Description": "(757) 229-1212, www.sushiya-restaurant.com"}},
{"geometry": {"type": "Point", "coordinates": [-76.7779148, 37.2118772]}, "type": "Feature", "properties": {"GenericField2": null, "City": "Williamsburg", "GenericField1": null, "Name": "Dale House Cafe", "Zip": 23185, "Image": "https://s3-media1.fl.yelpcdn.com/bphoto/osuatsTMeoQtd-cOpviCnQ/ls.jpg", "MileMarker": null, "GlobalID": "cdfff4f9-246f-46eb-b6e0-b12499578b08", "OBJECTID": 88, "Address": "1368 Colonial Pkwy", "IconType": null, "Description": "(757) 229-1170"}},
{"geometry": {"type": "Point", "coordinates": [-76.7615417, 37.2394868]}, "type": "Feature", "properties": {"GenericField2": null, "City": "Williamsburg", "GenericField1": null, "Name": "Carrot Tree Kitchens", "Zip": 23185, "Image": "http://www.carrottreekitchens.com/files/WILLIAMSBURG.jpg", "MileMarker": null, "GlobalID": "c72658fc-ffd5-4b72-8edb-0c8052f9c15b", "OBJECTID": 89, "Address": "1782 Jamestown Rd", "IconType": null, "Description": "(757) 229-0957, www.carrottreekitchens.com"}},
{"geometry": {"type": "Point", "coordinates": [-77.1066838, 37.3316102]}, "type": "Feature", "properties": {"GenericField2": null, "City": "Charles City", "GenericField1": null, "Name": "Paca Pops", "Zip": 23030, "Image": null, "MileMarker": null, "GlobalID": "ad496898-bf70-4c49-b520-b6b22c38af96", "OBJECTID": 1090, "Address": "Corner of Wilcox Wharf & Route 5", "IconType": null, "Description": "Open Noon - 4:00 PM on Sat/Sun - weather permitting"}},
{"geometry": {"type": "Point", "coordinates": [-77.4149125, 37.5169709]}, "type": "Feature", "properties": {"GenericField2": null, "City": "Richmond", "GenericField1": null, "Name": "Urban Farmhouse - Rocketts Landing", "Zip": 23231, "Image": null, "MileMarker": null, "GlobalID": "62b73249-28cf-4914-a3be-dd374d37069b", "OBJECTID": 1091, "Address": "4821 Old Main Street", "IconType": null, "Description": "804-222-4700; Hours: Mon - Fri: 6:30am-9:00pm; Sat: 7am-9:00pm; Sun: 7am-8pm"}},
{"geometry": {"type": "Point", "coordinates": [-76.7205506, 37.2352204]}, "type": "Feature", "properties": {"GenericField2": null, "City": "Williamsburg", "GenericField1": null, "Name": "The Williamsburg Winery", "Zip": 23185, "Image": null, "MileMarker": null, "GlobalID": "e42ec528-471e-404e-a23d-48a25c280761", "OBJECTID": 1092, "Address": "5800 Wessex Hundred", "IconType": null, "Description": "(757) 229-0999; http://williamsburgwinery.com/"}}
]}