{"type":"FeatureCollection","features":[
{"geometry": {"type": "Point", "coordinates": [-77.4032212, 37.4894528]}, "type": "Feature", "properties": {"GenericField2": "Daily 6am - 12am", "City": "Richmond, VA", "GenericField1": "(804) 222-6096", "Name": "7-Eleven", "OBJECTID": 1, "Image": null, "MileMarker": null, "Zip": null, "GlobalID": "412a6e50-e6a8-4421-9fde-6119abb89110", "Address": "1125 New Market Road", "IconType": 1, "ZIPCode": "23231", "Description": "No parking for trail use allowed."}},
{"geometry": {"type": "Point", "coordinates": [-77.4028779, 37.4899295]}, "type": "Feature", "properties": {"GenericField2": "Open 24 hours", "City": "Richmond, VA", "GenericField1": "(804) 222-7767", "Name": "BP", "OBJECTID": 2, "Image": null, "MileMarker": null, "Zip": null, "GlobalID": "0ac44a4d-a903-4b22-b19b-84647ee62ebf", "Address": "1130 New Market Road", "IconType": 1, "ZIPCode": "23231", "Description": ""}},
{"geometry": {"type": "Point", "coordinates": [-77.0623795, 37.3412615]}, "type": "Feature", "properties": {"GenericField2": "Open daily 7am - 9pm.", "City": "Charles City, VA", "GenericField1": "(804) 829-2418", "Name": "Haupt's Country Store", "OBJECTID": 4, "Image": null, "MileMarker": null, "Zip": null, "GlobalID": "1254927e-3f89-41fe-af6b-a4ce6ede9f29", "Address": "11911 John Tyler Memorial Hwy", "IconType": 1, "ZIPCode": "23030", "Description": "Full convenience country store with a deli serving pizza and fried chicken."}},
{"geometry": {"type": "Point", "coordinates": [-76.9641892, 37.3101639]}, "type": "Feature", "properties": {"GenericField2": null, "City": "Charles City, VA", "GenericField1": "(804) 829-2593", "Name": "Sandy Point Superette", "OBJECTID": 5, "Image": null, "MileMarker": null, "Zip": null, "GlobalID": "6bcf1e81-8926-47f6-9921-292d7c4187b8", "Address": "17701 John Tyler Memorial Hwy", "IconType": 1, "ZIPCode": "23030", "Description": ""}},
{"geometry": {"type": "Point", "coordinates": [-76.8748006, 37.2674559]}, "type": "Feature", "properties": {"GenericField2": "Call for seasonal hours", "City": "Willamsburg, VA", "GenericField1": "(757) 603-1114", "Name": "Chickahominy Riverfront Camp Store", "OBJECTID": 7, "Image": null, "MileMarker": null, "Zip": null, "GlobalID": "c2064a86-3679-4571-beca-4412a1657bb4", "Address": "1350 John Tyler Memorial Hwy", "IconType": null, "ZIPCode": "23185", "Description": null}},
{"geometry": {"type": "Point", "coordinates": [-77.3532772, 37.443035]}, "type": "Feature", "properties": {"GenericField2": "Open daily 7am - 11pm", "City": "Richmond, VA", "GenericField1": "(804) 795-6009", "Name": "Food Lion - New Market Square", "OBJECTID": 8, "Image": null, "MileMarker": null, "Zip": null, "GlobalID": "34188ebf-25a0-4672-99b6-604270b13dbb", "Address": "2599 New Market Rd.", "IconType": null, "ZIPCode": "23231", "Description": null}},
{"geometry": {"type": "Point", "coordinates": [-77.3501402, 37.4454206]}, "type": "Feature", "properties": {"GenericField2": "Monday - Saturday 8am - 9pm; Sunday 8am - 8pm", "City": "Richmond, VA", "GenericField1": "(804) 795-5141", "Name": "Rite Aid", "OBJECTID": 10, "Image": null, "MileMarker": null, "Zip": null, "GlobalID": "49704f87-3860-489e-ac5a-2dec45e07516", "Address": "2664 New Market Rd.", "IconType": null, "ZIPCode": "23231", "Description": null}},
{"geometry": {"type": "Point", "coordinates": [-77.3517907, 37.4448876]}, "type": "Feature", "properties": {"GenericField2": "Open Sun - Thurs 6am - 11pm; Fri/Sat 6am - 12am", "City": "Richmond, VA", "GenericField1": "(804) 795-1082", "Name": "Fast Mart", "OBJECTID": 12, "Image": null, "MileMarker": null, "Zip": null, "GlobalID": "d9c41f1b-9f4d-4458-8ed4-3517da8f1fee", "Address": "2650 New Market Rd", "IconType": null, "ZIPCode": "23231", "Description": null}},
{"geometry": {"type": "Point", "coordinates": [-76.7657199, 37.251745]}, "type": "Feature", "properties": {"GenericField2": "Open 24 hours", "City": "Williamsburg, VA", "GenericField1": "(757) 220-0551", "Name": "7-Eleven", "OBJECTID": 14, "Image": null, "MileMarker": null, "Zip": null, "GlobalID": "766545c1-1d66-4928-b693-607691eca46e", "Address": "4455 John Tyler Hwy", "IconType": null, "ZIPCode": "23185", "Description": null}},
{"geometry": {"type": "Point", "coordinates": [-76.7658353, 37.2520663]}, "type": "Feature", "properties": {"GenericField2": "Open daily 7am - 10pm", "City": "Williamsburg, VA", "GenericField1": "(757) 253-6930", "Name": "BP", "OBJECTID": 15, "Image": null, "MileMarker": null, "Zip": null, "GlobalID": "aca237de-10f0-41bf-b1b6-adcb1417e53f", "Address": "4454 John Tyler Hwy", "IconType": null, "ZIPCode": "23185", "Description": null}},
{"geometry": {"type": "Point", "coordinates": [-76.7644888, 37.2519852]}, "type": "Feature", "properties": {"GenericField2": "Open daily 8am - 9pm", "City": "Williamsburg, VA", "GenericField1": "(757) 253-8003", "Name": "Rite Aid", "OBJECTID": 16, "Image": null, "MileMarker": null, "Zip": null, "GlobalID": "0bb1bd77-1e98-462d-a0c6-a6f10ddcc874", "Address": "4511 John Tyler Hwy, Suite K", "IconType": null, "ZIPCode": "23185", "Description": null}}
]}