{"type":"FeatureCollection","features":[
{"geometry": {"type": "Point", "coordinates": [-77.3410663, 37.4624703]}, "type": "Feature", "properties": {"GenericField2": null, "City": "Richmond, VA", "GenericField1": null, "Name": "Dorey Park Picnic Area", "Zip": null, "Image": "", "MileMarker": null, "ZIPCode": "23231", "ATTACH_URL": null, "GlobalID": "99c8c140-6d68-4748-bfa3-0a04000c2ac1", "OBJECTID": 2, "Address": "2999 Darbytown Rd.", "IconType": null, "Description": null}},
{"geometry": {"type": "Point", "coordinates": [-76.8731282, 37.2674466]}, "type": "Feature", "properties": {"GenericField2": null, "City": "Williamsburg, VA", "GenericField1": null, "Name": "Chickahominy Riverfront Park", "Zip": null, "Image": null, "MileMarker": null, "ZIPCode": "23185", "ATTACH_URL": null, "GlobalID": "f3a09514-a0ca-4ab0-9c87-64a09fd157ff", "OBJECTID": 4, "Address": "1350 John Tyler Memorial Hwy", "IconType": null, "Description": "Multiple picnic areas with benches and a firepit"}},
{"geometry": {"type": "Point", "coordinates": [-77.1821388, 37.3303689]}, "type": "Feature", "properties": {"GenericField2": null, "City": "Charles City, VA", "GenericField1": null, "Name": "Herring Creek Trailhead", "Zip": null, "Image": null, "MileMarker": null, "ZIPCode": "23030", "ATTACH_URL": null, "GlobalID": "e3f212ae-3524-4d07-bd59-e3691e38e966", "OBJECTID": 6, "Address": "5100 Herring Creek Road", "IconType": null, "Description": "Two picnic tables"}},
{"geometry": {"type": "Point", "coordinates": [-77.0979711, 37.3178144]}, "type": "Feature", "properties": {"GenericField2": null, "City": "Charles City, VA", "GenericField1": null, "Name": "Lawrence Lewis Jr. Park", "Zip": null, "Image": null, "MileMarker": null, "ZIPCode": "23030", "ATTACH_URL": null, "GlobalID": "0eb027b5-9fb8-4b2d-aa90-c517d40cb35a", "OBJECTID": 7, "Address": "12400 Wilcox Wharf Rd.", "IconType": null, "Description": "Picnic Tables and grills available"}},
{"geometry": {"type": "Point", "coordinates": [-76.7830529, 37.2255431]}, "type": "Feature", "properties": {"GenericField2": null, "City": "Williamsburg, VA", "GenericField1": null, "Name": "Jamestown Settlement", "Zip": 23185, "Image": null, "MileMarker": null, "ZIPCode": "23185", "ATTACH_URL": null, "GlobalID": "f41e406a-2b66-46d9-b94f-52e098a9a346", "OBJECTID": 8, "Address": "2110 Jamestown Rd", "IconType": null, "Description": null}},
{"geometry": {"type": "Point", "coordinates": [-77.1790187, 37.3695152]}, "type": "Feature", "properties": {"GenericField2": null, "City": "Charles City, VA", "GenericField1": null, "Name": "Harrison Park Picnic Area", "Zip": null, "Image": null, "MileMarker": null, "ZIPCode": "23030", "ATTACH_URL": null, "GlobalID": "8418761d-6c55-457d-9ecf-b267ea2a8492", "OBJECTID": 9, "Address": "5201 Harrison Park Rd", "IconType": null, "Description": "Harrison Park is a 19-acre community athletic park with a short bike/jogging trail, a picnic pavilion, two small shelters, two tennis courts, a football/soccer field, a basketball court, a playground, and a tot lot."}}
]}