{"type":"FeatureCollection","features":[
{"geometry": {"type": "Point", "coordinates": [-77.4208924, 37.5261094]}, "type": "Feature", "properties": {"GenericField2": null, "City": "Richmond", "GenericField1": null, "Name": "Bike Repair Station", "Zip": 23223, "Image": null, "MileMarker": null, "ZIPCode": "23223", "ATTACH_URL": null, "GlobalID": "ffa7f9e4-eb1e-4fee-be65-fd8a3098d582", "Hours": null, "OBJECTID": 4, "ZiC": null, "Address": "2803 Dock St", "ZCode": null, "IconType": null, "Description": "Small fix-it station. No bike rentals available."}},
{"geometry": {"type": "Point", "coordinates": [-76.8738666, 37.266307]}, "type": "Feature", "properties": {"GenericField2": null, "City": "Willamsburg", "GenericField1": null, "Name": "Bike Repair Station", "Zip": 23185, "Image": null, "MileMarker": null, "ZIPCode": "23185", "ATTACH_URL": null, "GlobalID": "248ee9ad-e62d-4658-a25a-f031ef570333", "Hours": null, "OBJECTID": 5, "ZiC": null, "Address": "1350 John Tyler Memorial Hwy", "ZCode": null, "IconType": null, "Description": "Small fix-it station. No bike rentals available."}},
{"geometry": {"type": "Point", "coordinates": [-76.7792329, 37.2268795]}, "type": "Feature", "properties": {"GenericField2": "http://www.jamescitycountyva.gov/Facilities/Facili", "City": "Williamsburg", "GenericField1": "(757) 565-3699", "Name": "James City County Marina Bike Rental", "Zip": 23185, "Image": null, "MileMarker": null, "ZIPCode": "23185", "ATTACH_URL": null, "GlobalID": "883d8162-07a5-4e7f-8823-bcaa5d96d99a", "Hours": null, "OBJECTID": 6, "ZiC": null, "Address": "2054 Jamestown Rd", "ZCode": "Open Mon - Thurs 8am - 5pm; Fri - Sun 8am - 6pm", "IconType": 2, "Description": "Bike rentals include 2 hour, 4 hour, and all day rates."}},
{"geometry": {"type": "Point", "coordinates": [-77.4260244, 37.5321161]}, "type": "Feature", "properties": {"GenericField2": "http://rvabikerental.com/", "City": "Richmond, VA", "GenericField1": "(804)648-2453", "Name": "Adventures in RVA", "Zip": 23223, "Image": null, "MileMarker": null, "ZIPCode": "23223", "ATTACH_URL": "http://i.imgur.com/3VcDGNQ.jpg", "GlobalID": "a8d09f61-3551-471d-8afd-202d2dec4808", "Hours": "Open Monday \u2013 Sunday (excluding Thursday) 10am \u2013 6pm", "OBJECTID": 8, "ZiC": null, "Address": "1912 East Main Street", "ZCode": "Open Friday - Monday & Wednesday 10am - 6pm", "IconType": 2, "Description": "Adventures in RVA has rental bikes for every kind of rider! Adventures in RVA rents mountain bikes, touring bikes, tandems, and street bikes by the hour, day or week. We rent bikes to singles, couples, families and groups. Enjoy Richmond\u2019s Capital Trail, cruise Belle Island or tour the city\u2019s attractions. We have a bike to match your need and budget."}},
{"geometry": {"type": "Point", "coordinates": [-77.4265147, 37.5342845]}, "type": "Feature", "properties": {"GenericField2": "https://www.shiftbicycles.com/", "City": "Richmond, VA", "GenericField1": "(804) 309-0134", "Name": "Shift Bicycles", "Zip": 23223, "Image": null, "MileMarker": null, "ZIPCode": "23223", "ATTACH_URL": "http://i.imgur.com/muFqZ4H.png", "GlobalID": "f57c768b-deb9-4443-ae1f-889b7a2e2bfb", "Hours": "Open Monday \u2013 Friday 11am \u2013 5pm (Call for weekend hours)", "OBJECTID": 9, "ZiC": null, "Address": "113 N 18th St", "ZCode": "Monday - Friday 11am - 5pm (Call for weekend hours)", "IconType": null, "Description": "$25 for 3 hours; $35 for up to 24 hours \u2013 Ride the first day, take it to your hotel, ride again the next morning and return by noon. This is THE best bang-for-the-buck. $60 Two full days; $200/week \u2013 There is no finer way to see the city for extended visits. We\u2019ll even give you our favorite \u201cdo-not-miss\u201d rides list. Unlimited expert advice on the best sights, foods, drinks and more are handed over on a silver platter."}},
{"geometry": {"type": "Point", "coordinates": [-77.4185764, 37.5238819]}, "type": "Feature", "properties": {"GenericField2": "https://www.facebook.com/RCCKickstand/", "City": "Richmond, VA", "GenericField1": "(804) 971-7585", "Name": "The Kickstand", "Zip": null, "Image": null, "MileMarker": null, "ZIPCode": "23223", "ATTACH_URL": "http://i.imgur.com/Ws4GrXb.jpg", "GlobalID": "262eb173-ea44-47ba-9efe-37113636efc1", "Hours": "Open Monday \u2013 Friday 7am \u2013 12pm & 4pm \u2013 8pm; Saturday/Sunday 8am \u2013 6pm", "OBJECTID": 10, "ZiC": null, "Address": "3011 Water St", "ZCode": "Monday - Friday 7-12/4-8; Sat/Sun", "IconType": null, "Description": "The Kickstand is much more than the easiest (and coolest) way to get on a bike and enjoy the Virginia Capital Trail. It's also revolutionary social enterprise aimed at providing employment for youth in Richmond's public housing neighborhoods, while raising funds for the nation's premier inner-city youth cycling program."}},
{"geometry": {"type": "Point", "coordinates": [-77.4433715, 37.5450437]}, "type": "Feature", "properties": {"GenericField2": "http://www.kulwheels.com/", "City": "Richmond, VA", "GenericField1": "(804) 968-4856", "Name": "Kul Wheels", "Zip": null, "Image": null, "MileMarker": null, "ZIPCode": "23220", "ATTACH_URL": "http://i.imgur.com/O11rbEY.jpg", "GlobalID": "32161023-f628-4269-81fa-8391278a9f6d", "Hours": "Open daily 9am \u2013 5pm", "OBJECTID": 11, "ZiC": null, "Address": "9 W Grace St", "ZCode": "Monday - Sunday 9am - 5pm", "IconType": null, "Description": "Kul Wheels provides fun electric bike tours and rentals through everyone\u2019s favorite river city and along the Virginia Capital Trail. Explore the city and the trail in a new way and learn why electric bikes can be such a blast."}},
{"geometry": {"type": "Point", "coordinates": [-76.7411422, 37.2764472]}, "type": "Feature", "properties": {"GenericField2": "http://contebikes.com/about/williamsburg-va-pg243.", "City": "Williamsburg, VA", "GenericField1": "(757) 903-0702", "Name": "Conte's Bike Shop", "Zip": null, "Image": null, "MileMarker": null, "ZIPCode": "23188", "ATTACH_URL": "http://i.imgur.com/f31CJmt.png", "GlobalID": "ce2b307c-523c-4e95-b1e3-325f6e804293", "Hours": "Open Monday \u2013 Friday 10am \u2013 7pm; Saturday 10am -6pm; Sunday 12pm \u2013 5pm", "OBJECTID": 12, "ZiC": null, "Address": "5212 Monticello Ave", "ZCode": "Monday - Friday 10am - 7pm; Saturday 10am - 6pm; Sunday 12pm - 5pm", "IconType": null, "Description": "We are proud to offer you both bicycles and accessories from prominent brands such as Giant/Liv, Cannondale, Specialized, Electra and more. Having a hard time deciding between them all? Come in and visit with our crew at Williamsburg, and we will point you in the right direction. Great experiences and beautiful bikes are what we provide, every day."}},
{"geometry": {"type": "Point", "coordinates": [-77.3989979, 37.5340395]}, "type": "Feature", "properties": {"GenericField2": "http://www.richmondrides.net/", "City": "Richmond, VA", "GenericField1": "(804) 893-5065", "Name": "Richmond Rides", "Zip": null, "Image": null, "MileMarker": null, "ZIPCode": "23223", "ATTACH_URL": "http://i.imgur.com/JFm0gGt.jpg", "GlobalID": "6b2ca905-53f4-45f0-831a-22327dbd5a9f", "Hours": "See Website", "OBJECTID": 13, "ZiC": null, "Address": "1507 Oakwood Ave", "ZCode": null, "IconType": null, "Description": "Bike tours that include: Church hill signature tour, Foodie tour, Richmond Highlights, and Along the River. Book online!"}},
{"geometry": {"type": "Point", "coordinates": [-77.4494438, 37.5504434]}, "type": "Feature", "properties": {"GenericField2": "http://www.balance-bicycle.com/", "City": "Richmond, VA", "GenericField1": "(804) 918-1175", "Name": "Balance Bicycle Shop", "Zip": null, "Image": null, "MileMarker": null, "ZIPCode": "23220", "ATTACH_URL": "http://i.imgur.com/FGq4RUp.png", "GlobalID": "2eca45ca-6133-441b-bfed-0dcc60b67e55", "Hours": "Open Monday \u2013 Friday 11am \u2013 7pm; Saturday \u2013 Sunday 11am \u2013 4pm", "OBJECTID": 14, "ZiC": null, "Address": "904 West Broad St", "ZCode": null, "IconType": null, "Description": "Balance Bicycle Shop is located near VCU in the heart of downtown Richmond, VA. They carry bicycle components, accessories, new bikes, and offer the best service and repair to keep you going strong."}},
{"geometry": {"type": "Point", "coordinates": [-77.4195662, 37.5347267]}, "type": "Feature", "properties": {"GenericField2": "https://cyclusbikeshop.com/", "City": "Richmond, VA", "GenericField1": "(804) 644-0860", "Name": "Cyclus Bike Shop", "Zip": null, "Image": null, "MileMarker": null, "ZIPCode": "23223", "ATTACH_URL": "http://i.imgur.com/RBovKtc.jpg", "GlobalID": "a3e8627a-1a78-4b50-a12c-cc41853945d7", "Hours": "Tu - Fri 11am - 6pm; Sat 11am - 5pm", "OBJECTID": 15, "ZiC": null, "Address": "2225 East Clay St", "ZCode": null, "IconType": null, "Description": "Since 2008 our goal has been to promote the bicycle as economically and efficiently as possible. We hope to accommodate comfort riders, touring buffs, BMX bros, fixie fanatics and anybody else who loves the familiar feeling of pushing pedals."}},
{"geometry": {"type": "Point", "coordinates": [-76.7235944, 37.2808171]}, "type": "Feature", "properties": {"GenericField2": "http://www.bikewilliamsburg.com/home", "City": "Williamsburg, VA", "GenericField1": "(757) 229-4620", "Name": "Bikes Unlimited", "Zip": null, "Image": null, "MileMarker": null, "ZIPCode": "23185", "ATTACH_URL": "http://i.imgur.com/ocETjnF.jpg", "GlobalID": "bbb135fa-8fe8-4be6-8253-4bd044c52cbf", "Hours": "Open Tuesday \u2013 Friday 10am \u2013 6pm; Saturday 10am \u2013 5pm; Sunday 12pm \u2013 4pm", "OBJECTID": 16, "ZiC": null, "Address": "230 Monticello Avenue", "ZCode": null, "IconType": null, "Description": "We are proud to be an\u00a0independent\u00a0bicycle dealer (IBD). We're not a manufacturer's concept store nor a franchise.\u00a0With your help, we decide what\u00a0 the best products are and provide the most bang for our valued customers' dollar. We strive to provide the most eclectic selection of bikes, clothing and accessories in Williamsburg, with products you may not find elsewhere. If you would like to see us carry a product, we always welcome suggestions."}},
{"geometry": {"type": "Point", "coordinates": [-76.7590533, 37.2717143]}, "type": "Feature", "properties": {"GenericField2": "http://bikebeatonline.com/", "City": "Williamsburg, VA", "GenericField1": "(757) 229-0096", "Name": "BikeBeat", "Zip": null, "Image": null, "MileMarker": null, "ZIPCode": "23185", "ATTACH_URL": "http://i.imgur.com/IeZcg3z.jpg", "GlobalID": "d84d9bea-397e-46f5-ab37-71560ac11e27", "Hours": "Open Monday \u2013 Friday 10am \u2013 7pm; Saturday 10am \u2013 5pm; Sunday 1pm \u2013 5pm", "OBJECTID": 18, "ZiC": null, "Address": "4640 Monticello Avenue", "ZCode": null, "IconType": null, "Description": "BikeBeat\u00a0is committed to building a more bicycle friendly environment, providing our community with quality cycling products, unyielding customer service, and a passion for bicycling's abundant opportunities."}}
]}