{"type":"FeatureCollection","features":[
{"geometry": {"type": "Point", "coordinates": [-77.4293392, 37.5323211]}, "type": "Feature", "properties": {"GenericField2": "Opens daily at 11am", "City": "Richmond, VA", "GenericField1": "(804) 644-4400", "Name": "Bottoms Up Pizza", "Zip": 23223, "Picture": null, "Image": null, "MileMarker": null, "ZipCode": "23223", "ATTACH_URL": null, "GlobalID": "4642a274-898a-4793-91d4-665a6c1b1686", "OBJECTID": 2, "Address": "1700 Dock St.", "IconType": null, "Website": "http://www.bottomsuppizza.com", "Description": "Longtime go-to for elevated pizza & burgers in a busy, brick-walled space with an enclosed patio."}},
{"geometry": {"type": "Point", "coordinates": [-77.4161535, 37.518175]}, "type": "Feature", "properties": {"GenericField2": "Hours vary by day - see website for full schedule", "City": "Richmond, VA", "GenericField1": "(804) 622-2628", "Name": "The Boathouse", "Zip": 23231, "Picture": null, "Image": null, "MileMarker": null, "ZipCode": "23231", "ATTACH_URL": "http://i.imgur.com/lMK9K6D.jpg", "GlobalID": "9df78b5a-ff34-4145-a98a-fb1fa9143047", "OBJECTID": 3, "Address": "4708 Old Main St.", "IconType": null, "Website": "https://www.boathouseva.com/", "Description": "Dinner with a spectacular view of the river"}},
{"geometry": {"type": "Point", "coordinates": [-77.4160623, 37.5176134]}, "type": "Feature", "properties": {"GenericField2": "Opens daily at 11:30am", "City": "Richmond, VA", "GenericField1": "(804) 226-6242", "Name": "Conch Republic", "Zip": 23231, "Picture": null, "Image": null, "MileMarker": null, "ZipCode": "23231", "ATTACH_URL": "http://i.imgur.com/1zSr2Q8.jpg", "GlobalID": "87d005d0-80fe-49a0-bf8f-c12844042d8f", "OBJECTID": 4, "Address": "11 Orleans St.", "IconType": null, "Website": "http://conchrepublicrocketts.com/", "Description": "Conch Republic Rocketts, a Key West inspired waterfront restaurant, is just minutes from downtown Richmond but miles from the day to day. Our\u00a0menu features Island and Cajun inspired dishes including crowd pleasing appetizers, mouthwatering entrees, Key Lime Pie and other homemade desserts, and an extensive island drink list. Our 6,000 square foot floorplan has indoor and outdoor seating, Tiki Lounge and open-air bar. The\u00a0view\u00a0offers a stunning cityscape: boats in the Rocketts Landing marina, wildlife including bald eagles and herons, and stunning sunsets."}},
{"geometry": {"type": "Point", "coordinates": [-77.3301324, 37.4338007]}, "type": "Feature", "properties": {"GenericField2": "Open Monday \u2013 Sunday 10am \u2013 10pm", "City": "Richmond, VA", "GenericField1": "(804) 795-4957", "Name": "Exxon Station/Dairy Queen", "Zip": 23231, "Picture": null, "Image": null, "MileMarker": null, "ZipCode": "23231", "ATTACH_URL": null, "GlobalID": "5a6c7826-c5fe-4e17-b1aa-294e90eea4da", "OBJECTID": 5, "Address": "3275 New Market Rd.", "IconType": null, "Website": null, "Description": null}},
{"geometry": {"type": "Point", "coordinates": [-77.0732518, 37.3420001]}, "type": "Feature", "properties": {"GenericField2": "Open Monday \u2013 Sunday 11am \u2013 9pm", "City": "Charles City, VA", "GenericField1": "(804) 829-2205", "Name": "Cul's Courthouse Grille", "Zip": 23030, "Picture": null, "Image": null, "MileMarker": null, "ZipCode": "23030", "ATTACH_URL": null, "GlobalID": "60630882-db63-49cb-a5be-2d99aa2c49fa", "OBJECTID": 6, "Address": "10801 Courthouse Rd.", "IconType": null, "Website": "http://www.culscourthousegrille.com/", "Description": "1872- The Nance-Major Store was built by Julia Nance-Major and Edward Major. The house and store face south across Courthouse Road toward the circa 1750 Charles City Courthouse. The general store provided dry goods, sundries, agricultural supplies, and tools that were necessary to support the local agricultural economy.  In 2009 the store was rennovated and became Cul's Courthouse Grille serving a Southern Cuisine, including many healthy options."}},
{"geometry": {"type": "Point", "coordinates": [-76.7835465, 37.2255004]}, "type": "Feature", "properties": {"GenericField2": "Open daily 9am - 5pm.", "City": "Williamsburg, VA", "GenericField1": "(757) 253-2571", "Name": "Jamestown Settlement Cafe", "Zip": 23185, "Picture": "http://i.imgur.com/mB7GKIU.jpg", "Image": null, "MileMarker": null, "ZipCode": "23185", "ATTACH_URL": "http://i.imgur.com/mB7GKIU.jpg", "GlobalID": "19875223-2af4-49a8-9aa7-d4f06f92d15a", "OBJECTID": 7, "Address": "1760 Jamestown Rd.", "IconType": null, "Website": null, "Description": "No reservations needed.  Located inside the Settlement building."}},
{"geometry": {"type": "Point", "coordinates": [-77.3710334, 37.4541377]}, "type": "Feature", "properties": {"GenericField2": "Open Tuesday \u2013 Saturday 11 \u2013 9pm Sunday \u2013 11 \u2013 6", "City": "Richmond, VA", "GenericField1": "(804) 507-1575", "Name": "Ronnie's BBQ", "Zip": 23231, "Picture": "http://i.imgur.com/5vbCt35.jpg", "Image": null, "MileMarker": null, "ZipCode": "23231", "ATTACH_URL": "http://i.imgur.com/5vbCt35.jpg", "GlobalID": "ef69380c-9870-4992-8618-64a775bd4452", "OBJECTID": 9, "Address": "2097 New Market Rd.", "IconType": null, "Website": "http://ronniesbbq.com/", "Description": "Ronnie\u2019s BBQ strives to bring you the best in Southern-Style Barbeque and deliver you an experience that you will never forget. Our mission is to provide great food and superior customer service. Customer satisfaction is our paramount objective"}},
{"geometry": {"type": "Point", "coordinates": [-77.3528689, 37.4442275]}, "type": "Feature", "properties": {"GenericField2": "(804) 795-9988", "City": "Richmond, VA", "GenericField1": null, "Name": "China Taste", "Zip": 23231, "Picture": null, "Image": null, "MileMarker": null, "ZipCode": "23231", "ATTACH_URL": null, "GlobalID": "3bcec1b0-deb3-417b-a97e-6b1c2488715d", "OBJECTID": 13, "Address": "New Market Square - 2623 New Market Rd", "IconType": null, "Website": "http://www.viewmenu.com/china-taste-111/menu?ref=google", "Description": null}},
{"geometry": {"type": "Point", "coordinates": [-77.352193, 37.4450026]}, "type": "Feature", "properties": {"GenericField2": "Open daily 6am - 10pm", "City": "Richmond, VA", "GenericField1": "(804) 795-1002", "Name": "Subway", "Zip": 23231, "Picture": null, "Image": null, "MileMarker": null, "ZipCode": "23231", "ATTACH_URL": null, "GlobalID": "bf4d37c0-d407-490f-b888-9358c7372449", "OBJECTID": 14, "Address": "2650 New Market Rd", "IconType": null, "Website": null, "Description": null}},
{"geometry": {"type": "Point", "coordinates": [-76.7641455, 37.2513703]}, "type": "Feature", "properties": {"GenericField2": "Open daily 6am - 8pm", "City": "Williamsburg, VA", "GenericField1": "(757) 941-1680", "Name": "Starbucks - Governors Green Shopping Center", "Zip": 23185, "Picture": null, "Image": null, "MileMarker": null, "ZipCode": "23185", "ATTACH_URL": null, "GlobalID": "4d0d397e-4cd5-469d-9b28-30504cc6ed08", "OBJECTID": 15, "Address": "4511 John Tyler Hwy", "IconType": null, "Website": "https://www.starbucks.com/", "Description": "Seattle-based coffeehouse chain known for its signature roasts, light bites and WiFi availability."}},
{"geometry": {"type": "Point", "coordinates": [-76.7641777, 37.2523609]}, "type": "Feature", "properties": {"GenericField2": "Sun - Th 5:30am - 11pm; Fri/Sat 5:30am - 11:30 pm", "City": "Williamsburg, VA", "GenericField1": "(757) 253-2088", "Name": "McDonald's", "Zip": 23185, "Picture": null, "Image": null, "MileMarker": null, "ZipCode": "23185", "ATTACH_URL": null, "GlobalID": "a3feaf4c-1fdd-4174-95f5-17a5fe969573", "OBJECTID": 17, "Address": "4521 John Tyler Highway", "IconType": null, "Website": "https://www.mcdonalds.com/us/en-us.html", "Description": "Open daily 5am - 11pm"}},
{"geometry": {"type": "Point", "coordinates": [-76.7660284, 37.251998]}, "type": "Feature", "properties": {"GenericField2": "Tu - Sat 7am - 9pm; Sun 7am - 3pm; Closed Mon", "City": "Williamsburg, VA", "GenericField1": "(757) 221-0484", "Name": "Five Forks Cafe", "Zip": 23185, "Picture": null, "Image": null, "MileMarker": null, "ZipCode": "23185", "ATTACH_URL": "http://i.imgur.com/DCqCWLx.jpg", "GlobalID": "7540eef9-b285-4edf-8fed-3742f31eedaa", "OBJECTID": 18, "Address": "4456 John Tyler Hwy", "IconType": null, "Website": "http://www.fiveforkscafe.com", "Description": "Roadside eatery with a down-to-earth feel dishes up classic diner fare for breakfast & lunch."}},
{"geometry": {"type": "Point", "coordinates": [-76.7646658, 37.2531039]}, "type": "Feature", "properties": {"GenericField2": "Open daily 10am - 10pm", "City": "Williamsburg, VA", "GenericField1": "(757) 258-1600", "Name": "Two Sisters Pizzeria", "Zip": 23188, "Picture": null, "Image": null, "MileMarker": null, "ZipCode": "23188", "ATTACH_URL": "http://i.imgur.com/T5FyNY9.jpg", "GlobalID": "8b0063b0-b148-4102-9a2c-cc156cd2d948", "OBJECTID": 19, "Address": "4506 John Tyler Hwy", "IconType": null, "Website": "http://www.viewmenu.com/two-sisters-pizzeria/menu?ref=google", "Description": null}},
{"geometry": {"type": "Point", "coordinates": [-77.4328197, 37.5339136]}, "type": "Feature", "properties": {"GenericField2": "Varies by day - See website for full schedule", "City": "Richmond, VA", "GenericField1": "(804) 308-8350", "Name": "Southern Railway Taphouse", "Zip": 23219, "Picture": null, "Image": null, "MileMarker": null, "ZipCode": "23219", "ATTACH_URL": "http://i.imgur.com/JAsURhE.jpg", "GlobalID": "ecb2c386-c20e-4dff-bc8a-6bab2082083e", "OBJECTID": 24, "Address": "111 Virginia Street, #100", "IconType": null, "Website": "http://www.srtaphouse.com", "Description": "Clubby gastropub presenting a long list of craft beers, American eats & live music."}},
{"geometry": {"type": "Point", "coordinates": [-76.7346289, 37.252757]}, "type": "Feature", "properties": {"GenericField2": "Open daily 8am-6pm", "City": "Williamsburg, VA", "GenericField1": "(757) 229-0957", "Name": "Carrot Tree Kitchens", "Zip": 23185, "Picture": null, "Image": null, "MileMarker": null, "ZipCode": "23185", "ATTACH_URL": "http://i.imgur.com/5PvQ5oN.jpg", "GlobalID": "6bbc9dd5-09bd-4e61-a574-6fc0795e36ea", "OBJECTID": 25, "Address": "1303 Jamestown Rd #135", "IconType": null, "Website": "http://www.carrottreekitchens.com", "Description": "Popular mainstay serving homemade baked goods & classic breakfast/lunch dishes in a simple interior."}},
{"geometry": {"type": "Point", "coordinates": [-76.7800333, 37.209174]}, "type": "Feature", "properties": {"GenericField2": "Open daily 11am-5pm", "City": "Williamsburg, VA", "GenericField1": "(757) 229-1170", "Name": "Dale House Caf\u00e9", "Zip": 23185, "Picture": null, "Image": null, "MileMarker": null, "ZipCode": "23185", "ATTACH_URL": "http://i.imgur.com/zLFLsw8.jpg", "GlobalID": "90004354-be6c-405e-b9c3-bded19ea6e6d", "OBJECTID": 26, "Address": "1368 Colonial Pkwy", "IconType": null, "Website": "http://historicjamestowne.org/visit/plan-your-visit/cafe/", "Description": "Carrot Tree Kitchens at The Dale House Caf\u00e9 is one of the few places to have lunch on the shores of the James River in the Williamsburg area. The fare includes homemade BBQ and light sandwiches along with a variety of soups, salads, and desserts."}},
{"geometry": {"type": "Point", "coordinates": [-76.7634412, 37.2390194]}, "type": "Feature", "properties": {"GenericField2": "Mon-Sat 9am-9pm; Sun 10am-9pm", "City": "Williamsburg, VA", "GenericField1": "(757) 229-7775", "Name": "Jamestown Pie Company", "Zip": 23185, "Picture": null, "Image": null, "MileMarker": null, "ZipCode": "23185", "ATTACH_URL": "http://i.imgur.com/AFrRUnU.jpg", "GlobalID": "108bbb30-70c7-432e-a645-d2409e3f33a1", "OBJECTID": 27, "Address": "1804 Jamestown Rd", "IconType": null, "Website": "http://www.buyapie.com/ourmenu.html", "Description": "The Original Jamestown Pie Company in Williamsburg was founded in 2004. Our menu features gourmet pizzas, pot pies, sandwiches, salad and dessert pies. Join us for lunch or dinner take-out or have a fun outdoor picnic in our front yard. We welcome advanced orders and carry-out."}},
{"geometry": {"type": "Point", "coordinates": [-76.762422, 37.2391432]}, "type": "Feature", "properties": {"GenericField2": "Mon-Th 11am-9pm; Fri-Sat 11am-10pm; Sun 12pm-8pm", "City": "Williamsburg, VA", "GenericField1": "(757) 220-3840", "Name": "Istanbul Restaurant", "Zip": 23185, "Picture": null, "Image": null, "MileMarker": null, "ZipCode": "23185", "ATTACH_URL": "http://i.imgur.com/aRSG5DV.jpg", "GlobalID": "325ad064-a2bb-453a-89de-6c703499834c", "OBJECTID": 28, "Address": "1784 Jamestown Rd", "IconType": null, "Website": "http://www.istanbulrestaurantva.com", "Description": "Own and operate by Jamestown pie company family. Our goal is to bring our community great service, support, love, unique and best ethnic food experience \u2026."}},
{"geometry": {"type": "Point", "coordinates": [-76.7619807, 37.2390957]}, "type": "Feature", "properties": {"GenericField2": "Mon-Sat 11am-8pm; Sun 11am-4pm", "City": "Williamsburg, VA", "GenericField1": "(757) 585-9354", "Name": "Toby's Dog House", "Zip": 23185, "Picture": null, "Image": null, "MileMarker": null, "ZipCode": "23185", "ATTACH_URL": "http://i.imgur.com/n4i657W.jpg", "GlobalID": "25bde2ed-f00c-4aef-8c7a-209d85acb59c", "OBJECTID": 29, "Address": "1782 Jamestown Rd", "IconType": null, "Website": "http://www.visitwilliamsburg.com/restaurants/tobys-dog-house", "Description": "Toby's Dog House is a hot dog and barbecue lunch spot near Jamestown. The dog theme goes beyond the menu and is included in the decor with a dog theme throughout the restaurant. Their menu includes hot dogs themed after dog breeds such as \"The German Shepherd\" being topped with sauerkraut. Hot dogs are $5 or less and sides, beer and desserts are also available. Dogs are welcome on the back porch and green space behind the restaurant."}},
{"geometry": {"type": "Point", "coordinates": [-77.4370475, 37.5340939]}, "type": "Feature", "properties": {"GenericField2": "See Website", "City": "Richmond, VA", "GenericField1": "(804) 775-2628", "Name": "Casa del Barco", "Zip": null, "Picture": "http://i.imgur.com/4o8hGIi.jpg", "Image": null, "MileMarker": null, "ZipCode": "23219", "ATTACH_URL": "http://i.imgur.com/4o8hGIi.jpg", "GlobalID": "ef433c38-ef18-43f8-8968-f8c790370ffa", "OBJECTID": 30, "Address": "320 S 12th St", "IconType": null, "Website": "http://www.casadelbarcova.com", "Description": "Residing in the restored Italianate Building at The Locks on the historic Canal Walk (formerly the Reynolds North Plant), Casa Del Barco is Richmond's singular destination for authentic Mexican cuisine."}},
{"geometry": {"type": "Point", "coordinates": [-77.433849, 37.5365005]}, "type": "Feature", "properties": {"GenericField2": "Mon-Fri 9am-5pm", "City": "Richmond, VA", "GenericField1": "(804) 225-9600", "Name": "Jo-Jo's Pizza", "Zip": null, "Picture": null, "Image": null, "MileMarker": null, "ZipCode": "23219", "ATTACH_URL": "http://i.imgur.com/lqBTI8d.jpg", "GlobalID": "99f4f412-0dbe-4186-a123-b7ac99ddd2f4", "OBJECTID": 34, "Address": "1201 E Main St,", "IconType": null, "Website": "http://www.jojosfamouspizza.com", "Description": "Window-filled, counter-serve pizzeria serving New York-style pies & slices along with salads & subs."}},
{"geometry": {"type": "Point", "coordinates": [-77.4337698, 37.5364463]}, "type": "Feature", "properties": {"GenericField2": "See website", "City": "Richmond, VA", "GenericField1": "(804) 780-9038", "Name": "Citizen", "Zip": null, "Picture": null, "Image": null, "MileMarker": null, "ZipCode": "23219", "ATTACH_URL": null, "GlobalID": "338cc4f6-b48e-47cf-b972-645a44d693be", "OBJECTID": 36, "Address": "1203 E Main St", "IconType": null, "Website": "http://www.citizenrva.com/", "Description": "Pint-sized place with pressed sandwiches, salads & breakfasts made with area-sourced ingredients."}},
{"geometry": {"type": "Point", "coordinates": [-77.4345919, 37.5356732]}, "type": "Feature", "properties": {"GenericField2": "See website", "City": "Richmond, VA", "GenericField1": "(804) 782-9555", "Name": "The Tobacco Company", "Zip": null, "Picture": null, "Image": null, "MileMarker": null, "ZipCode": "23219", "ATTACH_URL": "http://i.imgur.com/Bz8Sd8H.jpg", "GlobalID": "4c8775fb-09f8-42ca-83fb-45ada1f072a2", "OBJECTID": 37, "Address": "1201 E Cary St", "IconType": null, "Website": "http://thetobaccocompany.com", "Description": "Former tobacco warehouse, now a 3-story leafy, brassy, antiques-filled setting for American fare."}},
{"geometry": {"type": "Point", "coordinates": [-77.4339643, 37.5353031]}, "type": "Feature", "properties": {"GenericField2": "Mon-Fri 6:30am-8pm; Sat 7am-9pm; Sun 7am-8pm", "City": "Richmond, VA", "GenericField1": "(804) 325-3988", "Name": "Urban Farmhouse Market and Cafe", "Zip": null, "Picture": null, "Image": null, "MileMarker": null, "ZipCode": "23219", "ATTACH_URL": "http://i.imgur.com/hWhnyMm.jpg", "GlobalID": "8df5facf-19c3-4bf9-af45-97a9224a2768", "OBJECTID": 38, "Address": "1217 E Cary St", "IconType": null, "Website": "http://www.theurbanfarmhouse.net", "Description": "Fresh roasts & local, organic brunch fare in a sunny cafe with high-ceilings & cushy armchairs."}},
{"geometry": {"type": "Point", "coordinates": [-77.4342768, 37.5350723]}, "type": "Feature", "properties": {"GenericField2": "Mon-Fri 6:30am-7pm; Sat 8am-7pm; Sun 8am-6pm", "City": "Richmond, VA", "GenericField1": "(804) 648-3734", "Name": "Shockoe Espresso and Roastery", "Zip": null, "Picture": null, "Image": null, "MileMarker": null, "ZipCode": "23219", "ATTACH_URL": "http://i.imgur.com/Iwy5SsK.jpg", "GlobalID": "498cdd2d-1471-4d22-a96f-a611aac6a767", "OBJECTID": 40, "Address": "104 Shockoe Slip", "IconType": null, "Website": "http://www.millmountaincoffee.com", "Description": "Mill Mountain Coffee's love to the capitol of our great state! Located in the heart of Downtown Richmond, we serve coffee, tea, baked goods, and fresh breakfast and lunches."}},
{"geometry": {"type": "Point", "coordinates": [-77.4341896, 37.5354371]}, "type": "Feature", "properties": {"GenericField2": "Mon-Thurs 11am-10pm; Fri 11am-2am; Sat 11:30am-2am", "City": "Richmond, VA", "GenericField1": "(804) 644-5465", "Name": "Sam Miller's", "Zip": null, "Picture": null, "Image": null, "MileMarker": null, "ZipCode": "23219", "ATTACH_URL": "http://i.imgur.com/x8jNw9J.jpg", "GlobalID": "c7eff1ca-166c-4cda-b1d7-11eca59f6c73", "OBJECTID": 41, "Address": "1210 E Cary St", "IconType": null, "Website": "https://www.sammillers.com/", "Description": "Upscale seafood & steaks in a classic Shockoe Slip setting with brick walls & white tablecloths."}},
{"geometry": {"type": "Point", "coordinates": [-77.4333595, 37.5355572]}, "type": "Feature", "properties": {"GenericField2": "See website", "City": "Richmond, VA", "GenericField1": "(804) 643-8080", "Name": "Kobe Japanese Steak and Sushi", "Zip": null, "Picture": null, "Image": null, "MileMarker": null, "ZipCode": "23219", "ATTACH_URL": "http://i.imgur.com/nJK1CGE.jpg", "GlobalID": "07315f52-c82a-4583-8bf0-96186cebc4d6", "OBJECTID": 42, "Address": "19 S 13th St", "IconType": null, "Website": "http://www.kobesteaksandsushi.com", "Description": "Hibachi downstairs, sushi upstairs & sake bombs all around at this chic, lively Japanese eatery."}},
{"geometry": {"type": "Point", "coordinates": [-77.4335177, 37.5353382]}, "type": "Feature", "properties": {"GenericField2": "See website", "City": "Richmond, VA", "GenericField1": "(804) 649-8888", "Name": "Peking Restaurant", "Zip": null, "Picture": null, "Image": null, "MileMarker": null, "ZipCode": "23219", "ATTACH_URL": null, "GlobalID": "cced84eb-3be6-422c-9835-84e689ce24fd", "OBJECTID": 43, "Address": "1302 E Cary St", "IconType": null, "Website": "http://www.pekingdining.com", "Description": "Local chain serving a menu of classic Chinese dishes in a relaxed, traditional setting."}},
{"geometry": {"type": "Point", "coordinates": [-77.4331797, 37.5351659]}, "type": "Feature", "properties": {"GenericField2": "Sun-Thurs 11am-12am; Fri-Sat 11am-3am", "City": "Richmond, VA", "GenericField1": "(804) 343-3647", "Name": "City Dogs", "Zip": null, "Picture": null, "Image": null, "MileMarker": null, "ZipCode": "23219", "ATTACH_URL": "http://i.imgur.com/gV90qyW.jpg", "GlobalID": "28ca81d4-9da9-47ee-bac7-eb51f66df9ac", "OBJECTID": 44, "Address": "1316 E Cary St", "IconType": null, "Website": "http://www.citydogsrva.com", "Description": "Casual eatery serving city-themed hot dogs, plus burgers & sandwiches, in a cozy space."}},
{"geometry": {"type": "Point", "coordinates": [-77.4328989, 37.5346678]}, "type": "Feature", "properties": {"GenericField2": "See website", "City": "Richmond, VA", "GenericField1": "(804) 649-7767", "Name": "Sin\u00e9 Irish Pub & Restaurant", "Zip": null, "Picture": null, "Image": null, "MileMarker": null, "ZipCode": "23219", "ATTACH_URL": "http://i.imgur.com/RUedhvj.jpg", "GlobalID": "b17b5353-ae2a-4f10-8d52-9fe4406f1562", "OBJECTID": 45, "Address": "1327 E Cary St", "IconType": null, "Website": "http://www.sineirishpub.com", "Description": "Busy tavern serving pub fare with some Irish & regional options in a paneled space with a patio."}},
{"geometry": {"type": "Point", "coordinates": [-77.4328492, 37.5346417]}, "type": "Feature", "properties": {"GenericField2": "See website", "City": "Richmond, VA", "GenericField1": "(804) 643-1315", "Name": "Kitchen on Cary", "Zip": null, "Picture": null, "Image": null, "MileMarker": null, "ZipCode": "23219", "ATTACH_URL": "http://i.imgur.com/iW2BdCw.jpg", "GlobalID": "d13bf4b3-ccb4-4f17-903d-b9348794ad87", "OBJECTID": 46, "Address": "1331 E Cary St", "IconType": null, "Website": "http://www.kitchenoncary.com", "Description": "Seasonal New American cuisine & craft cocktails in a serenely furnished contemporary space."}},
{"geometry": {"type": "Point", "coordinates": [-77.4331044, 37.5339912]}, "type": "Feature", "properties": {"GenericField2": "See website", "City": "Richmond, VA", "GenericField1": "(804) 648-1662", "Name": "Morton's The Steakhouse", "Zip": null, "Picture": null, "Image": null, "MileMarker": null, "ZipCode": "23219", "ATTACH_URL": "http://i.imgur.com/rxM9bnh.jpg", "GlobalID": "a1a05d13-5381-4f49-9e7d-ffec0740c35f", "OBJECTID": 49, "Address": "111 Virginia St", "IconType": null, "Website": "http://www.mortons.com", "Description": "Upscale chain for aged prime beef, seafood & other traditional steakhouse fare in a clubby space."}},
{"geometry": {"type": "Point", "coordinates": [-77.4320691, 37.5340635]}, "type": "Feature", "properties": {"GenericField2": "Sun 10:30am-10pm; Mon-Sat 11:30am-9pm", "City": "Richmond, VA", "GenericField1": "(804) 643-2333", "Name": "The Hard Shell", "Zip": null, "Picture": null, "Image": null, "MileMarker": null, "ZipCode": "23219", "ATTACH_URL": "http://i.imgur.com/FoJ1dhx.jpg", "GlobalID": "b376a17f-94df-4328-9671-5d7dfc90ef9f", "OBJECTID": 50, "Address": "1411 E Cary St", "IconType": null, "Website": "http://www.thehardshell.com", "Description": "Intimate, upscale-casual tavern for traditional seafood, steaks & a raw bar with wine & cocktails."}},
{"geometry": {"type": "Point", "coordinates": [-77.4318322, 37.5339161]}, "type": "Feature", "properties": {"GenericField2": "See Website", "City": "Richmond, VA", "GenericField1": "(804) 726-6296", "Name": "Cha Cha's Cantina", "Zip": null, "Picture": null, "Image": null, "MileMarker": null, "ZipCode": "23219", "ATTACH_URL": "http://i.imgur.com/7ubcvau.jpg", "GlobalID": "0e4b6178-164c-4dda-bcbb-ef64d90d243b", "OBJECTID": 51, "Address": "1419 E Cary St", "IconType": null, "Website": "http://www.chachascantina.com", "Description": "Sizable bar & eatery known for its Southwestern menu, margaritas & lively late-night scene."}},
{"geometry": {"type": "Point", "coordinates": [-77.431741, 37.5338587]}, "type": "Feature", "properties": {"GenericField2": "Sun-Mon Closed; Tues-Fri 5pm-2am", "City": "Richmond, VA", "GenericField1": "(804) 648-5100", "Name": "Society Social Club", "Zip": null, "Picture": null, "Image": null, "MileMarker": null, "ZipCode": "23219", "ATTACH_URL": "http://i.imgur.com/tVb6rDo.jpg", "GlobalID": "854e87c8-f5c8-46f7-968b-87bbea5007e6", "OBJECTID": 52, "Address": "1421 E Cary St", "IconType": null, "Website": "http://www.places.singleplatform.com", "Description": null}},
{"geometry": {"type": "Point", "coordinates": [-77.4309095, 37.533395]}, "type": "Feature", "properties": {"GenericField2": "Sun - Fri 11am - 1am; Saturday 11am - 2am", "City": "Richmond, VA", "GenericField1": "(804) 648-8900", "Name": "Buffalo Wild Wings", "Zip": null, "Picture": null, "Image": null, "MileMarker": null, "ZipCode": "23219", "ATTACH_URL": "http://i.imgur.com/BiI0uTV.jpg", "GlobalID": "3c35d447-7bb3-4ce5-8994-ca84ce149fb7", "OBJECTID": 53, "Address": "1501 E Cary St", "IconType": null, "Website": "http://www.buffalowildwings.com", "Description": "Lively sports-bar chain dishing up wings & other American pub grub amid lots of large-screen TVs."}},
{"geometry": {"type": "Point", "coordinates": [-77.4315291, 37.5330568]}, "type": "Feature", "properties": {"GenericField2": null, "City": "Richmond, VA", "GenericField1": "(804) 562-1438", "Name": "Fish Bowl Bistro Bar", "Zip": null, "Picture": null, "Image": null, "MileMarker": null, "ZipCode": "23219", "ATTACH_URL": "http://i.imgur.com/lL7o211.jpg", "GlobalID": "3c9e4cfa-02f2-4080-aae0-5fd48c699418", "OBJECTID": 54, "Address": "101 S 15th St #105", "IconType": null, "Website": null, "Description": "Beach-themed hangout featuring burgers & bar fare, tropical cocktails & weekend live music."}},
{"geometry": {"type": "Point", "coordinates": [-77.43169, 37.5329718]}, "type": "Feature", "properties": {"GenericField2": "See website", "City": "Richmond, VA", "GenericField1": "(804) 716-8307", "Name": "7 Hills Brewing Company", "Zip": null, "Picture": null, "Image": null, "MileMarker": null, "ZipCode": "23219", "ATTACH_URL": "http://i.imgur.com/tFcSvmM.jpg", "GlobalID": "923705b2-c5a9-4047-99ec-3ed6aec9cd88", "OBJECTID": 55, "Address": "115 S 15th St #100", "IconType": null, "Website": "http://www.7hillsbrewingco.com", "Description": "Energetic gastropub featuring surf 'n' turf & its own craft brews, plus growlers to go & a patio."}},
{"geometry": {"type": "Point", "coordinates": [-77.4334147, 37.53626]}, "type": "Feature", "properties": {"GenericField2": "Mon-Fri 7am-2pm; Sat-Sun Closed", "City": "Richmond, VA", "GenericField1": "(804) 788-1111", "Name": "New York Bagels and Deli", "Zip": null, "Picture": null, "Image": null, "MileMarker": null, "ZipCode": "23219", "ATTACH_URL": "http://i.imgur.com/l2lYwQw.jpg", "GlobalID": "f27f33b5-cdf4-49cb-9aa2-ec894456ea36", "OBJECTID": 56, "Address": "1215 E Main St", "IconType": null, "Website": null, "Description": null}},
{"geometry": {"type": "Point", "coordinates": [-77.4335005, 37.5363111]}, "type": "Feature", "properties": {"GenericField2": "Mon-Fri 7am-6pm; Sat-Sun Closed", "City": "Richmond, VA", "GenericField1": "(804) 864-2992", "Name": "Subway", "Zip": null, "Picture": null, "Image": null, "MileMarker": null, "ZipCode": "23219", "ATTACH_URL": null, "GlobalID": "2d8265d7-5b1a-427f-a173-daac150e7c64", "OBJECTID": 57, "Address": "1209 E Main St", "IconType": null, "Website": "http://www.subway.com", "Description": "Casual counter-serve chain for build-your-own sandwiches & salads."}},
{"geometry": {"type": "Point", "coordinates": [-77.4338063, 37.5356092]}, "type": "Feature", "properties": {"GenericField2": "Sun 1pm-2am; Mon-Fri 11am-2am; Sat 12pm-2am", "City": "Richmond, VA", "GenericField1": "(804) 447-7106", "Name": "Mijas Cantina", "Zip": null, "Picture": null, "Image": null, "MileMarker": null, "ZipCode": "23219", "ATTACH_URL": "http://i.imgur.com/s29to05.jpg", "GlobalID": "427fb362-5f35-485e-af38-0de464bd4a9e", "OBJECTID": 58, "Address": "1218 E Cary St,", "IconType": null, "Website": "http://www.mijascantinarva.com", "Description": null}},
{"geometry": {"type": "Point", "coordinates": [-77.4334898, 37.5349488]}, "type": "Feature", "properties": {"GenericField2": "Sun Closed; Mon-Sat 11am-10pm", "City": "Richmond, VA", "GenericField1": "(804) 225-8801", "Name": "Mom's Siam 2 Restaurant", "Zip": null, "Picture": null, "Image": null, "MileMarker": null, "ZipCode": "23219", "ATTACH_URL": "http://i.imgur.com/2AkNPDs.jpg", "GlobalID": "baa7d4b6-3285-4712-83a2-fca2e16d3723", "OBJECTID": 59, "Address": "1309 E Cary St", "IconType": null, "Website": "http://www.momsiam2.com", "Description": "Located in the heart of Richmond city, Mom\u2019s Siam 2 has been a favorite of all locals. With two locations in Carytown and Shockoe bottom, we are granted with the historic atmosphere and modern art as well as a diverse food culture, which we are proud to be part of. Enjoy tasteful, fresh, authentic Thai and mouth-watering specialty rolls in the same place! Mom\u2019s Siam 2 (Shockoe Bottom) hosts a full sushi bar along with an open kitchen. This allows our customers to get the best sushi and Thai experience as possible! From a la carte sushi/sashimi and great tasting Thai, It\u2019s a great place to have dinner for all ages, and a comfortable, relaxing place to eat, along with a great night life experience in Carytown and the Shockoe Slip!"}},
{"geometry": {"type": "Point", "coordinates": [-77.4278779, 37.5328904]}, "type": "Feature", "properties": {"GenericField2": "Sun 11am-12am; Mon-Sat 11am-3am", "City": "Richmond, VA", "GenericField1": "(804) 343-1300", "Name": "The Pizza Place", "Zip": null, "Picture": null, "Image": null, "MileMarker": null, "ZipCode": "23223", "ATTACH_URL": "http://i.imgur.com/9vQSV5r.jpg", "GlobalID": "a7cb7642-9256-40b5-9a0e-b863ec3e468a", "OBJECTID": 60, "Address": "1731 E Main St", "IconType": null, "Website": "http://www.richmondpizzaplace.com", "Description": "Casual late-night joint turning out NYC-style pizza pies, plus Jamaican patties & calzones."}},
{"geometry": {"type": "Point", "coordinates": [-77.3526574, 37.4427181]}, "type": "Feature", "properties": {"GenericField2": "11am-10pm", "City": "Richmond, VA", "GenericField1": "(804) 795-4144", "Name": "Portabella Restaurant", "Zip": null, "Picture": null, "Image": null, "MileMarker": null, "ZipCode": "23231", "ATTACH_URL": "http://i.imgur.com/pHioR8h.jpg", "GlobalID": "d7872031-ee97-4f5b-b3f8-11a1363cfb5b", "OBJECTID": 61, "Address": "2627 New Market Rd", "IconType": null, "Website": null, "Description": null}},
{"geometry": {"type": "Point", "coordinates": [-76.7330684, 37.2532122]}, "type": "Feature", "properties": {"GenericField2": "Mo - Th 8:30am - 2:30pm; Fri - Sun 7:30am - 2:30pm", "City": "Williamsburg, VA", "GenericField1": "(757) 229-4689", "Name": "Old Chickahominy House", "Zip": null, "Picture": null, "Image": null, "MileMarker": null, "ZipCode": "23185", "ATTACH_URL": "http://i.imgur.com/7oQxa9k.jpg", "GlobalID": "2290feb9-c6ac-4e93-8d0d-4553749e59ad", "OBJECTID": 63, "Address": "1211 Jamestown Rd", "IconType": null, "Website": "http://www.oldchickahominy.com", "Description": "Down-home Southern cooking in a historic house reconstructed from new & antique materials in 1962."}},
{"geometry": {"type": "Point", "coordinates": [-76.718032, 37.2319579]}, "type": "Feature", "properties": {"GenericField2": "Mon-Thurs 11am-6pm; Fri-Sun 11am-7pm", "City": "Williamsburg, VA", "GenericField1": "(757) 229-0999", "Name": "Williamsburg Winery", "Zip": null, "Picture": null, "Image": null, "MileMarker": null, "ZipCode": "23185", "ATTACH_URL": "http://i.imgur.com/eY9DuTL.jpg", "GlobalID": "c5508798-2a6f-43e1-b258-24b8721624db", "OBJECTID": 64, "Address": "5800 Wessex Hundred", "IconType": null, "Website": "http://www.williamsburgwinery.com", "Description": "Massive winery on a historic 300-acre farm with tastings, restaurants & on-site lodging."}},
{"geometry": {"type": "Point", "coordinates": [-76.7391336, 37.2587122]}, "type": "Feature", "properties": {"GenericField2": "See Website", "City": "Williamsburg, VA", "GenericField1": "(757) 253-2233", "Name": "Victoria's", "Zip": null, "Picture": null, "Image": null, "MileMarker": null, "ZipCode": "23185", "ATTACH_URL": "http://i.imgur.com/h5cKSpU.jpg", "GlobalID": "e6a9fdfc-685e-4e98-b955-2b5319294c2c", "OBJECTID": 66, "Address": "5269 John Tyler Hwy,", "IconType": null, "Website": "http://www.victoriaswilliamsburg.com", "Description": "Standard spot with booths serving breakfast fare, burgers & familiar American mains, plus cocktails."}},
{"geometry": {"type": "Point", "coordinates": [-76.7390692, 37.2575167]}, "type": "Feature", "properties": {"GenericField2": "Mon-Fri 7am-6pm; Sat 8am-5pm; Sun closed", "City": "Williamsburg, VA", "GenericField1": "(757) 229-9791", "Name": "The Coffeehouse", "Zip": null, "Picture": null, "Image": null, "MileMarker": null, "ZipCode": "23185", "ATTACH_URL": null, "GlobalID": "fd1a8714-6e82-4d72-962d-e175833a3146", "OBJECTID": 70, "Address": "5251 John Tyler Hwy #6", "IconType": null, "Website": "http://www.coffeebistro.net", "Description": "The Coffeehouse has been conveniently located between Historic Jamestown and Colonial Williamsburg for over 20 years.  Many of our regular visitors have been meeting friends, family, and business associates at The Coffeehouse since our first days."}},
{"geometry": {"type": "Point", "coordinates": [-76.7411077, 37.2583108]}, "type": "Feature", "properties": {"GenericField2": "Sun Closed; Mon-Sat 11am-9pm", "City": "Williamsburg, VA", "GenericField1": "(757) 603-6614", "Name": "Chopsticks Pho and Grill", "Zip": null, "Picture": null, "Image": null, "MileMarker": null, "ZipCode": "23185", "ATTACH_URL": "http://i.imgur.com/93sWGW2.jpg", "GlobalID": "38aa0f8b-5f56-473c-8680-46c1df4ac3e4", "OBJECTID": 73, "Address": "5251 John Tyler Hwy", "IconType": null, "Website": "http://www.chopstickpho.wixsite.com", "Description": null}},
{"geometry": {"type": "Point", "coordinates": [-76.7636007, 37.2519531]}, "type": "Feature", "properties": {"GenericField2": "See Website", "City": "Williamsburg, VA", "GenericField1": "(757) 229-1212", "Name": "Sushiya", "Zip": null, "Picture": null, "Image": null, "MileMarker": null, "ZipCode": "23185", "ATTACH_URL": "http://i.imgur.com/mPUXyrl.jpg", "GlobalID": "6c1f2172-ff11-4060-bc0d-4305d7675d02", "OBJECTID": 74, "Address": "4511 John Tyler Hwy,", "IconType": null, "Website": "http://www.sushiyajapaneserestaurant.com", "Description": "Sushiya was established in 2013, and as a new establishment received great reviews from locals and tourists. Sushiya is a family owned business with a friendly atmosphere. Come delight in our signature rolls or amazing Japanese cuisine. You can also enjoy our hibachi chefs as they entertain you and your guests. Have fresh steak, seafood and chicken prepared in front of you on the Hibachi grill tables. Come in today and let us know which type of dining works best for you!"}},
{"geometry": {"type": "Point", "coordinates": [-76.7651295, 37.2530206]}, "type": "Feature", "properties": {"GenericField2": "Tues - Sat 11am - 10pm; Sun 12-10pm", "City": "Williamsburg, VA", "GenericField1": "(757) 220-1001", "Name": "China Wok", "Zip": null, "Picture": null, "Image": null, "MileMarker": null, "ZipCode": "23185", "ATTACH_URL": "http://i.imgur.com/6ypRGPr.jpg", "GlobalID": "83b377a3-ddc8-4ef6-a16d-7639883cfb94", "OBJECTID": 75, "Address": "4496 John Tyler Hwy", "IconType": null, "Website": null, "Description": null}},
{"geometry": {"type": "Point", "coordinates": [-76.7574476, 37.2722556]}, "type": "Feature", "properties": {"GenericField2": "Tues - Sat 8am - 9pm; Sun 8am - 4pm", "City": "Williamsburg, VA", "GenericField1": "(757) 221-8038", "Name": "Honey Butter's Kitchen", "Zip": null, "Picture": null, "Image": null, "MileMarker": null, "ZipCode": "23188", "ATTACH_URL": "http://i.imgur.com/KAZi1RP.jpg", "GlobalID": "4402781d-aaf1-4731-badd-fd8ae740e405", "OBJECTID": 82, "Address": "4680 Monticello Ave", "IconType": null, "Website": "http://www.honeybutterskitchen.com", "Description": null}},
{"geometry": {"type": "Point", "coordinates": [-77.4269963, 37.5323658]}, "type": "Feature", "properties": {"GenericField2": "Monday - Saturday 11am - 9pm", "City": "Richmond, VA", "GenericField1": "(804) 855-0495", "Name": "Grace Noodle", "Zip": null, "Picture": null, "Image": null, "MileMarker": null, "ZipCode": "23223", "ATTACH_URL": "http://i.imgur.com/lir1GPT.jpg", "GlobalID": "147ecba8-d4d4-42b6-bf1f-1b5d79e0f42c", "OBJECTID": 89, "Address": "1823 E Main St", "IconType": null, "Website": "http://gracenoodlerva.letseat.at/menu", "Description": "Snug, brick-lined noodle house offering a variety of ramen & other Japanese staples."}},
{"geometry": {"type": "Point", "coordinates": [-77.4280073, 37.5329559]}, "type": "Feature", "properties": {"GenericField2": "See Website", "City": "Richmond, VA", "GenericField1": "(804) 643-6500", "Name": "Sumo San Restaurant", "Zip": null, "Picture": null, "Image": null, "MileMarker": null, "ZipCode": "23223", "ATTACH_URL": "http://i.imgur.com/rokVxKa.jpg", "GlobalID": "ab641c97-691f-49cd-a9cb-cb447bb22868", "OBJECTID": 90, "Address": "1725 E Main St", "IconType": null, "Website": "http://www.sumosanrva.com", "Description": "Casual Japanese eatery with a sushi bar, cocktails & sake plus quirky decorations on the walls."}},
{"geometry": {"type": "Point", "coordinates": [-77.4281521, 37.5330389]}, "type": "Feature", "properties": {"GenericField2": "See Website for detailed hours", "City": "Richmond, VA", "GenericField1": "(804) 728-1267", "Name": "Bottom Burger", "Zip": null, "Picture": null, "Image": null, "MileMarker": null, "ZipCode": "23223", "ATTACH_URL": null, "GlobalID": "53baf51e-8837-4ee2-9806-5c7f7f7ce4a0", "OBJECTID": 91, "Address": "1719 E Main St", "IconType": null, "Website": "https://www.bottomburger.com/", "Description": null}},
{"geometry": {"type": "Point", "coordinates": [-77.4276479, 37.5331516]}, "type": "Feature", "properties": {"GenericField2": "See Website", "City": "Richmond, VA", "GenericField1": "(804) 729-4141", "Name": "Southern Kitchen", "Zip": null, "Picture": null, "Image": null, "MileMarker": null, "ZipCode": "23223", "ATTACH_URL": "http://i.imgur.com/Ph2NXrN.jpg", "GlobalID": "4d5810c9-39a3-413a-b817-13a178ef55c0", "OBJECTID": 92, "Address": "1726 E Main St,", "IconType": null, "Website": "http://www.southernkitchenrva.com", "Description": "Here at Southern Kitchen we believe in bringing you the finest southern food in RVA that is backed by the best southern hospitality that we can provide! We mix southern eating with class!"}},
{"geometry": {"type": "Point", "coordinates": [-77.4282379, 37.5334856]}, "type": "Feature", "properties": {"GenericField2": "See Website", "City": "Richmond, VA", "GenericField1": "(804) 225-8252", "Name": "Sweet Teas Southern Cuisine", "Zip": null, "Picture": null, "Image": null, "MileMarker": null, "ZipCode": "23223", "ATTACH_URL": "http://i.imgur.com/gnlkpN0.jpg", "GlobalID": "f63421b4-552e-4571-8e7e-fdaf351ec2ec", "OBJECTID": 93, "Address": "1700 E Main St, Richmond, VA", "IconType": null, "Website": "http://www.sweetteascuisine.com", "Description": null}},
{"geometry": {"type": "Point", "coordinates": [-77.4281602, 37.5334409]}, "type": "Feature", "properties": {"GenericField2": "See Website to book", "City": "Richmond, VA", "GenericField1": "(804) 572-2533", "Name": "Central Purrk/Zoomies", "Zip": null, "Picture": null, "Image": null, "MileMarker": null, "ZipCode": "23223", "ATTACH_URL": "http://i.imgur.com/9GO1lrx.jpg", "GlobalID": "e2ec3469-b857-4829-9c59-bd139f235db2", "OBJECTID": 94, "Address": "1704 E Main St", "IconType": null, "Website": "http://www.zoomieslounge.com", "Description": "Cat Cafe"}},
{"geometry": {"type": "Point", "coordinates": [-77.4282218, 37.5335813]}, "type": "Feature", "properties": {"GenericField2": "Sun-Thurs 11am-12am; Fri-Sat 11am-2am", "City": "Richmond, VA", "GenericField1": "(804) 447-7981", "Name": "The Halligan Bar and Grill", "Zip": null, "Picture": null, "Image": null, "MileMarker": null, "ZipCode": "23219", "ATTACH_URL": "http://i.imgur.com/bvWrnpW.jpg", "GlobalID": "656bc373-1f0e-4d3a-ae90-8f91742e90f6", "OBJECTID": 95, "Address": "3 N 17th St,", "IconType": null, "Website": "http://www.thehalliganbar.com", "Description": "Comfort food & BBQ served in a small storefront filled with firefighter memorabilia & truck parts."}},
{"geometry": {"type": "Point", "coordinates": [-77.4281494, 37.5336451]}, "type": "Feature", "properties": {"GenericField2": "7am-4pm", "City": "Richmond, VA", "GenericField1": "(804) 644-9418", "Name": "River City Diner", "Zip": null, "Picture": null, "Image": null, "MileMarker": null, "ZipCode": "23219", "ATTACH_URL": "http://i.imgur.com/KoqhZBm.jpg", "GlobalID": "1c3f19f9-b620-460f-9666-369272a9a614", "OBJECTID": 96, "Address": "7 N 17th St", "IconType": null, "Website": "http://www.river-city-diner.com", "Description": "Local diner chain serving breakfast, burgers & classic American entrees in an old-fashioned setting."}},
{"geometry": {"type": "Point", "coordinates": [-77.4280743, 37.5337153]}, "type": "Feature", "properties": {"GenericField2": "See Website", "City": "Richmond, VA", "GenericField1": "(804) 308-3649", "Name": "Addis Restaurant", "Zip": null, "Picture": null, "Image": null, "MileMarker": null, "ZipCode": "23219", "ATTACH_URL": "http://i.imgur.com/UpQGKps.jpg", "GlobalID": "6b1edaef-3c5e-4994-b800-51b95bd5b66a", "OBJECTID": 97, "Address": "9 N 17th St", "IconType": null, "Website": "http://www.addis-richmond.com", "Description": "Sizable eatery & bar serving traditional Ethiopian dishes including injera & kitfo."}},
{"geometry": {"type": "Point", "coordinates": [-77.428588, 37.5340099]}, "type": "Feature", "properties": {"GenericField2": "see website", "City": "Richmond, VA", "GenericField1": "(804) 343-1063", "Name": "Rosie Connolly's Pub Restaurant", "Zip": null, "Picture": null, "Image": null, "MileMarker": null, "ZipCode": "23219", "ATTACH_URL": "http://i.imgur.com/HaK2eNf.jpg", "GlobalID": "bcceb080-86c7-4e01-a020-b716dcea805e", "OBJECTID": 98, "Address": "1548 E Main St A", "IconType": null, "Website": "http://www.rosieconnollys.com", "Description": "Cozy gathering place providing draft beer, traditional Irish comfort food, music sessions & trivia."}},
{"geometry": {"type": "Point", "coordinates": [-77.4284968, 37.5342566]}, "type": "Feature", "properties": {"GenericField2": "see website", "City": "Richmond, VA", "GenericField1": "(804) 780-2822", "Name": "Havana 59", "Zip": null, "Picture": null, "Image": null, "MileMarker": null, "ZipCode": "23219", "ATTACH_URL": "http://i.imgur.com/jmt2nF1.jpg", "GlobalID": "85c0f28a-2f72-40f0-b2a8-62ecf6aca882", "OBJECTID": 99, "Address": "16 N 17th St", "IconType": null, "Website": "http://www.havana59.net", "Description": "Palm trees & ceiling fans create a Havana vibe, as do Cuban-style fare, cigars & salsa dancing."}},
{"geometry": {"type": "Point", "coordinates": [-77.427794, 37.533995]}, "type": "Feature", "properties": {"GenericField2": "see website", "City": "Richmond, VA", "GenericField1": "(804) 343-9771", "Name": "Lulu's", "Zip": null, "Picture": null, "Image": null, "MileMarker": null, "ZipCode": "23219", "ATTACH_URL": "http://i.imgur.com/soLQyh3.jpg", "GlobalID": "1614da60-344c-44f3-8911-2be2b1ca9098", "OBJECTID": 100, "Address": "21 N 17th St", "IconType": null, "Website": "http://www.lulusrichmond.com", "Description": "Industrial spot adorned with local art offers New American menus & live music, mostly on weekends."}},
{"geometry": {"type": "Point", "coordinates": [-77.427503, 37.5340556]}, "type": "Feature", "properties": {"GenericField2": "see website", "City": "Richmond, VA", "GenericField1": "(804) 643-4828", "Name": "Tio Pablo", "Zip": null, "Picture": null, "Image": null, "MileMarker": null, "ZipCode": "23223", "ATTACH_URL": "http://i.imgur.com/dxRgsK6.jpg", "GlobalID": "3499017f-7dbe-42a6-8e73-9a8b62290310", "OBJECTID": 101, "Address": "1703 E Franklin St", "IconType": null, "Website": "http://www.tiopablotacos.com", "Description": "Hip, contemporary taqueria serving traditional Mexican quick eats, plus tequila, margaritas & beer."}},
{"geometry": {"type": "Point", "coordinates": [-77.4271744, 37.5338482]}, "type": "Feature", "properties": {"GenericField2": "See Website", "City": "Richmond, VA", "GenericField1": "(804) 308-3802", "Name": "Loft Seventeen", "Zip": null, "Picture": null, "Image": null, "MileMarker": null, "ZipCode": "23223", "ATTACH_URL": "http://i.imgur.com/n2MAsIA.jpg", "GlobalID": "9dc0ce23-b1a2-4f24-a2f8-e600f8d7ff8a", "OBJECTID": 102, "Address": "1717 E Franklin St", "IconType": null, "Website": "http://www.loft17rva.com", "Description": null}},
{"geometry": {"type": "Point", "coordinates": [-77.4273662, 37.5329613]}, "type": "Feature", "properties": {"GenericField2": "Sun-Thurs 11am-12am; Fri-Sat 11am-3am", "City": "Richmond, VA", "GenericField1": "(804) 528-5424", "Name": "Wingz Stop", "Zip": null, "Picture": null, "Image": null, "MileMarker": null, "ZipCode": "23223", "ATTACH_URL": "http://i.imgur.com/KCuT9TP.jpg", "GlobalID": "dc18bc0e-8362-49d7-a7b6-ebffb435f825", "OBJECTID": 103, "Address": "1800 E Main St", "IconType": null, "Website": "http://www.wingzstop.com", "Description": null}},
{"geometry": {"type": "Point", "coordinates": [-77.4267882, 37.5335398]}, "type": "Feature", "properties": {"GenericField2": "see website", "City": "Richmond, VA", "GenericField1": "(804) 225-8883", "Name": "La Bamba Mexican", "Zip": null, "Picture": null, "Image": null, "MileMarker": null, "ZipCode": "23223", "ATTACH_URL": "http://i.imgur.com/GK68OZJ.jpg", "GlobalID": "578784d1-be61-4a76-a0ba-e6f34981754d", "OBJECTID": 104, "Address": "19 N 18th St", "IconType": null, "Website": "http://www.labambarichmond.com", "Description": "Unfussy joint for margaritas, fried chimichangas & other traditional Mexican eats, open late."}},
{"geometry": {"type": "Point", "coordinates": [-77.4264798, 37.5323742]}, "type": "Feature", "properties": {"GenericField2": "12:30pm-9:30pm", "City": "Richmond, VA", "GenericField1": "(804) 644-0961", "Name": "East Villa Restuarant", "Zip": null, "Picture": null, "Image": null, "MileMarker": null, "ZipCode": "23223", "ATTACH_URL": "http://i.imgur.com/R5jiXwE.jpg", "GlobalID": "160d15dd-61f3-42ba-8ba1-35b97dc5260a", "OBJECTID": 105, "Address": "1900 E Main St", "IconType": null, "Website": null, "Description": "Basic option for Chinese standards like lemon chicken & kung pao shrimp, plus wings & sandwiches."}},
{"geometry": {"type": "Point", "coordinates": [-77.4250837, 37.5315766]}, "type": "Feature", "properties": {"GenericField2": "Open daily 11am-2am", "City": "Richmond, VA", "GenericField1": "(804) 249-4702", "Name": "Station 2", "Zip": null, "Picture": null, "Image": null, "MileMarker": null, "ZipCode": "23223", "ATTACH_URL": "http://i.imgur.com/36iVah2.jpg", "GlobalID": "2b586fd3-6362-491c-b28e-e65890ca9095", "OBJECTID": 106, "Address": "2016 E Main St", "IconType": null, "Website": "http://www.station2richmond.com", "Description": "Laid-back pick for local American eats, craft beers & alcoholic shakes in an 1899 firehouse."}},
{"geometry": {"type": "Point", "coordinates": [-77.4246035, 37.5308917]}, "type": "Feature", "properties": {"GenericField2": "See Website", "City": "Richmond, VA", "GenericField1": "(804) 918-2627", "Name": "Grandstaff & Stein Book Sellers RVA", "Zip": null, "Picture": null, "Image": null, "MileMarker": null, "ZipCode": "23223", "ATTACH_URL": "http://i.imgur.com/fb2cDTH.jpg", "GlobalID": "a1169bef-802e-46a2-9410-28eabbfe6f53", "OBJECTID": 108, "Address": "2113 E Main St", "IconType": null, "Website": "http://www.grandstaffandstein.com", "Description": null}},
{"geometry": {"type": "Point", "coordinates": [-77.4247068, 37.531283]}, "type": "Feature", "properties": {"GenericField2": "Sun 7am-2pm; Mon-Sat 7am-7pm", "City": "Richmond, VA", "GenericField1": "(804) 728-1576", "Name": "Whisk", "Zip": null, "Picture": null, "Image": null, "MileMarker": null, "ZipCode": "23223", "ATTACH_URL": "http://i.imgur.com/aGhP1Nt.jpg", "GlobalID": "e9ec770a-a1c9-45c9-8915-19a3b6bc1be1", "OBJECTID": 109, "Address": "2100 E Main St", "IconType": null, "Website": "http://www.whiskrva.com", "Description": null}},
{"geometry": {"type": "Point", "coordinates": [-77.4244292, 37.5311246]}, "type": "Feature", "properties": {"GenericField2": "Tuesday - Saturday 5-10pm; Sunday 5-9pm", "City": "Richmond, VA", "GenericField1": "(804) 477-3355", "Name": "Nota Bene Restaurant & Bar", "Zip": null, "Picture": null, "Image": null, "MileMarker": null, "ZipCode": "23223", "ATTACH_URL": "http://i.imgur.com/RNjGLNg.jpg", "GlobalID": "bef426d3-6d68-401e-8f80-948e66eaa622", "OBJECTID": 110, "Address": "2110 E Main St", "IconType": null, "Website": "http://www.notabenerva.com", "Description": "Welcome to the brick and mortar restaurant that was spawned from a mobile wood-fired oven. At first offering Neapolitan style pizzas on-site we have expanded into a full fledged Italian restaurant that specializes in house made and local ingredients. With Chef Randall Doetzer leading the kitchen, we\u2019ll offer antipasti, brick-oven-baked bread, fresh pasta, Neapolitan pizza and sustainably-sourced dinner options including wood fired octopus, lamb and pork meatballs and a host of vegetarian items from the oven."}},
{"geometry": {"type": "Point", "coordinates": [-77.4242629, 37.5310267]}, "type": "Feature", "properties": {"GenericField2": "See Website", "City": "Richmond, VA", "GenericField1": "(804) 643-6022", "Name": "Honey Whyte's All American Cafe", "Zip": null, "Picture": null, "Image": null, "MileMarker": null, "ZipCode": "23223", "ATTACH_URL": null, "GlobalID": "64ba6a5b-9419-418b-91ac-40adaac38f4b", "OBJECTID": 111, "Address": "2116 E Main St", "IconType": null, "Website": "http://www.honeywhytes.net", "Description": null}},
{"geometry": {"type": "Point", "coordinates": [-77.4230841, 37.5290028]}, "type": "Feature", "properties": {"GenericField2": "See Website", "City": "Richmond, VA", "GenericField1": "(804) 643-6900", "Name": "Old Original Bookbinder's", "Zip": null, "Picture": null, "Image": null, "MileMarker": null, "ZipCode": "23223", "ATTACH_URL": "http://i.imgur.com/oOLJAQi.jpg", "GlobalID": "2026bdca-e536-40a8-a878-8069b92631b1", "OBJECTID": 112, "Address": "2306 E Cary St", "IconType": null, "Website": "http://www.bookbindersrichmond.com", "Description": "A onetime tobacco warehouse, this elegant, brick-walled eatery offers elevated Chesapeake fare."}},
{"geometry": {"type": "Point", "coordinates": [-77.4228507, 37.530211]}, "type": "Feature", "properties": {"GenericField2": "Sun-Thurs 11am-12am; Fri-Sat 11am-1am", "City": "Richmond, VA", "GenericField1": "(804) 788-7077", "Name": "23rd & Main Taproom & Kitchen", "Zip": null, "Picture": null, "Image": null, "MileMarker": null, "ZipCode": "23223", "ATTACH_URL": "http://i.imgur.com/khALgKA.jpg", "GlobalID": "fdf1f08b-2160-4aa1-a5de-bb49dd93bef8", "OBJECTID": 113, "Address": "2300 Main Street", "IconType": null, "Website": "http://www.23rdandmain.com", "Description": "Cozy, modern bar & grill serving wood-fired pizza, hearty pub fare, on-tap craft beers & cocktails."}},
{"geometry": {"type": "Point", "coordinates": [-77.421861, 37.5301387]}, "type": "Feature", "properties": {"GenericField2": "6am-10pm", "City": "Richmond, VA", "GenericField1": "(804) 565-3838", "Name": "Starbucks", "Zip": null, "Picture": null, "Image": null, "MileMarker": null, "ZipCode": "23323", "ATTACH_URL": null, "GlobalID": "acb1df6b-bb7e-46bb-b5d0-bf560ad3472a", "OBJECTID": 114, "Address": "2320 E Main St", "IconType": null, "Website": "http://www.starbucks.com", "Description": "Seattle-based coffeehouse chain known for its signature roasts, light bites and WiFi availability."}},
{"geometry": {"type": "Point", "coordinates": [-77.4203643, 37.5282647]}, "type": "Feature", "properties": {"GenericField2": "See Website for detailed hours", "City": "Richmond, VA", "GenericField1": "(804) 643-5512", "Name": "Millie's Diner", "Zip": null, "Picture": null, "Image": null, "MileMarker": null, "ZipCode": "23223", "ATTACH_URL": "http://i.imgur.com/FCwI78c.jpg", "GlobalID": "f9bc2df4-daab-4916-9ffe-f7da1b9b02b3", "OBJECTID": 115, "Address": "2603 E Main St,", "IconType": null, "Website": "http://www.milliesdiner.com", "Description": "Though diner decor remains, this reincarnated eatery serves seasonal eclectic fare & unusual wines."}},
{"geometry": {"type": "Point", "coordinates": [-77.4190366, 37.5279626]}, "type": "Feature", "properties": {"GenericField2": "Tu - Sat 11am - 2am; Sun 10am - 12pm; Mon 4pm-12am", "City": "Richmond, VA", "GenericField1": "(804) 648-2120", "Name": "Poe's Pub", "Zip": null, "Picture": null, "Image": null, "MileMarker": null, "ZipCode": "23223", "ATTACH_URL": "http://i.imgur.com/TVovCJu.jpg", "GlobalID": "ef95b0d5-aaa8-4a7d-97b3-a424347d9894", "OBJECTID": 116, "Address": "2706 E Main St", "IconType": null, "Website": "https://www.facebook.com/poespub1/", "Description": "Live blues & Americana meet Southern eats at this homey pub in a white cottage hung with photos."}},
{"geometry": {"type": "Point", "coordinates": [-77.0684483, 37.3417145]}, "type": "Feature", "properties": {"GenericField2": "Mo-Th 11am-9pm; Fri/Sat 11am-10pm: Sun 11am-8pm", "City": "Charles City, VA", "GenericField1": "(804) 829-2205", "Name": "Cul's Courthouse Grille", "Zip": null, "Picture": null, "Image": null, "MileMarker": null, "ZipCode": "23030", "ATTACH_URL": null, "GlobalID": "9133d200-eb25-42ca-905f-d7378f290ce0", "OBJECTID": 117, "Address": "10801 Courthouse Rd", "IconType": null, "Website": "http://www.culscourthousegrille.com/", "Description": "1872- The Nance-Major Store was built by Julia Nance-Major and Edward Major. The house and store face south across Courthouse Road toward the circa 1750 Charles City Courthouse. The general store provided dry goods, sundries, agricultural supplies, and tools that were necessary to support the local agricultural economy.  In 2009 the store was rennovated and became Cul's Courthouse Grille serving a Southern Cuisine, including many healthy options."}},
{"geometry": {"type": "Point", "coordinates": [-77.0730155, 37.3418563]}, "type": "Feature", "properties": {"GenericField2": "see website", "City": "Charles City, VA", "GenericField1": "(804) 829-2205", "Name": "Cul's Courthouse Grille", "Zip": null, "Picture": null, "Image": null, "MileMarker": null, "ZipCode": "23030", "ATTACH_URL": "http://i.imgur.com/kUDSFXL.jpg", "GlobalID": "e37797a2-09e7-4937-97cf-375b0656987d", "OBJECTID": 118, "Address": "10801 Courthouse Rd", "IconType": null, "Website": "http://culscourthousegrille.com", "Description": null}},
{"geometry": {"type": "Point", "coordinates": [-77.4149194, 37.5166711]}, "type": "Feature", "properties": {"GenericField2": "Sun 7am-6pm; Mon-Fri 7am-8pm; Sat 7am-9pm", "City": "Henrico, VA", "GenericField1": "(804) 222-4700", "Name": "Urban Farmhouse Market & Cafe", "Zip": null, "Picture": null, "Image": null, "MileMarker": null, "ZipCode": "23231", "ATTACH_URL": "http://i.imgur.com/a5MOY4a.jpg", "GlobalID": "e68babf2-2cf6-4cac-8af6-b01b04b9f69f", "OBJECTID": 119, "Address": "4821 Old Main St", "IconType": null, "Website": "http://theurbanfarmhouse.net", "Description": null}}
]}