{"type":"FeatureCollection","features":[
{"geometry": {"type": "Point", "coordinates": [-77.3374185, 37.4654338]}, "type": "Feature", "properties": {"GenericField2": null, "City": "Richmond, VA", "GenericField1": null, "Name": "Dorey Park Restrooms", "Zip": 23231, "Image": null, "MileMarker": null, "ZIPCode": "23231", "ATTACH_URL": null, "GlobalID": "ba39a3d9-db66-42db-95b0-56a13cf10920", "OBJECTID": 1, "Address": "2999 Darbytown Rd.", "IconType": 1, "Type": null, "Description": null}},
{"geometry": {"type": "Point", "coordinates": [-77.1863351, 37.3307648]}, "type": "Feature", "properties": {"GenericField2": null, "City": "Charles City, VA", "GenericField1": null, "Name": "Edgewood Plantation", "Zip": 23030, "Image": "http://media-cdn.tripadvisor.com/media/photo-s/01/cc/dc/04/edgewood-plantation.jpg", "MileMarker": null, "ZIPCode": "23030", "ATTACH_URL": null, "GlobalID": "7f661e26-f422-4f9b-9cf0-fa30127b7679", "OBJECTID": 2, "Address": "4800 John Tyler Memorial Hwy", "IconType": 0, "Type": "Indoor/Private", "Description": null}},
{"geometry": {"type": "Point", "coordinates": [-76.873965, 37.2683516]}, "type": "Feature", "properties": {"GenericField2": null, "City": "Williamsburg, VA", "GenericField1": null, "Name": "Chickahominy Riverfront Park", "Zip": 23185, "Image": null, "MileMarker": null, "ZIPCode": "23185", "ATTACH_URL": null, "GlobalID": "2c757e09-da22-481e-b0a9-9683e1f09e75", "OBJECTID": 3, "Address": "1350 John Tyler Memorial Hwy", "IconType": 1, "Type": "Indoor/Public", "Description": null}},
{"geometry": {"type": "Point", "coordinates": [-76.7835156, 37.2257259]}, "type": "Feature", "properties": {"GenericField2": null, "City": "Williamsburg, VA", "GenericField1": null, "Name": "Jamestown Settlement", "Zip": 23185, "Image": null, "MileMarker": null, "ZIPCode": "23185", "ATTACH_URL": null, "GlobalID": "b446b529-62a4-46e4-9cdd-6e93abee8911", "OBJECTID": 4, "Address": "2110 Jamestown Rd", "IconType": 0, "Type": "Public Indoor Restrooms", "Description": "Inside the visitors center"}},
{"geometry": {"type": "Point", "coordinates": [-77.4213677, 37.5267013]}, "type": "Feature", "properties": {"GenericField2": null, "City": "Richmond, VA", "GenericField1": null, "Name": "Great Shiplock Park", "Zip": 23223, "Image": null, "MileMarker": null, "ZIPCode": "23223", "ATTACH_URL": null, "GlobalID": "143a06c2-8ff8-43a4-b3b0-cf65fdcb3f3c", "OBJECTID": 5, "Address": "2803 Dock St.", "IconType": null, "Type": "", "Description": "Only 1 porta potty available."}},
{"geometry": {"type": "Point", "coordinates": [-77.4030294, 37.4892833]}, "type": "Feature", "properties": {"GenericField2": null, "City": "Richmond, VA", "GenericField1": null, "Name": "7-Eleven", "Zip": 23231, "Image": null, "MileMarker": null, "ZIPCode": "23231", "ATTACH_URL": null, "GlobalID": "a55aaf70-f2b7-4c1b-9a0e-d933407654ea", "OBJECTID": 6, "Address": "1125 New Market Rd.", "IconType": null, "Type": null, "Description": ""}},
{"geometry": {"type": "Point", "coordinates": [-77.3802789, 37.4599078]}, "type": "Feature", "properties": {"GenericField2": null, "City": "Varina", "GenericField1": null, "Name": "Varina Library", "Zip": 23231, "Image": null, "MileMarker": null, "ZIPCode": "23231", "ATTACH_URL": null, "GlobalID": "c6059a17-58e9-4478-8968-f4f138d58858", "OBJECTID": 7, "Address": "1875 New Market Rd.", "IconType": null, "Type": "Indoors private", "Description": "Opening March 2016"}},
{"geometry": {"type": "Point", "coordinates": [-77.0983681, 37.3183435]}, "type": "Feature", "properties": {"GenericField2": null, "City": "Charles City, VA", "GenericField1": null, "Name": "Lawrence Lewis Jr. Park", "Zip": 23030, "Image": null, "MileMarker": null, "ZIPCode": "23030", "ATTACH_URL": null, "GlobalID": "b137642e-6707-4cc6-aa45-8b39acda72db", "OBJECTID": 9, "Address": "12400 Wilcox Wharf Rd.", "IconType": null, "Type": null, "Description": null}},
{"geometry": {"type": "Point", "coordinates": [-77.0722433, 37.3417954]}, "type": "Feature", "properties": {"GenericField2": null, "City": "Charles City, VA", "GenericField1": null, "Name": "Charles City Courthouse Visitors Center", "Zip": 23030, "Image": null, "MileMarker": null, "ZIPCode": "23030", "ATTACH_URL": null, "GlobalID": "4eec45d5-023b-45dd-9875-e169f2e35f0c", "OBJECTID": 10, "Address": "10760 Courthouse Rd.", "IconType": null, "Type": "Public restrooms", "Description": "Should remain unlocked at all times"}},
{"geometry": {"type": "Point", "coordinates": [-77.3542601, 37.4472605]}, "type": "Feature", "properties": {"GenericField2": null, "City": "Richmond, VA", "GenericField1": null, "Name": "Valero", "Zip": 23231, "Image": null, "MileMarker": null, "ZIPCode": "23231", "ATTACH_URL": null, "GlobalID": "1446dc7d-afe9-4644-a069-7789724d53b4", "OBJECTID": 11, "Address": "2650 New Market Rd.", "IconType": null, "Type": "private, indoors", "Description": null}}
]}