{
"type": "FeatureCollection",
"features": [
{ "type": "Feature", "properties": { "CITIESX020": 21997, "FEATURE": "Populated Place", "NAME": "Jamesville", "POP_RANGE": "0 - 9,999", "POP_2000": 502, "FIPS55": "34320", "COUNTY": "Martin County", "FIPS": "37117", "STATE": "NC", "STATE_FIPS": "37", "DISPLAY": 0 }, "geometry": { "type": "Point", "coordinates": [ -76.886922766113287, 35.757309990692136 ] } },
{ "type": "Feature", "properties": { "CITIESX020": 21985, "FEATURE": "County Seat", "NAME": "Williamston", "POP_RANGE": "0 - 9,999", "POP_2000": 5843, "FIPS55": "74220", "COUNTY": "Martin County", "FIPS": "37117", "STATE": "NC", "STATE_FIPS": "37", "DISPLAY": 0 }, "geometry": { "type": "Point", "coordinates": [ -77.151422766113285, 35.820209990692135 ] } },
{ "type": "Feature", "properties": { "CITIESX020": 22063, "FEATURE": "Populated Place", "NAME": "Everetts", "POP_RANGE": "0 - 9,999", "POP_2000": 179, "FIPS55": "22040", "COUNTY": "Martin County", "FIPS": "37117", "STATE": "NC", "STATE_FIPS": "37", "DISPLAY": 0 }, "geometry": { "type": "Point", "coordinates": [ -77.151422766113285, 35.820209990692135 ] } },
{ "type": "Feature", "properties": { "CITIESX020": 22112, "FEATURE": "Populated Place", "NAME": "Robersonville", "POP_RANGE": "0 - 9,999", "POP_2000": 1731, "FIPS55": "57100", "COUNTY": "Martin County", "FIPS": "37117", "STATE": "NC", "STATE_FIPS": "37", "DISPLAY": 0 }, "geometry": { "type": "Point", "coordinates": [ -77.151422766113285, 35.820209990692135 ] } },
{ "type": "Feature", "properties": { "CITIESX020": 22166, "FEATURE": "Populated Place", "NAME": "Bear Grass", "POP_RANGE": "0 - 9,999", "POP_2000": 53, "FIPS55": "04180", "COUNTY": "Martin County", "FIPS": "37117", "STATE": "NC", "STATE_FIPS": "37", "DISPLAY": 0 }, "geometry": { "type": "Point", "coordinates": [ -77.151422766113285, 35.820209990692135 ] } },
{ "type": "Feature", "properties": { "CITIESX020": 21896, "FEATURE": "Populated Place", "NAME": "Hamilton", "POP_RANGE": "0 - 9,999", "POP_2000": 516, "FIPS55": "29120", "COUNTY": "Martin County", "FIPS": "37117", "STATE": "NC", "STATE_FIPS": "37", "DISPLAY": 0 }, "geometry": { "type": "Point", "coordinates": [ -77.399622766113282, 35.904009990692131 ] } },
{ "type": "Feature", "properties": { "CITIESX020": 21902, "FEATURE": "Populated Place", "NAME": "Oak City", "POP_RANGE": "0 - 9,999", "POP_2000": 339, "FIPS55": "48060", "COUNTY": "Martin County", "FIPS": "37117", "STATE": "NC", "STATE_FIPS": "37", "DISPLAY": 0 }, "geometry": { "type": "Point", "coordinates": [ -77.399622766113282, 35.904009990692131 ] } },
{ "type": "Feature", "properties": { "CITIESX020": 21934, "FEATURE": "Populated Place", "NAME": "Speed", "POP_RANGE": "0 - 9,999", "POP_2000": 70, "FIPS55": "63720", "COUNTY": "Edgecombe County", "FIPS": "37065", "STATE": "NC", "STATE_FIPS": "37", "DISPLAY": 0 }, "geometry": { "type": "Point", "coordinates": [ -77.399622766113282, 35.904009990692131 ] } },
{ "type": "Feature", "properties": { "CITIESX020": 21953, "FEATURE": "Populated Place", "NAME": "Leggett", "POP_RANGE": "0 - 9,999", "POP_2000": 77, "FIPS55": "37640", "COUNTY": "Edgecombe County", "FIPS": "37065", "STATE": "NC", "STATE_FIPS": "37", "DISPLAY": 0 }, "geometry": { "type": "Point", "coordinates": [ -77.399622766113282, 35.904009990692131 ] } },
{ "type": "Feature", "properties": { "CITIESX020": 21980, "FEATURE": "Populated Place", "NAME": "Hassell", "POP_RANGE": "0 - 9,999", "POP_2000": 72, "FIPS55": "30040", "COUNTY": "Martin County", "FIPS": "37117", "STATE": "NC", "STATE_FIPS": "37", "DISPLAY": 0 }, "geometry": { "type": "Point", "coordinates": [ -77.399622766113282, 35.904009990692131 ] } },
{ "type": "Feature", "properties": { "CITIESX020": 22093, "FEATURE": "County Seat", "NAME": "Tarboro", "POP_RANGE": "10,000 - 49,999", "POP_2000": 11138, "FIPS55": "66700", "COUNTY": "Edgecombe County", "FIPS": "37065", "STATE": "NC", "STATE_FIPS": "37", "DISPLAY": 0 }, "geometry": { "type": "Point", "coordinates": [ -77.399622766113282, 35.904009990692131 ] } },
{ "type": "Feature", "properties": { "CITIESX020": 22108, "FEATURE": "Populated Place", "NAME": "Princeville", "POP_RANGE": "0 - 9,999", "POP_2000": 940, "FIPS55": "53840", "COUNTY": "Edgecombe County", "FIPS": "37065", "STATE": "NC", "STATE_FIPS": "37", "DISPLAY": 0 }, "geometry": { "type": "Point", "coordinates": [ -77.399622766113282, 35.904009990692131 ] } },
{ "type": "Feature", "properties": { "CITIESX020": 22152, "FEATURE": "Populated Place", "NAME": "Parmele", "POP_RANGE": "0 - 9,999", "POP_2000": 290, "FIPS55": "50540", "COUNTY": "Martin County", "FIPS": "37117", "STATE": "NC", "STATE_FIPS": "37", "DISPLAY": 0 }, "geometry": { "type": "Point", "coordinates": [ -77.399622766113282, 35.904009990692131 ] } },
{ "type": "Feature", "properties": { "CITIESX020": 22190, "FEATURE": "Populated Place", "NAME": "Bethel", "POP_RANGE": "0 - 9,999", "POP_2000": 1681, "FIPS55": "05460", "COUNTY": "Pitt County", "FIPS": "37147", "STATE": "NC", "STATE_FIPS": "37", "DISPLAY": 0 }, "geometry": { "type": "Point", "coordinates": [ -77.399622766113282, 35.904009990692131 ] } },
{ "type": "Feature", "properties": { "CITIESX020": 22202, "FEATURE": "Populated Place", "NAME": "Conetoe", "POP_RANGE": "0 - 9,999", "POP_2000": 365, "FIPS55": "14200", "COUNTY": "Edgecombe County", "FIPS": "37065", "STATE": "NC", "STATE_FIPS": "37", "DISPLAY": 0 }, "geometry": { "type": "Point", "coordinates": [ -77.399622766113282, 35.904009990692131 ] } },
{ "type": "Feature", "properties": { "CITIESX020": 21842, "FEATURE": "County Seat", "NAME": "Plymouth", "POP_RANGE": "0 - 9,999", "POP_2000": 4107, "FIPS55": "53040", "COUNTY": "Washington County", "FIPS": "37187", "STATE": "NC", "STATE_FIPS": "37", "DISPLAY": 0 }, "geometry": { "type": "Point", "coordinates": [ -76.717822766113272, 35.934309990692135 ] } },
{ "type": "Feature", "properties": { "CITIESX020": 21634, "FEATURE": "Populated Place", "NAME": "Enfield", "POP_RANGE": "0 - 9,999", "POP_2000": 2347, "FIPS55": "21360", "COUNTY": "Halifax County", "FIPS": "37083", "STATE": "NC", "STATE_FIPS": "37", "DISPLAY": 0 }, "geometry": { "type": "Point", "coordinates": [ -77.744222766113268, 36.006209990692135 ] } },
{ "type": "Feature", "properties": { "CITIESX020": 21791, "FEATURE": "Populated Place", "NAME": "Whitakers", "POP_RANGE": "0 - 9,999", "POP_2000": 799, "FIPS55": "73160", "COUNTY": "Edgecombe County", "FIPS": "37065", "STATE": "NC", "STATE_FIPS": "37", "DISPLAY": 0 }, "geometry": { "type": "Point", "coordinates": [ -77.744222766113268, 36.006209990692135 ] } },
{ "type": "Feature", "properties": { "CITIESX020": 21917, "FEATURE": "Populated Place", "NAME": "Battleboro", "POP_RANGE": "Undetermined", "POP_2000": -99999, "FIPS55": "03900", "COUNTY": "Edgecombe County", "FIPS": "37065", "STATE": "NC", "STATE_FIPS": "37", "DISPLAY": 1 }, "geometry": { "type": "Point", "coordinates": [ -77.744222766113268, 36.006209990692135 ] } },
{ "type": "Feature", "properties": { "CITIESX020": 22124, "FEATURE": "Populated Place", "NAME": "Rocky Mount", "POP_RANGE": "50,000 - 99,999", "POP_2000": 55893, "FIPS55": "57500", "COUNTY": "Edgecombe County", "FIPS": "37065", "STATE": "NC", "STATE_FIPS": "37", "DISPLAY": 0 }, "geometry": { "type": "Point", "coordinates": [ -77.744222766113268, 36.006209990692135 ] } },
{ "type": "Feature", "properties": { "CITIESX020": 22244, "FEATURE": "Populated Place", "NAME": "Sharpsburg", "POP_RANGE": "0 - 9,999", "POP_2000": 2421, "FIPS55": "61060", "COUNTY": "Nash County", "FIPS": "37127", "STATE": "NC", "STATE_FIPS": "37", "DISPLAY": 0 }, "geometry": { "type": "Point", "coordinates": [ -77.744222766113268, 36.006209990692135 ] } },
{ "type": "Feature", "properties": { "CITIESX020": 22364, "FEATURE": "Populated Place", "NAME": "Elm City", "POP_RANGE": "0 - 9,999", "POP_2000": 1165, "FIPS55": "20980", "COUNTY": "Wilson County", "FIPS": "37195", "STATE": "NC", "STATE_FIPS": "37", "DISPLAY": 0 }, "geometry": { "type": "Point", "coordinates": [ -77.744222766113268, 36.006209990692135 ] } },
{ "type": "Feature", "properties": { "CITIESX020": 21484, "FEATURE": "Populated Place", "NAME": "Askewville", "POP_RANGE": "0 - 9,999", "POP_2000": 180, "FIPS55": "02320", "COUNTY": "Bertie County", "FIPS": "37015", "STATE": "NC", "STATE_FIPS": "37", "DISPLAY": 0 }, "geometry": { "type": "Point", "coordinates": [ -76.952222766113266, 36.068109990692136 ] } },
{ "type": "Feature", "properties": { "CITIESX020": 21674, "FEATURE": "County Seat", "NAME": "Windsor", "POP_RANGE": "0 - 9,999", "POP_2000": 2283, "FIPS55": "74680", "COUNTY": "Bertie County", "FIPS": "37015", "STATE": "NC", "STATE_FIPS": "37", "DISPLAY": 0 }, "geometry": { "type": "Point", "coordinates": [ -76.952222766113266, 36.068109990692136 ] } },
{ "type": "Feature", "properties": { "CITIESX020": 21444, "FEATURE": "Populated Place", "NAME": "Roxobel", "POP_RANGE": "0 - 9,999", "POP_2000": 263, "FIPS55": "58180", "COUNTY": "Bertie County", "FIPS": "37015", "STATE": "NC", "STATE_FIPS": "37", "DISPLAY": 0 }, "geometry": { "type": "Point", "coordinates": [ -77.338322766113265, 36.091209990692136 ] } },
{ "type": "Feature", "properties": { "CITIESX020": 21481, "FEATURE": "Populated Place", "NAME": "Kelford", "POP_RANGE": "0 - 9,999", "POP_2000": 245, "FIPS55": "35360", "COUNTY": "Bertie County", "FIPS": "37015", "STATE": "NC", "STATE_FIPS": "37", "DISPLAY": 0 }, "geometry": { "type": "Point", "coordinates": [ -77.338322766113265, 36.091209990692136 ] } },
{ "type": "Feature", "properties": { "CITIESX020": 21547, "FEATURE": "Populated Place", "NAME": "Lewiston Woodville", "POP_RANGE": "0 - 9,999", "POP_2000": 613, "FIPS55": "38030", "COUNTY": "Bertie County", "FIPS": "37015", "STATE": "NC", "STATE_FIPS": "37", "DISPLAY": 0 }, "geometry": { "type": "Point", "coordinates": [ -77.338322766113265, 36.091209990692136 ] } },
{ "type": "Feature", "properties": { "CITIESX020": 21628, "FEATURE": "Populated Place", "NAME": "Scotland Neck", "POP_RANGE": "0 - 9,999", "POP_2000": 2362, "FIPS55": "59780", "COUNTY": "Halifax County", "FIPS": "37083", "STATE": "NC", "STATE_FIPS": "37", "DISPLAY": 0 }, "geometry": { "type": "Point", "coordinates": [ -77.338322766113265, 36.091209990692136 ] } },
{ "type": "Feature", "properties": { "CITIESX020": 21705, "FEATURE": "Populated Place", "NAME": "Palmyra", "POP_RANGE": "Undetermined", "POP_2000": -99999, "FIPS55": "50000", "COUNTY": "Halifax County", "FIPS": "37083", "STATE": "NC", "STATE_FIPS": "37", "DISPLAY": 0 }, "geometry": { "type": "Point", "coordinates": [ -77.338322766113265, 36.091209990692136 ] } },
{ "type": "Feature", "properties": { "CITIESX020": 21806, "FEATURE": "Populated Place", "NAME": "Hobgood", "POP_RANGE": "0 - 9,999", "POP_2000": 404, "FIPS55": "31860", "COUNTY": "Halifax County", "FIPS": "37083", "STATE": "NC", "STATE_FIPS": "37", "DISPLAY": 0 }, "geometry": { "type": "Point", "coordinates": [ -77.338322766113265, 36.091209990692136 ] } },
{ "type": "Feature", "properties": { "CITIESX020": 22345, "FEATURE": "County Seat", "NAME": "Hillsborough", "POP_RANGE": "0 - 9,999", "POP_2000": 5446, "FIPS55": "31620", "COUNTY": "Orange County", "FIPS": "37135", "STATE": "NC", "STATE_FIPS": "37", "DISPLAY": 0 }, "geometry": { "type": "Point", "coordinates": [ -79.102022766113265, 36.126809990692138 ] } },
{ "type": "Feature", "properties": { "CITIESX020": 22365, "FEATURE": "Populated Place", "NAME": "Efland", "POP_RANGE": "Undetermined", "POP_2000": -99999, "FIPS55": "20420", "COUNTY": "Orange County", "FIPS": "37135", "STATE": "NC", "STATE_FIPS": "37", "DISPLAY": 0 }, "geometry": { "type": "Point", "coordinates": [ -79.102022766113265, 36.126809990692138 ] } },
{ "type": "Feature", "properties": { "CITIESX020": 22567, "FEATURE": "Populated Place", "NAME": "Walkertown", "POP_RANGE": "0 - 9,999", "POP_2000": 4009, "FIPS55": "70660", "COUNTY": "Forsyth County", "FIPS": "37067", "STATE": "NC", "STATE_FIPS": "37", "DISPLAY": 0 }, "geometry": { "type": "Point", "coordinates": [ -80.163122766113275, 36.175209990692139 ] } },
{ "type": "Feature", "properties": { "CITIESX020": 22635, "FEATURE": "Populated Place", "NAME": "Kernersville", "POP_RANGE": "10,000 - 49,999", "POP_2000": 17126, "FIPS55": "35600", "COUNTY": "Forsyth County", "FIPS": "37067", "STATE": "NC", "STATE_FIPS": "37", "DISPLAY": 0 }, "geometry": { "type": "Point", "coordinates": [ -80.163122766113275, 36.175209990692139 ] } },
{ "type": "Feature", "properties": { "CITIESX020": 22713, "FEATURE": "Populated Place", "NAME": "Sedge Garden", "POP_RANGE": "Undetermined", "POP_2000": -99999, "FIPS55": "60280", "COUNTY": "Forsyth County", "FIPS": "37067", "STATE": "NC", "STATE_FIPS": "37", "DISPLAY": 1 }, "geometry": { "type": "Point", "coordinates": [ -80.163122766113275, 36.175209990692139 ] } },
{ "type": "Feature", "properties": { "CITIESX020": 22734, "FEATURE": "County Seat", "NAME": "Winston-Salem", "POP_RANGE": "100,000 - 249,999", "POP_2000": 185776, "FIPS55": "75000", "COUNTY": "Forsyth County", "FIPS": "37067", "STATE": "NC", "STATE_FIPS": "37", "DISPLAY": 0 }, "geometry": { "type": "Point", "coordinates": [ -80.163122766113275, 36.175209990692139 ] } },
{ "type": "Feature", "properties": { "CITIESX020": 22378, "FEATURE": "Populated Place", "NAME": "Stokesdale", "POP_RANGE": "0 - 9,999", "POP_2000": 3267, "FIPS55": "65040", "COUNTY": "Guilford County", "FIPS": "37081", "STATE": "NC", "STATE_FIPS": "37", "DISPLAY": 0 }, "geometry": { "type": "Point", "coordinates": [ -79.957722766113278, 36.206409990692137 ] } },
{ "type": "Feature", "properties": { "CITIESX020": 22404, "FEATURE": "Populated Place", "NAME": "Summerfield", "POP_RANGE": "0 - 9,999", "POP_2000": 7018, "FIPS55": "65580", "COUNTY": "Guilford County", "FIPS": "37081", "STATE": "NC", "STATE_FIPS": "37", "DISPLAY": 0 }, "geometry": { "type": "Point", "coordinates": [ -79.957722766113278, 36.206409990692137 ] } },
{ "type": "Feature", "properties": { "CITIESX020": 22502, "FEATURE": "Populated Place", "NAME": "Oak Ridge", "POP_RANGE": "0 - 9,999", "POP_2000": 3988, "FIPS55": "48480", "COUNTY": "Guilford County", "FIPS": "37081", "STATE": "NC", "STATE_FIPS": "37", "DISPLAY": 0 }, "geometry": { "type": "Point", "coordinates": [ -79.957722766113278, 36.206409990692137 ] } },
{ "type": "Feature", "properties": { "CITIESX020": 22433, "FEATURE": "Populated Place", "NAME": "King", "POP_RANGE": "0 - 9,999", "POP_2000": 5952, "FIPS55": "35760", "COUNTY": "Stokes County", "FIPS": "37169", "STATE": "NC", "STATE_FIPS": "37", "DISPLAY": 0 }, "geometry": { "type": "Point", "coordinates": [ -80.353522766113286, 36.220409990692133 ] } },
{ "type": "Feature", "properties": { "CITIESX020": 22489, "FEATURE": "Populated Place", "NAME": "Rural Hall", "POP_RANGE": "0 - 9,999", "POP_2000": 2464, "FIPS55": "58360", "COUNTY": "Forsyth County", "FIPS": "37067", "STATE": "NC", "STATE_FIPS": "37", "DISPLAY": 0 }, "geometry": { "type": "Point", "coordinates": [ -80.353522766113286, 36.220409990692133 ] } },
{ "type": "Feature", "properties": { "CITIESX020": 22518, "FEATURE": "Populated Place", "NAME": "Tobaccoville", "POP_RANGE": "0 - 9,999", "POP_2000": 2209, "FIPS55": "67720", "COUNTY": "Forsyth County", "FIPS": "37067", "STATE": "NC", "STATE_FIPS": "37", "DISPLAY": 0 }, "geometry": { "type": "Point", "coordinates": [ -80.353522766113286, 36.220409990692133 ] } },
{ "type": "Feature", "properties": { "CITIESX020": 22561, "FEATURE": "Populated Place", "NAME": "Stanleyville", "POP_RANGE": "Undetermined", "POP_2000": -99999, "FIPS55": "64540", "COUNTY": "Forsyth County", "FIPS": "37067", "STATE": "NC", "STATE_FIPS": "37", "DISPLAY": 1 }, "geometry": { "type": "Point", "coordinates": [ -80.353522766113286, 36.220409990692133 ] } },
{ "type": "Feature", "properties": { "CITIESX020": 22611, "FEATURE": "Populated Place", "NAME": "East Bend", "POP_RANGE": "0 - 9,999", "POP_2000": 659, "FIPS55": "19320", "COUNTY": "Yadkin County", "FIPS": "37197", "STATE": "NC", "STATE_FIPS": "37", "DISPLAY": 0 }, "geometry": { "type": "Point", "coordinates": [ -80.353522766113286, 36.220409990692133 ] } },
{ "type": "Feature", "properties": { "CITIESX020": 22612, "FEATURE": "Populated Place", "NAME": "Bethania", "POP_RANGE": "0 - 9,999", "POP_2000": 354, "FIPS55": "05340", "COUNTY": "Forsyth County", "FIPS": "37067", "STATE": "NC", "STATE_FIPS": "37", "DISPLAY": 0 }, "geometry": { "type": "Point", "coordinates": [ -80.353522766113286, 36.220409990692133 ] } },
{ "type": "Feature", "properties": { "CITIESX020": 22739, "FEATURE": "Populated Place", "NAME": "Enon", "POP_RANGE": "Undetermined", "POP_2000": -99999, "FIPS55": "21540", "COUNTY": "Yadkin County", "FIPS": "37197", "STATE": "NC", "STATE_FIPS": "37", "DISPLAY": 0 }, "geometry": { "type": "Point", "coordinates": [ -80.353522766113286, 36.220409990692133 ] } },
{ "type": "Feature", "properties": { "CITIESX020": 22788, "FEATURE": "Populated Place", "NAME": "Lewisville", "POP_RANGE": "0 - 9,999", "POP_2000": 8826, "FIPS55": "38040", "COUNTY": "Forsyth County", "FIPS": "37067", "STATE": "NC", "STATE_FIPS": "37", "DISPLAY": 0 }, "geometry": { "type": "Point", "coordinates": [ -80.353522766113286, 36.220409990692133 ] } },
{ "type": "Feature", "properties": { "CITIESX020": 21349, "FEATURE": "Populated Place", "NAME": "Aulander", "POP_RANGE": "0 - 9,999", "POP_2000": 888, "FIPS55": "02580", "COUNTY": "Bertie County", "FIPS": "37015", "STATE": "NC", "STATE_FIPS": "37", "DISPLAY": 0 }, "geometry": { "type": "Point", "coordinates": [ -77.114122766113269, 36.22960999069214 ] } },
{ "type": "Feature", "properties": { "CITIESX020": 21386, "FEATURE": "Populated Place", "NAME": "Townsville", "POP_RANGE": "Undetermined", "POP_2000": -99999, "FIPS55": "68140", "COUNTY": "Vance County", "FIPS": "37181", "STATE": "NC", "STATE_FIPS": "37", "DISPLAY": 0 }, "geometry": { "type": "Point", "coordinates": [ -78.432022766113278, 36.305009990692135 ] } },
{ "type": "Feature", "properties": { "CITIESX020": 21504, "FEATURE": "Populated Place", "NAME": "Middleburg", "POP_RANGE": "0 - 9,999", "POP_2000": 162, "FIPS55": "42640", "COUNTY": "Vance County", "FIPS": "37181", "STATE": "NC", "STATE_FIPS": "37", "DISPLAY": 0 }, "geometry": { "type": "Point", "coordinates": [ -78.432022766113278, 36.305009990692135 ] } },
{ "type": "Feature", "properties": { "CITIESX020": 21508, "FEATURE": "Populated Place", "NAME": "Stovall", "POP_RANGE": "0 - 9,999", "POP_2000": 376, "FIPS55": "65320", "COUNTY": "Granville County", "FIPS": "37077", "STATE": "NC", "STATE_FIPS": "37", "DISPLAY": 0 }, "geometry": { "type": "Point", "coordinates": [ -78.432022766113278, 36.305009990692135 ] } },
{ "type": "Feature", "properties": { "CITIESX020": 21648, "FEATURE": "County Seat", "NAME": "Henderson", "POP_RANGE": "10,000 - 49,999", "POP_2000": 16095, "FIPS55": "30660", "COUNTY": "Vance County", "FIPS": "37181", "STATE": "NC", "STATE_FIPS": "37", "DISPLAY": 0 }, "geometry": { "type": "Point", "coordinates": [ -78.432022766113278, 36.305009990692135 ] } },
{ "type": "Feature", "properties": { "CITIESX020": 21704, "FEATURE": "Populated Place", "NAME": "South Henderson", "POP_RANGE": "Undetermined", "POP_2000": -99999, "FIPS55": "63240", "COUNTY": "Vance County", "FIPS": "37181", "STATE": "NC", "STATE_FIPS": "37", "DISPLAY": 1 }, "geometry": { "type": "Point", "coordinates": [ -78.432022766113278, 36.305009990692135 ] } },
{ "type": "Feature", "properties": { "CITIESX020": 21766, "FEATURE": "County Seat", "NAME": "Oxford", "POP_RANGE": "0 - 9,999", "POP_2000": 8338, "FIPS55": "49800", "COUNTY": "Granville County", "FIPS": "37077", "STATE": "NC", "STATE_FIPS": "37", "DISPLAY": 0 }, "geometry": { "type": "Point", "coordinates": [ -78.432022766113278, 36.305009990692135 ] } },
{ "type": "Feature", "properties": { "CITIESX020": 21873, "FEATURE": "Populated Place", "NAME": "Kittrell", "POP_RANGE": "0 - 9,999", "POP_2000": 148, "FIPS55": "36020", "COUNTY": "Vance County", "FIPS": "37181", "STATE": "NC", "STATE_FIPS": "37", "DISPLAY": 0 }, "geometry": { "type": "Point", "coordinates": [ -78.432022766113278, 36.305009990692135 ] } },
{ "type": "Feature", "properties": { "CITIESX020": 22074, "FEATURE": "Populated Place", "NAME": "Reidsville", "POP_RANGE": "10,000 - 49,999", "POP_2000": 14485, "FIPS55": "55900", "COUNTY": "Rockingham County", "FIPS": "37157", "STATE": "NC", "STATE_FIPS": "37", "DISPLAY": 0 }, "geometry": { "type": "Point", "coordinates": [ -79.698722766113264, 36.332709990692138 ] } },
{ "type": "Feature", "properties": { "CITIESX020": 22274, "FEATURE": "Populated Place", "NAME": "Pilot Mountain", "POP_RANGE": "0 - 9,999", "POP_2000": 1281, "FIPS55": "51820", "COUNTY": "Surry County", "FIPS": "37171", "STATE": "NC", "STATE_FIPS": "37", "DISPLAY": 0 }, "geometry": { "type": "Point", "coordinates": [ -80.451122766113286, 36.358009990692139 ] } },
{ "type": "Feature", "properties": { "CITIESX020": 22368, "FEATURE": "Populated Place", "NAME": "Pinnacle", "POP_RANGE": "Undetermined", "POP_2000": -99999, "FIPS55": "52500", "COUNTY": "Stokes County", "FIPS": "37169", "STATE": "NC", "STATE_FIPS": "37", "DISPLAY": 0 }, "geometry": { "type": "Point", "coordinates": [ -80.451122766113286, 36.358009990692139 ] } },
{ "type": "Feature", "properties": { "CITIESX020": 22169, "FEATURE": "County Seat", "NAME": "Danbury", "POP_RANGE": "0 - 9,999", "POP_2000": 108, "FIPS55": "16240", "COUNTY": "Stokes County", "FIPS": "37169", "STATE": "NC", "STATE_FIPS": "37", "DISPLAY": 0 }, "geometry": { "type": "Point", "coordinates": [ -80.226022766113289, 36.377209990692137 ] } },
{ "type": "Feature", "properties": { "CITIESX020": 22312, "FEATURE": "Populated Place", "NAME": "Walnut Cove", "POP_RANGE": "0 - 9,999", "POP_2000": 1465, "FIPS55": "70780", "COUNTY": "Stokes County", "FIPS": "37169", "STATE": "NC", "STATE_FIPS": "37", "DISPLAY": 0 }, "geometry": { "type": "Point", "coordinates": [ -80.226022766113289, 36.377209990692137 ] } },
{ "type": "Feature", "properties": { "CITIESX020": 22419, "FEATURE": "Populated Place", "NAME": "Germanton", "POP_RANGE": "Undetermined", "POP_2000": -99999, "FIPS55": "25880", "COUNTY": "Stokes County", "FIPS": "37169", "STATE": "NC", "STATE_FIPS": "37", "DISPLAY": 0 }, "geometry": { "type": "Point", "coordinates": [ -80.226022766113289, 36.377209990692137 ] } },
{ "type": "Feature", "properties": { "CITIESX020": 21005, "FEATURE": "Populated Place", "NAME": "Conway", "POP_RANGE": "0 - 9,999", "POP_2000": 734, "FIPS55": "14400", "COUNTY": "Northampton County", "FIPS": "37131", "STATE": "NC", "STATE_FIPS": "37", "DISPLAY": 0 }, "geometry": { "type": "Point", "coordinates": [ -77.236622766113271, 36.401209990692138 ] } },
{ "type": "Feature", "properties": { "CITIESX020": 21207, "FEATURE": "Populated Place", "NAME": "Woodland", "POP_RANGE": "0 - 9,999", "POP_2000": 833, "FIPS55": "75340", "COUNTY": "Northampton County", "FIPS": "37131", "STATE": "NC", "STATE_FIPS": "37", "DISPLAY": 0 }, "geometry": { "type": "Point", "coordinates": [ -77.236622766113271, 36.401209990692138 ] } },
{ "type": "Feature", "properties": { "CITIESX020": 21211, "FEATURE": "Populated Place", "NAME": "Lasker", "POP_RANGE": "0 - 9,999", "POP_2000": 103, "FIPS55": "37000", "COUNTY": "Northampton County", "FIPS": "37131", "STATE": "NC", "STATE_FIPS": "37", "DISPLAY": 0 }, "geometry": { "type": "Point", "coordinates": [ -77.236622766113271, 36.401209990692138 ] } },
{ "type": "Feature", "properties": { "CITIESX020": 21234, "FEATURE": "Populated Place", "NAME": "George", "POP_RANGE": "Undetermined", "POP_2000": -99999, "FIPS55": "25820", "COUNTY": "Northampton County", "FIPS": "37131", "STATE": "NC", "STATE_FIPS": "37", "DISPLAY": 0 }, "geometry": { "type": "Point", "coordinates": [ -77.236622766113271, 36.401209990692138 ] } },
{ "type": "Feature", "properties": { "CITIESX020": 21337, "FEATURE": "Populated Place", "NAME": "Rich Square", "POP_RANGE": "0 - 9,999", "POP_2000": 931, "FIPS55": "56440", "COUNTY": "Northampton County", "FIPS": "37131", "STATE": "NC", "STATE_FIPS": "37", "DISPLAY": 0 }, "geometry": { "type": "Point", "coordinates": [ -77.236622766113271, 36.401209990692138 ] } },
{ "type": "Feature", "properties": { "CITIESX020": 21584, "FEATURE": "Populated Place", "NAME": "Milton", "POP_RANGE": "0 - 9,999", "POP_2000": 132, "FIPS55": "43300", "COUNTY": "Caswell County", "FIPS": "37033", "STATE": "NC", "STATE_FIPS": "37", "DISPLAY": 0 }, "geometry": { "type": "Point", "coordinates": [ -79.083822766113286, 36.407009990692131 ] } },
{ "type": "Feature", "properties": { "CITIESX020": 21694, "FEATURE": "Populated Place", "NAME": "Longhurst", "POP_RANGE": "Undetermined", "POP_2000": -99999, "FIPS55": "39100", "COUNTY": "Person County", "FIPS": "37145", "STATE": "NC", "STATE_FIPS": "37", "DISPLAY": 0 }, "geometry": { "type": "Point", "coordinates": [ -79.083822766113286, 36.407009990692131 ] } },
{ "type": "Feature", "properties": { "CITIESX020": 21764, "FEATURE": "County Seat", "NAME": "Roxboro", "POP_RANGE": "0 - 9,999", "POP_2000": 8696, "FIPS55": "58160", "COUNTY": "Person County", "FIPS": "37145", "STATE": "NC", "STATE_FIPS": "37", "DISPLAY": 0 }, "geometry": { "type": "Point", "coordinates": [ -79.083822766113286, 36.407009990692131 ] } },
{ "type": "Feature", "properties": { "CITIESX020": 21825, "FEATURE": "Populated Place", "NAME": "Leasburg", "POP_RANGE": "Undetermined", "POP_2000": -99999, "FIPS55": "37480", "COUNTY": "Caswell County", "FIPS": "37033", "STATE": "NC", "STATE_FIPS": "37", "DISPLAY": 0 }, "geometry": { "type": "Point", "coordinates": [ -79.083822766113286, 36.407009990692131 ] } },
{ "type": "Feature", "properties": { "CITIESX020": 21940, "FEATURE": "Populated Place", "NAME": "Timberlake", "POP_RANGE": "Undetermined", "POP_2000": -99999, "FIPS55": "67580", "COUNTY": "Person County", "FIPS": "37145", "STATE": "NC", "STATE_FIPS": "37", "DISPLAY": 0 }, "geometry": { "type": "Point", "coordinates": [ -79.083822766113286, 36.407009990692131 ] } },
{ "type": "Feature", "properties": { "CITIESX020": 22001, "FEATURE": "Populated Place", "NAME": "Hurdle Mills", "POP_RANGE": "Undetermined", "POP_2000": -99999, "FIPS55": "33200", "COUNTY": "Person County", "FIPS": "37145", "STATE": "NC", "STATE_FIPS": "37", "DISPLAY": 0 }, "geometry": { "type": "Point", "coordinates": [ -79.083822766113286, 36.407009990692131 ] } },
{ "type": "Feature", "properties": { "CITIESX020": 21073, "FEATURE": "Populated Place", "NAME": "Gaston", "POP_RANGE": "0 - 9,999", "POP_2000": 973, "FIPS55": "25560", "COUNTY": "Northampton County", "FIPS": "37131", "STATE": "NC", "STATE_FIPS": "37", "DISPLAY": 0 }, "geometry": { "type": "Point", "coordinates": [ -77.639322766113281, 36.416409990692131 ] } },
{ "type": "Feature", "properties": { "CITIESX020": 21138, "FEATURE": "Populated Place", "NAME": "Garysburg", "POP_RANGE": "0 - 9,999", "POP_2000": 1254, "FIPS55": "25540", "COUNTY": "Northampton County", "FIPS": "37131", "STATE": "NC", "STATE_FIPS": "37", "DISPLAY": 0 }, "geometry": { "type": "Point", "coordinates": [ -77.639322766113281, 36.416409990692131 ] } },
{ "type": "Feature", "properties": { "CITIESX020": 21156, "FEATURE": "Populated Place", "NAME": "Roanoke Rapids", "POP_RANGE": "10,000 - 49,999", "POP_2000": 16957, "FIPS55": "56900", "COUNTY": "Halifax County", "FIPS": "37083", "STATE": "NC", "STATE_FIPS": "37", "DISPLAY": 0 }, "geometry": { "type": "Point", "coordinates": [ -77.639322766113281, 36.416409990692131 ] } },
{ "type": "Feature", "properties": { "CITIESX020": 21183, "FEATURE": "Populated Place", "NAME": "South Rosemary", "POP_RANGE": "Undetermined", "POP_2000": -99999, "FIPS55": "63470", "COUNTY": "Halifax County", "FIPS": "37083", "STATE": "NC", "STATE_FIPS": "37", "DISPLAY": 1 }, "geometry": { "type": "Point", "coordinates": [ -77.639322766113281, 36.416409990692131 ] } },
{ "type": "Feature", "properties": { "CITIESX020": 21187, "FEATURE": "Populated Place", "NAME": "Weldon", "POP_RANGE": "0 - 9,999", "POP_2000": 1374, "FIPS55": "71780", "COUNTY": "Halifax County", "FIPS": "37083", "STATE": "NC", "STATE_FIPS": "37", "DISPLAY": 0 }, "geometry": { "type": "Point", "coordinates": [ -77.639322766113281, 36.416409990692131 ] } },
{ "type": "Feature", "properties": { "CITIESX020": 21244, "FEATURE": "Populated Place", "NAME": "South Weldon", "POP_RANGE": "Undetermined", "POP_2000": -99999, "FIPS55": "63560", "COUNTY": "Halifax County", "FIPS": "37083", "STATE": "NC", "STATE_FIPS": "37", "DISPLAY": 1 }, "geometry": { "type": "Point", "coordinates": [ -77.639322766113281, 36.416409990692131 ] } },
{ "type": "Feature", "properties": { "CITIESX020": 21368, "FEATURE": "County Seat", "NAME": "Halifax", "POP_RANGE": "0 - 9,999", "POP_2000": 344, "FIPS55": "28920", "COUNTY": "Halifax County", "FIPS": "37083", "STATE": "NC", "STATE_FIPS": "37", "DISPLAY": 0 }, "geometry": { "type": "Point", "coordinates": [ -77.639322766113281, 36.416409990692131 ] } },
{ "type": "Feature", "properties": { "CITIESX020": 20994, "FEATURE": "Populated Place", "NAME": "Seaboard", "POP_RANGE": "0 - 9,999", "POP_2000": 695, "FIPS55": "59980", "COUNTY": "Northampton County", "FIPS": "37131", "STATE": "NC", "STATE_FIPS": "37", "DISPLAY": 0 }, "geometry": { "type": "Point", "coordinates": [ -77.431322766113283, 36.439909990692136 ] } },
{ "type": "Feature", "properties": { "CITIESX020": 21186, "FEATURE": "County Seat", "NAME": "Jackson", "POP_RANGE": "0 - 9,999", "POP_2000": 695, "FIPS55": "34000", "COUNTY": "Northampton County", "FIPS": "37131", "STATE": "NC", "STATE_FIPS": "37", "DISPLAY": 0 }, "geometry": { "type": "Point", "coordinates": [ -77.431322766113283, 36.439909990692136 ] } },
{ "type": "Feature", "properties": { "CITIESX020": 20801, "FEATURE": "Populated Place", "NAME": "Brodnax", "POP_RANGE": "0 - 9,999", "POP_2000": 317, "FIPS55": "10072", "COUNTY": "Brunswick County", "FIPS": "51025", "STATE": "VA", "STATE_FIPS": "51", "DISPLAY": 0 }, "geometry": { "type": "Point", "coordinates": [ -78.061522766113285, 36.485209990692134 ] } },
{ "type": "Feature", "properties": { "CITIESX020": 20802, "FEATURE": "Populated Place", "NAME": "South Hill", "POP_RANGE": "0 - 9,999", "POP_2000": 4403, "FIPS55": "73904", "COUNTY": "Mecklenburg County", "FIPS": "51117", "STATE": "VA", "STATE_FIPS": "51", "DISPLAY": 0 }, "geometry": { "type": "Point", "coordinates": [ -78.061522766113285, 36.485209990692134 ] } },
{ "type": "Feature", "properties": { "CITIESX020": 20845, "FEATURE": "Populated Place", "NAME": "La Crosse", "POP_RANGE": "0 - 9,999", "POP_2000": 618, "FIPS55": "43176", "COUNTY": "Mecklenburg County", "FIPS": "51117", "STATE": "VA", "STATE_FIPS": "51", "DISPLAY": 0 }, "geometry": { "type": "Point", "coordinates": [ -78.061522766113285, 36.485209990692134 ] } },
{ "type": "Feature", "properties": { "CITIESX020": 21064, "FEATURE": "Populated Place", "NAME": "Ebony", "POP_RANGE": "Undetermined", "POP_2000": -99999, "FIPS55": "24816", "COUNTY": "Brunswick County", "FIPS": "51025", "STATE": "VA", "STATE_FIPS": "51", "DISPLAY": 0 }, "geometry": { "type": "Point", "coordinates": [ -78.061522766113285, 36.485209990692134 ] } },
{ "type": "Feature", "properties": { "CITIESX020": 21091, "FEATURE": "Populated Place", "NAME": "Bracey", "POP_RANGE": "Undetermined", "POP_2000": -99999, "FIPS55": "09064", "COUNTY": "Mecklenburg County", "FIPS": "51117", "STATE": "VA", "STATE_FIPS": "51", "DISPLAY": 0 }, "geometry": { "type": "Point", "coordinates": [ -78.061522766113285, 36.485209990692134 ] } },
{ "type": "Feature", "properties": { "CITIESX020": 21298, "FEATURE": "Populated Place", "NAME": "Littleton", "POP_RANGE": "0 - 9,999", "POP_2000": 692, "FIPS55": "38680", "COUNTY": "Halifax County", "FIPS": "37083", "STATE": "NC", "STATE_FIPS": "37", "DISPLAY": 0 }, "geometry": { "type": "Point", "coordinates": [ -78.061522766113285, 36.485209990692134 ] } },
{ "type": "Feature", "properties": { "CITIESX020": 21309, "FEATURE": "Populated Place", "NAME": "Wise", "POP_RANGE": "Undetermined", "POP_2000": -99999, "FIPS55": "75100", "COUNTY": "Warren County", "FIPS": "37185", "STATE": "NC", "STATE_FIPS": "37", "DISPLAY": 0 }, "geometry": { "type": "Point", "coordinates": [ -78.061522766113285, 36.485209990692134 ] } },
{ "type": "Feature", "properties": { "CITIESX020": 21343, "FEATURE": "Populated Place", "NAME": "Vaughan", "POP_RANGE": "Undetermined", "POP_2000": -99999, "FIPS55": "69860", "COUNTY": "Warren County", "FIPS": "37185", "STATE": "NC", "STATE_FIPS": "37", "DISPLAY": 0 }, "geometry": { "type": "Point", "coordinates": [ -78.061522766113285, 36.485209990692134 ] } },
{ "type": "Feature", "properties": { "CITIESX020": 21361, "FEATURE": "Populated Place", "NAME": "Macon", "POP_RANGE": "0 - 9,999", "POP_2000": 115, "FIPS55": "40540", "COUNTY": "Warren County", "FIPS": "37185", "STATE": "NC", "STATE_FIPS": "37", "DISPLAY": 0 }, "geometry": { "type": "Point", "coordinates": [ -78.061522766113285, 36.485209990692134 ] } },
{ "type": "Feature", "properties": { "CITIESX020": 21389, "FEATURE": "Populated Place", "NAME": "Norlina", "POP_RANGE": "0 - 9,999", "POP_2000": 1107, "FIPS55": "47240", "COUNTY": "Warren County", "FIPS": "37185", "STATE": "NC", "STATE_FIPS": "37", "DISPLAY": 0 }, "geometry": { "type": "Point", "coordinates": [ -78.061522766113285, 36.485209990692134 ] } },
{ "type": "Feature", "properties": { "CITIESX020": 21451, "FEATURE": "County Seat", "NAME": "Warrenton", "POP_RANGE": "0 - 9,999", "POP_2000": 811, "FIPS55": "71100", "COUNTY": "Warren County", "FIPS": "37185", "STATE": "NC", "STATE_FIPS": "37", "DISPLAY": 0 }, "geometry": { "type": "Point", "coordinates": [ -78.061522766113285, 36.485209990692134 ] } },
{ "type": "Feature", "properties": { "CITIESX020": 21543, "FEATURE": "Populated Place", "NAME": "Axton", "POP_RANGE": "Undetermined", "POP_2000": -99999, "FIPS55": "03784", "COUNTY": "Henry County", "FIPS": "51089", "STATE": "VA", "STATE_FIPS": "51", "DISPLAY": 0 }, "geometry": { "type": "Point", "coordinates": [ -79.939522766113271, 36.509009990692135 ] } },
{ "type": "Feature", "properties": { "CITIESX020": 21591, "FEATURE": "Populated Place", "NAME": "Chatmoss", "POP_RANGE": "Undetermined", "POP_2000": -99999, "FIPS55": "15048", "COUNTY": "Henry County", "FIPS": "51089", "STATE": "VA", "STATE_FIPS": "51", "DISPLAY": 0 }, "geometry": { "type": "Point", "coordinates": [ -79.939522766113271, 36.509009990692135 ] } },
{ "type": "Feature", "properties": { "CITIESX020": 21750, "FEATURE": "Populated Place", "NAME": "Ridgeway", "POP_RANGE": "0 - 9,999", "POP_2000": 775, "FIPS55": "67208", "COUNTY": "Henry County", "FIPS": "51089", "STATE": "VA", "STATE_FIPS": "51", "DISPLAY": 0 }, "geometry": { "type": "Point", "coordinates": [ -79.939522766113271, 36.509009990692135 ] } },
{ "type": "Feature", "properties": { "CITIESX020": 21841, "FEATURE": "Populated Place", "NAME": "Price", "POP_RANGE": "Undetermined", "POP_2000": -99999, "FIPS55": "53780", "COUNTY": "Rockingham County", "FIPS": "37157", "STATE": "NC", "STATE_FIPS": "37", "DISPLAY": 0 }, "geometry": { "type": "Point", "coordinates": [ -79.939522766113271, 36.509009990692135 ] } },
{ "type": "Feature", "properties": { "CITIESX020": 21883, "FEATURE": "Populated Place", "NAME": "Eden", "POP_RANGE": "10,000 - 49,999", "POP_2000": 15908, "FIPS55": "20080", "COUNTY": "Rockingham County", "FIPS": "37157", "STATE": "NC", "STATE_FIPS": "37", "DISPLAY": 0 }, "geometry": { "type": "Point", "coordinates": [ -79.939522766113271, 36.509009990692135 ] } },
{ "type": "Feature", "properties": { "CITIESX020": 21969, "FEATURE": "Populated Place", "NAME": "Stoneville", "POP_RANGE": "0 - 9,999", "POP_2000": 1002, "FIPS55": "65100", "COUNTY": "Rockingham County", "FIPS": "37157", "STATE": "NC", "STATE_FIPS": "37", "DISPLAY": 0 }, "geometry": { "type": "Point", "coordinates": [ -79.939522766113271, 36.509009990692135 ] } },
{ "type": "Feature", "properties": { "CITIESX020": 21979, "FEATURE": "Populated Place", "NAME": "Sandy Ridge", "POP_RANGE": "Undetermined", "POP_2000": -99999, "FIPS55": "59260", "COUNTY": "Stokes County", "FIPS": "37169", "STATE": "NC", "STATE_FIPS": "37", "DISPLAY": 0 }, "geometry": { "type": "Point", "coordinates": [ -79.939522766113271, 36.509009990692135 ] } },
{ "type": "Feature", "properties": { "CITIESX020": 22035, "FEATURE": "County Seat", "NAME": "Wentworth", "POP_RANGE": "0 - 9,999", "POP_2000": 2779, "FIPS55": "71900", "COUNTY": "Rockingham County", "FIPS": "37157", "STATE": "NC", "STATE_FIPS": "37", "DISPLAY": 0 }, "geometry": { "type": "Point", "coordinates": [ -79.939522766113271, 36.509009990692135 ] } },
{ "type": "Feature", "properties": { "CITIESX020": 22078, "FEATURE": "Populated Place", "NAME": "Mayodan", "POP_RANGE": "0 - 9,999", "POP_2000": 2417, "FIPS55": "42060", "COUNTY": "Rockingham County", "FIPS": "37157", "STATE": "NC", "STATE_FIPS": "37", "DISPLAY": 0 }, "geometry": { "type": "Point", "coordinates": [ -79.939522766113271, 36.509009990692135 ] } },
{ "type": "Feature", "properties": { "CITIESX020": 22126, "FEATURE": "Populated Place", "NAME": "Madison", "POP_RANGE": "0 - 9,999", "POP_2000": 2262, "FIPS55": "40560", "COUNTY": "Rockingham County", "FIPS": "37157", "STATE": "NC", "STATE_FIPS": "37", "DISPLAY": 0 }, "geometry": { "type": "Point", "coordinates": [ -79.939522766113271, 36.509009990692135 ] } },
{ "type": "Feature", "properties": { "CITIESX020": 22245, "FEATURE": "Populated Place", "NAME": "Pine Hall", "POP_RANGE": "Undetermined", "POP_2000": -99999, "FIPS55": "51900", "COUNTY": "Stokes County", "FIPS": "37169", "STATE": "NC", "STATE_FIPS": "37", "DISPLAY": 0 }, "geometry": { "type": "Point", "coordinates": [ -79.939522766113271, 36.509009990692135 ] } },
{ "type": "Feature", "properties": { "CITIESX020": 21560, "FEATURE": "Populated Place", "NAME": "Danville", "POP_RANGE": "10,000 - 49,999", "POP_2000": 48411, "FIPS55": "21344", "COUNTY": "Danville City", "FIPS": "51590", "STATE": "VA", "STATE_FIPS": "51", "DISPLAY": 0 }, "geometry": { "type": "Point", "coordinates": [ -79.453622766113284, 36.519909990692135 ] } },
{ "type": "Feature", "properties": { "CITIESX020": 21578, "FEATURE": "Populated Place", "NAME": "Brosville", "POP_RANGE": "Undetermined", "POP_2000": -99999, "FIPS55": "10360", "COUNTY": "Pittsylvania County", "FIPS": "51143", "STATE": "VA", "STATE_FIPS": "51", "DISPLAY": 0 }, "geometry": { "type": "Point", "coordinates": [ -79.453622766113284, 36.519909990692135 ] } },
{ "type": "Feature", "properties": { "CITIESX020": 21698, "FEATURE": "Populated Place", "NAME": "Providence", "POP_RANGE": "Undetermined", "POP_2000": -99999, "FIPS55": "54020", "COUNTY": "Caswell County", "FIPS": "37033", "STATE": "NC", "STATE_FIPS": "37", "DISPLAY": 0 }, "geometry": { "type": "Point", "coordinates": [ -79.453622766113284, 36.519909990692135 ] } },
{ "type": "Feature", "properties": { "CITIESX020": 21729, "FEATURE": "Populated Place", "NAME": "Pelham", "POP_RANGE": "Undetermined", "POP_2000": -99999, "FIPS55": "51060", "COUNTY": "Caswell County", "FIPS": "37033", "STATE": "NC", "STATE_FIPS": "37", "DISPLAY": 0 }, "geometry": { "type": "Point", "coordinates": [ -79.453622766113284, 36.519909990692135 ] } },
{ "type": "Feature", "properties": { "CITIESX020": 21878, "FEATURE": "Populated Place", "NAME": "Ruffin", "POP_RANGE": "Undetermined", "POP_2000": -99999, "FIPS55": "58340", "COUNTY": "Rockingham County", "FIPS": "37157", "STATE": "NC", "STATE_FIPS": "37", "DISPLAY": 0 }, "geometry": { "type": "Point", "coordinates": [ -79.453622766113284, 36.519909990692135 ] } },
{ "type": "Feature", "properties": { "CITIESX020": 21881, "FEATURE": "County Seat", "NAME": "Yanceyville", "POP_RANGE": "0 - 9,999", "POP_2000": 2091, "FIPS55": "76000", "COUNTY": "Caswell County", "FIPS": "37033", "STATE": "NC", "STATE_FIPS": "37", "DISPLAY": 0 }, "geometry": { "type": "Point", "coordinates": [ -79.453622766113284, 36.519909990692135 ] } },
{ "type": "Feature", "properties": { "CITIESX020": 21375, "FEATURE": "Populated Place", "NAME": "Nelson", "POP_RANGE": "Undetermined", "POP_2000": -99999, "FIPS55": "55416", "COUNTY": "Mecklenburg County", "FIPS": "51117", "STATE": "VA", "STATE_FIPS": "51", "DISPLAY": 0 }, "geometry": { "type": "Point", "coordinates": [ -78.739022766113266, 36.554109990692133 ] } },
{ "type": "Feature", "properties": { "CITIESX020": 21431, "FEATURE": "Populated Place", "NAME": "Virgilina", "POP_RANGE": "0 - 9,999", "POP_2000": 159, "FIPS55": "81312", "COUNTY": "Halifax County", "FIPS": "51083", "STATE": "VA", "STATE_FIPS": "51", "DISPLAY": 0 }, "geometry": { "type": "Point", "coordinates": [ -78.739022766113266, 36.554109990692133 ] } },
{ "type": "Feature", "properties": { "CITIESX020": 21751, "FEATURE": "Populated Place", "NAME": "Patrick Springs", "POP_RANGE": "Undetermined", "POP_2000": -99999, "FIPS55": "60984", "COUNTY": "Patrick County", "FIPS": "51141", "STATE": "VA", "STATE_FIPS": "51", "DISPLAY": 0 }, "geometry": { "type": "Point", "coordinates": [ -80.224522766113267, 36.594609990692135 ] } },
{ "type": "Feature", "properties": { "CITIESX020": 21775, "FEATURE": "County Seat", "NAME": "Stuart", "POP_RANGE": "0 - 9,999", "POP_2000": 961, "FIPS55": "76256", "COUNTY": "Patrick County", "FIPS": "51141", "STATE": "VA", "STATE_FIPS": "51", "DISPLAY": 0 }, "geometry": { "type": "Point", "coordinates": [ -80.224522766113267, 36.594609990692135 ] } },
{ "type": "Feature", "properties": { "CITIESX020": 21085, "FEATURE": "County Seat", "NAME": "Halifax", "POP_RANGE": "0 - 9,999", "POP_2000": 1389, "FIPS55": "34064", "COUNTY": "Halifax County", "FIPS": "51083", "STATE": "VA", "STATE_FIPS": "51", "DISPLAY": 0 }, "geometry": { "type": "Point", "coordinates": [ -78.940522766113276, 36.624909990692132 ] } },
{ "type": "Feature", "properties": { "CITIESX020": 21202, "FEATURE": "Populated Place", "NAME": "South Boston", "POP_RANGE": "0 - 9,999", "POP_2000": 8491, "FIPS55": "73712", "COUNTY": "Halifax County", "FIPS": "51083", "STATE": "VA", "STATE_FIPS": "51", "DISPLAY": 0 }, "geometry": { "type": "Point", "coordinates": [ -78.940522766113276, 36.624909990692132 ] } },
{ "type": "Feature", "properties": { "CITIESX020": 21341, "FEATURE": "Populated Place", "NAME": "Cluster Springs", "POP_RANGE": "Undetermined", "POP_2000": -99999, "FIPS55": "17776", "COUNTY": "Halifax County", "FIPS": "51083", "STATE": "VA", "STATE_FIPS": "51", "DISPLAY": 0 }, "geometry": { "type": "Point", "coordinates": [ -78.940522766113276, 36.624909990692132 ] } },
{ "type": "Feature", "properties": { "CITIESX020": 21455, "FEATURE": "Populated Place", "NAME": "Alton", "POP_RANGE": "Undetermined", "POP_2000": -99999, "FIPS55": "01560", "COUNTY": "Halifax County", "FIPS": "51083", "STATE": "VA", "STATE_FIPS": "51", "DISPLAY": 0 }, "geometry": { "type": "Point", "coordinates": [ -78.940522766113276, 36.624909990692132 ] } },
{ "type": "Feature", "properties": { "CITIESX020": 21507, "FEATURE": "Populated Place", "NAME": "Woolwine", "POP_RANGE": "Undetermined", "POP_2000": -99999, "FIPS55": "87792", "COUNTY": "Patrick County", "FIPS": "51141", "STATE": "VA", "STATE_FIPS": "51", "DISPLAY": 1 }, "geometry": { "type": "Point", "coordinates": [ -80.430822766113266, 36.693409990692132 ] } },
{ "type": "Feature", "properties": { "CITIESX020": 21661, "FEATURE": "Populated Place", "NAME": "Vesta", "POP_RANGE": "Undetermined", "POP_2000": -99999, "FIPS55": "80896", "COUNTY": "Patrick County", "FIPS": "51141", "STATE": "VA", "STATE_FIPS": "51", "DISPLAY": 1 }, "geometry": { "type": "Point", "coordinates": [ -80.430822766113266, 36.693409990692132 ] } },
{ "type": "Feature", "properties": { "CITIESX020": 21928, "FEATURE": "Populated Place", "NAME": "Ararat", "POP_RANGE": "Undetermined", "POP_2000": -99999, "FIPS55": "02152", "COUNTY": "Patrick County", "FIPS": "51141", "STATE": "VA", "STATE_FIPS": "51", "DISPLAY": 1 }, "geometry": { "type": "Point", "coordinates": [ -80.430822766113266, 36.693409990692132 ] } },
{ "type": "Feature", "properties": { "CITIESX020": 20792, "FEATURE": "Populated Place", "NAME": "Chase City", "POP_RANGE": "0 - 9,999", "POP_2000": 2457, "FIPS55": "14984", "COUNTY": "Mecklenburg County", "FIPS": "51117", "STATE": "VA", "STATE_FIPS": "51", "DISPLAY": 0 }, "geometry": { "type": "Point", "coordinates": [ -78.439022766113283, 36.697809990692136 ] } },
{ "type": "Feature", "properties": { "CITIESX020": 21053, "FEATURE": "County Seat", "NAME": "Boydton", "POP_RANGE": "0 - 9,999", "POP_2000": 454, "FIPS55": "09016", "COUNTY": "Mecklenburg County", "FIPS": "51117", "STATE": "VA", "STATE_FIPS": "51", "DISPLAY": 0 }, "geometry": { "type": "Point", "coordinates": [ -78.439022766113283, 36.697809990692136 ] } },
{ "type": "Feature", "properties": { "CITIESX020": 21205, "FEATURE": "Populated Place", "NAME": "Clarksville", "POP_RANGE": "0 - 9,999", "POP_2000": 1329, "FIPS55": "16992", "COUNTY": "Mecklenburg County", "FIPS": "51117", "STATE": "VA", "STATE_FIPS": "51", "DISPLAY": 0 }, "geometry": { "type": "Point", "coordinates": [ -78.439022766113283, 36.697809990692136 ] } },
{ "type": "Feature", "properties": { "CITIESX020": 20267, "FEATURE": "Populated Place", "NAME": "Alberta", "POP_RANGE": "0 - 9,999", "POP_2000": 306, "FIPS55": "00724", "COUNTY": "Brunswick County", "FIPS": "51025", "STATE": "VA", "STATE_FIPS": "51", "DISPLAY": 0 }, "geometry": { "type": "Point", "coordinates": [ -77.80452276611328, 36.703409990692137 ] } },
{ "type": "Feature", "properties": { "CITIESX020": 20469, "FEATURE": "Populated Place", "NAME": "Edgerton", "POP_RANGE": "Undetermined", "POP_2000": -99999, "FIPS55": "24944", "COUNTY": "Brunswick County", "FIPS": "51025", "STATE": "VA", "STATE_FIPS": "51", "DISPLAY": 0 }, "geometry": { "type": "Point", "coordinates": [ -77.80452276611328, 36.703409990692137 ] } },
{ "type": "Feature", "properties": { "CITIESX020": 20570, "FEATURE": "County Seat", "NAME": "Lawrenceville", "POP_RANGE": "0 - 9,999", "POP_2000": 1275, "FIPS55": "44520", "COUNTY": "Brunswick County", "FIPS": "51025", "STATE": "VA", "STATE_FIPS": "51", "DISPLAY": 0 }, "geometry": { "type": "Point", "coordinates": [ -77.80452276611328, 36.703409990692137 ] } },
{ "type": "Feature", "properties": { "CITIESX020": 20894, "FEATURE": "Populated Place", "NAME": "Triplet", "POP_RANGE": "Undetermined", "POP_2000": -99999, "FIPS55": "79408", "COUNTY": "Brunswick County", "FIPS": "51025", "STATE": "VA", "STATE_FIPS": "51", "DISPLAY": 0 }, "geometry": { "type": "Point", "coordinates": [ -77.80452276611328, 36.703409990692137 ] } },
{ "type": "Feature", "properties": { "CITIESX020": 21209, "FEATURE": "Populated Place", "NAME": "Ingram", "POP_RANGE": "Undetermined", "POP_2000": -99999, "FIPS55": "39864", "COUNTY": "Halifax County", "FIPS": "51083", "STATE": "VA", "STATE_FIPS": "51", "DISPLAY": 0 }, "geometry": { "type": "Point", "coordinates": [ -79.139622766113263, 36.71090999069213 ] } },
{ "type": "Feature", "properties": { "CITIESX020": 21316, "FEATURE": "Populated Place", "NAME": "Elmo", "POP_RANGE": "Undetermined", "POP_2000": -99999, "FIPS55": "25600", "COUNTY": "Halifax County", "FIPS": "51083", "STATE": "VA", "STATE_FIPS": "51", "DISPLAY": 0 }, "geometry": { "type": "Point", "coordinates": [ -79.139622766113263, 36.71090999069213 ] } },
{ "type": "Feature", "properties": { "CITIESX020": 21359, "FEATURE": "Populated Place", "NAME": "Henry", "POP_RANGE": "Undetermined", "POP_2000": -99999, "FIPS55": "36408", "COUNTY": "Franklin County", "FIPS": "51067", "STATE": "VA", "STATE_FIPS": "51", "DISPLAY": 0 }, "geometry": { "type": "Point", "coordinates": [ -79.870122766113269, 36.743409990692136 ] } },
{ "type": "Feature", "properties": { "CITIESX020": 21474, "FEATURE": "Populated Place", "NAME": "Bassett", "POP_RANGE": "Undetermined", "POP_2000": -99999, "FIPS55": "04872", "COUNTY": "Henry County", "FIPS": "51089", "STATE": "VA", "STATE_FIPS": "51", "DISPLAY": 1 }, "geometry": { "type": "Point", "coordinates": [ -79.870122766113269, 36.743409990692136 ] } },
{ "type": "Feature", "properties": { "CITIESX020": 21475, "FEATURE": "Populated Place", "NAME": "Stanleytown", "POP_RANGE": "Undetermined", "POP_2000": -99999, "FIPS55": "75040", "COUNTY": "Henry County", "FIPS": "51089", "STATE": "VA", "STATE_FIPS": "51", "DISPLAY": 1 }, "geometry": { "type": "Point", "coordinates": [ -79.870122766113269, 36.743409990692136 ] } },
{ "type": "Feature", "properties": { "CITIESX020": 21519, "FEATURE": "Populated Place", "NAME": "Collinsville", "POP_RANGE": "Undetermined", "POP_2000": -99999, "FIPS55": "18352", "COUNTY": "Henry County", "FIPS": "51089", "STATE": "VA", "STATE_FIPS": "51", "DISPLAY": 1 }, "geometry": { "type": "Point", "coordinates": [ -79.870122766113269, 36.743409990692136 ] } },
{ "type": "Feature", "properties": { "CITIESX020": 21542, "FEATURE": "County Seat", "NAME": "Martinsville", "POP_RANGE": "10,000 - 49,999", "POP_2000": 15416, "FIPS55": "49784", "COUNTY": "Martinsville City", "FIPS": "51690", "STATE": "VA", "STATE_FIPS": "51", "DISPLAY": 0 }, "geometry": { "type": "Point", "coordinates": [ -79.870122766113269, 36.743409990692136 ] } },
{ "type": "Feature", "properties": { "CITIESX020": 21544, "FEATURE": "Populated Place", "NAME": "Villa Heights", "POP_RANGE": "Undetermined", "POP_2000": -99999, "FIPS55": "81152", "COUNTY": "Henry County", "FIPS": "51089", "STATE": "VA", "STATE_FIPS": "51", "DISPLAY": 1 }, "geometry": { "type": "Point", "coordinates": [ -79.870122766113269, 36.743409990692136 ] } },
{ "type": "Feature", "properties": { "CITIESX020": 21545, "FEATURE": "Populated Place", "NAME": "Fieldale", "POP_RANGE": "Undetermined", "POP_2000": -99999, "FIPS55": "27744", "COUNTY": "Henry County", "FIPS": "51089", "STATE": "VA", "STATE_FIPS": "51", "DISPLAY": 1 }, "geometry": { "type": "Point", "coordinates": [ -79.870122766113269, 36.743409990692136 ] } },
{ "type": "Feature", "properties": { "CITIESX020": 21677, "FEATURE": "Populated Place", "NAME": "Horse Pasture", "POP_RANGE": "Undetermined", "POP_2000": -99999, "FIPS55": "38552", "COUNTY": "Henry County", "FIPS": "51089", "STATE": "VA", "STATE_FIPS": "51", "DISPLAY": 1 }, "geometry": { "type": "Point", "coordinates": [ -79.870122766113269, 36.743409990692136 ] } },
{ "type": "Feature", "properties": { "CITIESX020": 21724, "FEATURE": "Populated Place", "NAME": "Spencer", "POP_RANGE": "Undetermined", "POP_2000": -99999, "FIPS55": "74368", "COUNTY": "Henry County", "FIPS": "51089", "STATE": "VA", "STATE_FIPS": "51", "DISPLAY": 0 }, "geometry": { "type": "Point", "coordinates": [ -79.870122766113269, 36.743409990692136 ] } },
{ "type": "Feature", "properties": { "CITIESX020": 21158, "FEATURE": "County Seat", "NAME": "Chatham", "POP_RANGE": "0 - 9,999", "POP_2000": 1338, "FIPS55": "15000", "COUNTY": "Pittsylvania County", "FIPS": "51143", "STATE": "VA", "STATE_FIPS": "51", "DISPLAY": 0 }, "geometry": { "type": "Point", "coordinates": [ -79.369722766113284, 36.760409990692139 ] } },
{ "type": "Feature", "properties": { "CITIESX020": 21201, "FEATURE": "Populated Place", "NAME": "Spring Garden", "POP_RANGE": "Undetermined", "POP_2000": -99999, "FIPS55": "74688", "COUNTY": "Pittsylvania County", "FIPS": "51143", "STATE": "VA", "STATE_FIPS": "51", "DISPLAY": 0 }, "geometry": { "type": "Point", "coordinates": [ -79.369722766113284, 36.760409990692139 ] } },
{ "type": "Feature", "properties": { "CITIESX020": 21281, "FEATURE": "Populated Place", "NAME": "Dry Fork", "POP_RANGE": "Undetermined", "POP_2000": -99999, "FIPS55": "23600", "COUNTY": "Pittsylvania County", "FIPS": "51143", "STATE": "VA", "STATE_FIPS": "51", "DISPLAY": 0 }, "geometry": { "type": "Point", "coordinates": [ -79.369722766113284, 36.760409990692139 ] } },
{ "type": "Feature", "properties": { "CITIESX020": 21408, "FEATURE": "Populated Place", "NAME": "Blairs", "POP_RANGE": "Undetermined", "POP_2000": -99999, "FIPS55": "07944", "COUNTY": "Pittsylvania County", "FIPS": "51143", "STATE": "VA", "STATE_FIPS": "51", "DISPLAY": 0 }, "geometry": { "type": "Point", "coordinates": [ -79.369722766113284, 36.760409990692139 ] } },
{ "type": "Feature", "properties": { "CITIESX020": 20919, "FEATURE": "Populated Place", "NAME": "Penhook", "POP_RANGE": "Undetermined", "POP_2000": -99999, "FIPS55": "61464", "COUNTY": "Franklin County", "FIPS": "51067", "STATE": "VA", "STATE_FIPS": "51", "DISPLAY": 0 }, "geometry": { "type": "Point", "coordinates": [ -79.590922766113266, 36.813709990692132 ] } },
{ "type": "Feature", "properties": { "CITIESX020": 21231, "FEATURE": "Populated Place", "NAME": "Callands", "POP_RANGE": "Undetermined", "POP_2000": -99999, "FIPS55": "12152", "COUNTY": "Pittsylvania County", "FIPS": "51143", "STATE": "VA", "STATE_FIPS": "51", "DISPLAY": 0 }, "geometry": { "type": "Point", "coordinates": [ -79.590922766113266, 36.813709990692132 ] } },
{ "type": "Feature", "properties": { "CITIESX020": 20102, "FEATURE": "Populated Place", "NAME": "Victoria", "POP_RANGE": "0 - 9,999", "POP_2000": 1821, "FIPS55": "81024", "COUNTY": "Lunenburg County", "FIPS": "51111", "STATE": "VA", "STATE_FIPS": "51", "DISPLAY": 0 }, "geometry": { "type": "Point", "coordinates": [ -78.158022766113277, 36.848709990692136 ] } },
{ "type": "Feature", "properties": { "CITIESX020": 20136, "FEATURE": "Populated Place", "NAME": "Kenbridge", "POP_RANGE": "0 - 9,999", "POP_2000": 1253, "FIPS55": "41832", "COUNTY": "Lunenburg County", "FIPS": "51111", "STATE": "VA", "STATE_FIPS": "51", "DISPLAY": 0 }, "geometry": { "type": "Point", "coordinates": [ -78.158022766113277, 36.848709990692136 ] } },
{ "type": "Feature", "properties": { "CITIESX020": 20213, "FEATURE": "Populated Place", "NAME": "Dundas", "POP_RANGE": "Undetermined", "POP_2000": -99999, "FIPS55": "23888", "COUNTY": "Lunenburg County", "FIPS": "51111", "STATE": "VA", "STATE_FIPS": "51", "DISPLAY": 0 }, "geometry": { "type": "Point", "coordinates": [ -78.158022766113277, 36.848709990692136 ] } },
{ "type": "Feature", "properties": { "CITIESX020": 20224, "FEATURE": "County Seat", "NAME": "Lunenburg", "POP_RANGE": "Undetermined", "POP_2000": -99999, "FIPS55": "47496", "COUNTY": "Lunenburg County", "FIPS": "51111", "STATE": "VA", "STATE_FIPS": "51", "DISPLAY": 0 }, "geometry": { "type": "Point", "coordinates": [ -78.158022766113277, 36.848709990692136 ] } },
{ "type": "Feature", "properties": { "CITIESX020": 20878, "FEATURE": "Populated Place", "NAME": "Union Level", "POP_RANGE": "Undetermined", "POP_2000": -99999, "FIPS55": "80016", "COUNTY": "Mecklenburg County", "FIPS": "51117", "STATE": "VA", "STATE_FIPS": "51", "DISPLAY": 0 }, "geometry": { "type": "Point", "coordinates": [ -78.158022766113277, 36.848709990692136 ] } },
{ "type": "Feature", "properties": { "CITIESX020": 20013, "FEATURE": "Populated Place", "NAME": "Cullen", "POP_RANGE": "Undetermined", "POP_2000": -99999, "FIPS55": "20704", "COUNTY": "Charlotte County", "FIPS": "51037", "STATE": "VA", "STATE_FIPS": "51", "DISPLAY": 0 }, "geometry": { "type": "Point", "coordinates": [ -78.678522766113275, 36.934309990692135 ] } },
{ "type": "Feature", "properties": { "CITIESX020": 20176, "FEATURE": "Populated Place", "NAME": "Phenix", "POP_RANGE": "0 - 9,999", "POP_2000": 200, "FIPS55": "61896", "COUNTY": "Charlotte County", "FIPS": "51037", "STATE": "VA", "STATE_FIPS": "51", "DISPLAY": 0 }, "geometry": { "type": "Point", "coordinates": [ -78.678522766113275, 36.934309990692135 ] } },
{ "type": "Feature", "properties": { "CITIESX020": 20181, "FEATURE": "County Seat", "NAME": "Charlotte Court House", "POP_RANGE": "0 - 9,999", "POP_2000": 404, "FIPS55": "14952", "COUNTY": "Charlotte County", "FIPS": "51037", "STATE": "VA", "STATE_FIPS": "51", "DISPLAY": 0 }, "geometry": { "type": "Point", "coordinates": [ -78.678522766113275, 36.934309990692135 ] } },
{ "type": "Feature", "properties": { "CITIESX020": 20344, "FEATURE": "Populated Place", "NAME": "Drakes Branch", "POP_RANGE": "0 - 9,999", "POP_2000": 504, "FIPS55": "23376", "COUNTY": "Charlotte County", "FIPS": "51037", "STATE": "VA", "STATE_FIPS": "51", "DISPLAY": 0 }, "geometry": { "type": "Point", "coordinates": [ -78.678522766113275, 36.934309990692135 ] } },
{ "type": "Feature", "properties": { "CITIESX020": 20571, "FEATURE": "Populated Place", "NAME": "Saxe", "POP_RANGE": "Undetermined", "POP_2000": -99999, "FIPS55": "70560", "COUNTY": "Charlotte County", "FIPS": "51037", "STATE": "VA", "STATE_FIPS": "51", "DISPLAY": 0 }, "geometry": { "type": "Point", "coordinates": [ -78.678522766113275, 36.934309990692135 ] } },
{ "type": "Feature", "properties": { "CITIESX020": 20711, "FEATURE": "Populated Place", "NAME": "Wylliesburg", "POP_RANGE": "Undetermined", "POP_2000": -99999, "FIPS55": "87936", "COUNTY": "Charlotte County", "FIPS": "51037", "STATE": "VA", "STATE_FIPS": "51", "DISPLAY": 0 }, "geometry": { "type": "Point", "coordinates": [ -78.678522766113275, 36.934309990692135 ] } },
{ "type": "Feature", "properties": { "CITIESX020": 20848, "FEATURE": "Populated Place", "NAME": "Clover", "POP_RANGE": "Undetermined", "POP_2000": -99999, "FIPS55": "17632", "COUNTY": "Halifax County", "FIPS": "51083", "STATE": "VA", "STATE_FIPS": "51", "DISPLAY": 1 }, "geometry": { "type": "Point", "coordinates": [ -78.678522766113275, 36.934309990692135 ] } },
{ "type": "Feature", "properties": { "CITIESX020": 21038, "FEATURE": "Populated Place", "NAME": "Scottsburg", "POP_RANGE": "0 - 9,999", "POP_2000": 145, "FIPS55": "70752", "COUNTY": "Halifax County", "FIPS": "51083", "STATE": "VA", "STATE_FIPS": "51", "DISPLAY": 0 }, "geometry": { "type": "Point", "coordinates": [ -78.678522766113275, 36.934309990692135 ] } },
{ "type": "Feature", "properties": { "CITIESX020": 20997, "FEATURE": "County Seat", "NAME": "Rocky Mount", "POP_RANGE": "0 - 9,999", "POP_2000": 4066, "FIPS55": "68496", "COUNTY": "Franklin County", "FIPS": "51067", "STATE": "VA", "STATE_FIPS": "51", "DISPLAY": 0 }, "geometry": { "type": "Point", "coordinates": [ -79.930222766113275, 36.936409990692134 ] } },
{ "type": "Feature", "properties": { "CITIESX020": 21195, "FEATURE": "Populated Place", "NAME": "Ferrum", "POP_RANGE": "Undetermined", "POP_2000": -99999, "FIPS55": "27712", "COUNTY": "Franklin County", "FIPS": "51067", "STATE": "VA", "STATE_FIPS": "51", "DISPLAY": 1 }, "geometry": { "type": "Point", "coordinates": [ -79.930222766113275, 36.936409990692134 ] } },
{ "type": "Feature", "properties": { "CITIESX020": 21040, "FEATURE": "Populated Place", "NAME": "Simpsons", "POP_RANGE": "Undetermined", "POP_2000": -99999, "FIPS55": "72672", "COUNTY": "Floyd County", "FIPS": "51063", "STATE": "VA", "STATE_FIPS": "51", "DISPLAY": 1 }, "geometry": { "type": "Point", "coordinates": [ -80.261922766113287, 36.974809990692137 ] } },
{ "type": "Feature", "properties": { "CITIESX020": 21320, "FEATURE": "County Seat", "NAME": "Floyd", "POP_RANGE": "0 - 9,999", "POP_2000": 432, "FIPS55": "28544", "COUNTY": "Floyd County", "FIPS": "51063", "STATE": "VA", "STATE_FIPS": "51", "DISPLAY": 0 }, "geometry": { "type": "Point", "coordinates": [ -80.261922766113287, 36.974809990692137 ] } },
{ "type": "Feature", "properties": { "CITIESX020": 20125, "FEATURE": "Populated Place", "NAME": "Gladys", "POP_RANGE": "Undetermined", "POP_2000": -99999, "FIPS55": "31104", "COUNTY": "Campbell County", "FIPS": "51031", "STATE": "VA", "STATE_FIPS": "51", "DISPLAY": 0 }, "geometry": { "type": "Point", "coordinates": [ -78.980922766113281, 37.007909990692134 ] } },
{ "type": "Feature", "properties": { "CITIESX020": 20246, "FEATURE": "Populated Place", "NAME": "Naruna", "POP_RANGE": "Undetermined", "POP_2000": -99999, "FIPS55": "54920", "COUNTY": "Campbell County", "FIPS": "51031", "STATE": "VA", "STATE_FIPS": "51", "DISPLAY": 0 }, "geometry": { "type": "Point", "coordinates": [ -78.980922766113281, 37.007909990692134 ] } },
{ "type": "Feature", "properties": { "CITIESX020": 20392, "FEATURE": "Populated Place", "NAME": "Brookneal", "POP_RANGE": "0 - 9,999", "POP_2000": 1259, "FIPS55": "10296", "COUNTY": "Campbell County", "FIPS": "51031", "STATE": "VA", "STATE_FIPS": "51", "DISPLAY": 0 }, "geometry": { "type": "Point", "coordinates": [ -78.980922766113281, 37.007909990692134 ] } },
{ "type": "Feature", "properties": { "CITIESX020": 20699, "FEATURE": "Populated Place", "NAME": "Nathalie", "POP_RANGE": "Undetermined", "POP_2000": -99999, "FIPS55": "55000", "COUNTY": "Halifax County", "FIPS": "51083", "STATE": "VA", "STATE_FIPS": "51", "DISPLAY": 0 }, "geometry": { "type": "Point", "coordinates": [ -78.980922766113281, 37.007909990692134 ] } },
{ "type": "Feature", "properties": { "CITIESX020": 20735, "FEATURE": "Populated Place", "NAME": "Volens", "POP_RANGE": "Undetermined", "POP_2000": -99999, "FIPS55": "82240", "COUNTY": "Halifax County", "FIPS": "51083", "STATE": "VA", "STATE_FIPS": "51", "DISPLAY": 0 }, "geometry": { "type": "Point", "coordinates": [ -78.980922766113281, 37.007909990692134 ] } },
{ "type": "Feature", "properties": { "CITIESX020": 20882, "FEATURE": "Populated Place", "NAME": "Crystal Hill", "POP_RANGE": "Undetermined", "POP_2000": -99999, "FIPS55": "20656", "COUNTY": "Halifax County", "FIPS": "51083", "STATE": "VA", "STATE_FIPS": "51", "DISPLAY": 0 }, "geometry": { "type": "Point", "coordinates": [ -78.980922766113281, 37.007909990692134 ] } },
{ "type": "Feature", "properties": { "CITIESX020": 19911, "FEATURE": "Populated Place", "NAME": "Meherrin", "POP_RANGE": "Undetermined", "POP_2000": -99999, "FIPS55": "50968", "COUNTY": "Lunenburg County", "FIPS": "51111", "STATE": "VA", "STATE_FIPS": "51", "DISPLAY": 0 }, "geometry": { "type": "Point", "coordinates": [ -78.44492276611328, 37.020909990692132 ] } },
{ "type": "Feature", "properties": { "CITIESX020": 20131, "FEATURE": "Populated Place", "NAME": "Keysville", "POP_RANGE": "0 - 9,999", "POP_2000": 817, "FIPS55": "42264", "COUNTY": "Charlotte County", "FIPS": "51037", "STATE": "VA", "STATE_FIPS": "51", "DISPLAY": 0 }, "geometry": { "type": "Point", "coordinates": [ -78.44492276611328, 37.020909990692132 ] } },
{ "type": "Feature", "properties": { "CITIESX020": 20499, "FEATURE": "Populated Place", "NAME": "Fort Mitchell", "POP_RANGE": "Undetermined", "POP_2000": -99999, "FIPS55": "29200", "COUNTY": "Lunenburg County", "FIPS": "51111", "STATE": "VA", "STATE_FIPS": "51", "DISPLAY": 0 }, "geometry": { "type": "Point", "coordinates": [ -78.44492276611328, 37.020909990692132 ] } },
{ "type": "Feature", "properties": { "CITIESX020": 20317, "FEATURE": "Populated Place", "NAME": "Lynch Station", "POP_RANGE": "Undetermined", "POP_2000": -99999, "FIPS55": "47704", "COUNTY": "Campbell County", "FIPS": "51031", "STATE": "VA", "STATE_FIPS": "51", "DISPLAY": 0 }, "geometry": { "type": "Point", "coordinates": [ -79.283022766113277, 37.071909990692134 ] } },
{ "type": "Feature", "properties": { "CITIESX020": 20418, "FEATURE": "Populated Place", "NAME": "Altavista", "POP_RANGE": "0 - 9,999", "POP_2000": 3425, "FIPS55": "01528", "COUNTY": "Campbell County", "FIPS": "51031", "STATE": "VA", "STATE_FIPS": "51", "DISPLAY": 0 }, "geometry": { "type": "Point", "coordinates": [ -79.283022766113277, 37.071909990692134 ] } },
{ "type": "Feature", "properties": { "CITIESX020": 20478, "FEATURE": "Populated Place", "NAME": "Hurt", "POP_RANGE": "0 - 9,999", "POP_2000": 1276, "FIPS55": "39224", "COUNTY": "Pittsylvania County", "FIPS": "51143", "STATE": "VA", "STATE_FIPS": "51", "DISPLAY": 0 }, "geometry": { "type": "Point", "coordinates": [ -79.283022766113277, 37.071909990692134 ] } },
{ "type": "Feature", "properties": { "CITIESX020": 20809, "FEATURE": "Populated Place", "NAME": "Mount Airy", "POP_RANGE": "Undetermined", "POP_2000": -99999, "FIPS55": "53720", "COUNTY": "Pittsylvania County", "FIPS": "51143", "STATE": "VA", "STATE_FIPS": "51", "DISPLAY": 0 }, "geometry": { "type": "Point", "coordinates": [ -79.283022766113277, 37.071909990692134 ] } },
{ "type": "Feature", "properties": { "CITIESX020": 20868, "FEATURE": "Populated Place", "NAME": "Gretna", "POP_RANGE": "0 - 9,999", "POP_2000": 1257, "FIPS55": "33232", "COUNTY": "Pittsylvania County", "FIPS": "51143", "STATE": "VA", "STATE_FIPS": "51", "DISPLAY": 0 }, "geometry": { "type": "Point", "coordinates": [ -79.283022766113277, 37.071909990692134 ] } },
{ "type": "Feature", "properties": { "CITIESX020": 20405, "FEATURE": "Populated Place", "NAME": "Moneta", "POP_RANGE": "Undetermined", "POP_2000": -99999, "FIPS55": "52536", "COUNTY": "Bedford County", "FIPS": "51019", "STATE": "VA", "STATE_FIPS": "51", "DISPLAY": 0 }, "geometry": { "type": "Point", "coordinates": [ -79.616522766113263, 37.181709990692134 ] } },
{ "type": "Feature", "properties": { "CITIESX020": 20579, "FEATURE": "Populated Place", "NAME": "Lafayette", "POP_RANGE": "Undetermined", "POP_2000": -99999, "FIPS55": "43224", "COUNTY": "Montgomery County", "FIPS": "51121", "STATE": "VA", "STATE_FIPS": "51", "DISPLAY": 0 }, "geometry": { "type": "Point", "coordinates": [ -80.372022766113275, 37.208409990692132 ] } },
{ "type": "Feature", "properties": { "CITIESX020": 20625, "FEATURE": "Populated Place", "NAME": "Elliston", "POP_RANGE": "Undetermined", "POP_2000": -99999, "FIPS55": "25488", "COUNTY": "Montgomery County", "FIPS": "51121", "STATE": "VA", "STATE_FIPS": "51", "DISPLAY": 0 }, "geometry": { "type": "Point", "coordinates": [ -80.372022766113275, 37.208409990692132 ] } },
{ "type": "Feature", "properties": { "CITIESX020": 20682, "FEATURE": "Populated Place", "NAME": "Blacksburg", "POP_RANGE": "10,000 - 49,999", "POP_2000": 39573, "FIPS55": "07784", "COUNTY": "Montgomery County", "FIPS": "51121", "STATE": "VA", "STATE_FIPS": "51", "DISPLAY": 0 }, "geometry": { "type": "Point", "coordinates": [ -80.372022766113275, 37.208409990692132 ] } },
{ "type": "Feature", "properties": { "CITIESX020": 20766, "FEATURE": "Populated Place", "NAME": "Shawsville", "POP_RANGE": "Undetermined", "POP_2000": -99999, "FIPS55": "71632", "COUNTY": "Montgomery County", "FIPS": "51121", "STATE": "VA", "STATE_FIPS": "51", "DISPLAY": 1 }, "geometry": { "type": "Point", "coordinates": [ -80.372022766113275, 37.208409990692132 ] } },
{ "type": "Feature", "properties": { "CITIESX020": 20797, "FEATURE": "Populated Place", "NAME": "Merrimac", "POP_RANGE": "Undetermined", "POP_2000": -99999, "FIPS55": "51208", "COUNTY": "Montgomery County", "FIPS": "51121", "STATE": "VA", "STATE_FIPS": "51", "DISPLAY": 1 }, "geometry": { "type": "Point", "coordinates": [ -80.372022766113275, 37.208409990692132 ] } },
{ "type": "Feature", "properties": { "CITIESX020": 20928, "FEATURE": "County Seat", "NAME": "Christiansburg", "POP_RANGE": "10,000 - 49,999", "POP_2000": 16947, "FIPS55": "16608", "COUNTY": "Montgomery County", "FIPS": "51121", "STATE": "VA", "STATE_FIPS": "51", "DISPLAY": 0 }, "geometry": { "type": "Point", "coordinates": [ -80.372022766113275, 37.208409990692132 ] } },
{ "type": "Feature", "properties": { "CITIESX020": 21079, "FEATURE": "Populated Place", "NAME": "Riner", "POP_RANGE": "Undetermined", "POP_2000": -99999, "FIPS55": "67256", "COUNTY": "Montgomery County", "FIPS": "51121", "STATE": "VA", "STATE_FIPS": "51", "DISPLAY": 0 }, "geometry": { "type": "Point", "coordinates": [ -80.372022766113275, 37.208409990692132 ] } },
{ "type": "Feature", "properties": { "CITIESX020": 19878, "FEATURE": "Populated Place", "NAME": "Troutville", "POP_RANGE": "0 - 9,999", "POP_2000": 432, "FIPS55": "79472", "COUNTY": "Botetourt County", "FIPS": "51023", "STATE": "VA", "STATE_FIPS": "51", "DISPLAY": 0 }, "geometry": { "type": "Point", "coordinates": [ -79.931122766113276, 37.30550999069213 ] } },
{ "type": "Feature", "properties": { "CITIESX020": 19917, "FEATURE": "Populated Place", "NAME": "Daleville", "POP_RANGE": "Undetermined", "POP_2000": -99999, "FIPS55": "21152", "COUNTY": "Botetourt County", "FIPS": "51023", "STATE": "VA", "STATE_FIPS": "51", "DISPLAY": 1 }, "geometry": { "type": "Point", "coordinates": [ -79.931122766113276, 37.30550999069213 ] } },
{ "type": "Feature", "properties": { "CITIESX020": 19943, "FEATURE": "Populated Place", "NAME": "Blue Ridge", "POP_RANGE": "Undetermined", "POP_2000": -99999, "FIPS55": "08200", "COUNTY": "Botetourt County", "FIPS": "51023", "STATE": "VA", "STATE_FIPS": "51", "DISPLAY": 1 }, "geometry": { "type": "Point", "coordinates": [ -79.931122766113276, 37.30550999069213 ] } },
{ "type": "Feature", "properties": { "CITIESX020": 20001, "FEATURE": "Populated Place", "NAME": "Laymantown", "POP_RANGE": "Undetermined", "POP_2000": -99999, "FIPS55": "44620", "COUNTY": "Botetourt County", "FIPS": "51023", "STATE": "VA", "STATE_FIPS": "51", "DISPLAY": 1 }, "geometry": { "type": "Point", "coordinates": [ -79.931122766113276, 37.30550999069213 ] } },
{ "type": "Feature", "properties": { "CITIESX020": 20046, "FEATURE": "Populated Place", "NAME": "Cloverdale", "POP_RANGE": "Undetermined", "POP_2000": -99999, "FIPS55": "17680", "COUNTY": "Botetourt County", "FIPS": "51023", "STATE": "VA", "STATE_FIPS": "51", "DISPLAY": 1 }, "geometry": { "type": "Point", "coordinates": [ -79.931122766113276, 37.30550999069213 ] } },
{ "type": "Feature", "properties": { "CITIESX020": 20112, "FEATURE": "Populated Place", "NAME": "Hollins", "POP_RANGE": "Undetermined", "POP_2000": -99999, "FIPS55": "37880", "COUNTY": "Roanoke County", "FIPS": "51161", "STATE": "VA", "STATE_FIPS": "51", "DISPLAY": 1 }, "geometry": { "type": "Point", "coordinates": [ -79.931122766113276, 37.30550999069213 ] } },
{ "type": "Feature", "properties": { "CITIESX020": 20258, "FEATURE": "Populated Place", "NAME": "Vinton", "POP_RANGE": "0 - 9,999", "POP_2000": 7782, "FIPS55": "81280", "COUNTY": "Roanoke County", "FIPS": "51161", "STATE": "VA", "STATE_FIPS": "51", "DISPLAY": 0 }, "geometry": { "type": "Point", "coordinates": [ -79.931122766113276, 37.30550999069213 ] } },
{ "type": "Feature", "properties": { "CITIESX020": 20320, "FEATURE": "County Seat", "NAME": "Salem", "POP_RANGE": "10,000 - 49,999", "POP_2000": 24747, "FIPS55": "70000", "COUNTY": "Salem City", "FIPS": "51775", "STATE": "VA", "STATE_FIPS": "51", "DISPLAY": 0 }, "geometry": { "type": "Point", "coordinates": [ -79.931122766113276, 37.30550999069213 ] } },
{ "type": "Feature", "properties": { "CITIESX020": 20325, "FEATURE": "Populated Place", "NAME": "Roanoke", "POP_RANGE": "50,000 - 99,999", "POP_2000": 94911, "FIPS55": "68000", "COUNTY": "Roanoke City", "FIPS": "51770", "STATE": "VA", "STATE_FIPS": "51", "DISPLAY": 0 }, "geometry": { "type": "Point", "coordinates": [ -79.931122766113276, 37.30550999069213 ] } },
{ "type": "Feature", "properties": { "CITIESX020": 20505, "FEATURE": "Populated Place", "NAME": "Cave Spring", "POP_RANGE": "Undetermined", "POP_2000": -99999, "FIPS55": "13720", "COUNTY": "Roanoke County", "FIPS": "51161", "STATE": "VA", "STATE_FIPS": "51", "DISPLAY": 1 }, "geometry": { "type": "Point", "coordinates": [ -79.931122766113276, 37.30550999069213 ] } },
{ "type": "Feature", "properties": { "CITIESX020": 20561, "FEATURE": "Populated Place", "NAME": "Starkey", "POP_RANGE": "Undetermined", "POP_2000": -99999, "FIPS55": "75120", "COUNTY": "Roanoke County", "FIPS": "51161", "STATE": "VA", "STATE_FIPS": "51", "DISPLAY": 0 }, "geometry": { "type": "Point", "coordinates": [ -79.931122766113276, 37.30550999069213 ] } },
{ "type": "Feature", "properties": { "CITIESX020": 20752, "FEATURE": "Populated Place", "NAME": "Boones Mill", "POP_RANGE": "0 - 9,999", "POP_2000": 285, "FIPS55": "08584", "COUNTY": "Franklin County", "FIPS": "51067", "STATE": "VA", "STATE_FIPS": "51", "DISPLAY": 0 }, "geometry": { "type": "Point", "coordinates": [ -79.931122766113276, 37.30550999069213 ] } },
{ "type": "Feature", "properties": { "CITIESX020": 19731, "FEATURE": "Populated Place", "NAME": "Forest", "POP_RANGE": "Undetermined", "POP_2000": -99999, "FIPS55": "28688", "COUNTY": "Bedford County", "FIPS": "51019", "STATE": "VA", "STATE_FIPS": "51", "DISPLAY": 1 }, "geometry": { "type": "Point", "coordinates": [ -79.348322766113284, 37.322909990692139 ] } },
{ "type": "Feature", "properties": { "CITIESX020": 19791, "FEATURE": "Populated Place", "NAME": "Goode", "POP_RANGE": "Undetermined", "POP_2000": -99999, "FIPS55": "31840", "COUNTY": "Bedford County", "FIPS": "51019", "STATE": "VA", "STATE_FIPS": "51", "DISPLAY": 0 }, "geometry": { "type": "Point", "coordinates": [ -79.348322766113284, 37.322909990692139 ] } },
{ "type": "Feature", "properties": { "CITIESX020": 19802, "FEATURE": "Populated Place", "NAME": "Timberlake", "POP_RANGE": "Undetermined", "POP_2000": -99999, "FIPS55": "78688", "COUNTY": "Campbell County", "FIPS": "51031", "STATE": "VA", "STATE_FIPS": "51", "DISPLAY": 1 }, "geometry": { "type": "Point", "coordinates": [ -79.348322766113284, 37.322909990692139 ] } },
{ "type": "Feature", "properties": { "CITIESX020": 19925, "FEATURE": "County Seat", "NAME": "Bedford", "POP_RANGE": "0 - 9,999", "POP_2000": 6299, "FIPS55": "05544", "COUNTY": "Bedford City", "FIPS": "51515", "STATE": "VA", "STATE_FIPS": "51", "DISPLAY": 0 }, "geometry": { "type": "Point", "coordinates": [ -79.348322766113284, 37.322909990692139 ] } },
{ "type": "Feature", "properties": { "CITIESX020": 20048, "FEATURE": "Populated Place", "NAME": "Evington", "POP_RANGE": "Undetermined", "POP_2000": -99999, "FIPS55": "26336", "COUNTY": "Campbell County", "FIPS": "51031", "STATE": "VA", "STATE_FIPS": "51", "DISPLAY": 0 }, "geometry": { "type": "Point", "coordinates": [ -79.348322766113284, 37.322909990692139 ] } },
{ "type": "Feature", "properties": { "CITIESX020": 19225, "FEATURE": "Populated Place", "NAME": "Toga", "POP_RANGE": "Undetermined", "POP_2000": -99999, "FIPS55": "78928", "COUNTY": "Buckingham County", "FIPS": "51029", "STATE": "VA", "STATE_FIPS": "51", "DISPLAY": 0 }, "geometry": { "type": "Point", "coordinates": [ -78.57992276611327, 37.364509990692135 ] } },
{ "type": "Feature", "properties": { "CITIESX020": 19555, "FEATURE": "Populated Place", "NAME": "Prospect", "POP_RANGE": "Undetermined", "POP_2000": -99999, "FIPS55": "64688", "COUNTY": "Prince Edward County", "FIPS": "51147", "STATE": "VA", "STATE_FIPS": "51", "DISPLAY": 0 }, "geometry": { "type": "Point", "coordinates": [ -78.57992276611327, 37.364509990692135 ] } },
{ "type": "Feature", "properties": { "CITIESX020": 19683, "FEATURE": "Populated Place", "NAME": "Pamplin", "POP_RANGE": "Undetermined", "POP_2000": -99999, "FIPS55": "60488", "COUNTY": "Appomattox County", "FIPS": "51011", "STATE": "VA", "STATE_FIPS": "51", "DISPLAY": 1 }, "geometry": { "type": "Point", "coordinates": [ -78.57992276611327, 37.364509990692135 ] } },
{ "type": "Feature", "properties": { "CITIESX020": 19859, "FEATURE": "Populated Place", "NAME": "Madisonville", "POP_RANGE": "Undetermined", "POP_2000": -99999, "FIPS55": "48584", "COUNTY": "Charlotte County", "FIPS": "51037", "STATE": "VA", "STATE_FIPS": "51", "DISPLAY": 0 }, "geometry": { "type": "Point", "coordinates": [ -78.57992276611327, 37.364509990692135 ] } },
{ "type": "Feature", "properties": { "CITIESX020": 19217, "FEATURE": "County Seat", "NAME": "Amherst", "POP_RANGE": "0 - 9,999", "POP_2000": 2251, "FIPS55": "01672", "COUNTY": "Amherst County", "FIPS": "51009", "STATE": "VA", "STATE_FIPS": "51", "DISPLAY": 0 }, "geometry": { "type": "Point", "coordinates": [ -79.034722766113276, 37.389209990692137 ] } },
{ "type": "Feature", "properties": { "CITIESX020": 19279, "FEATURE": "Populated Place", "NAME": "Sweet Briar Station", "POP_RANGE": "Undetermined", "POP_2000": -99999, "FIPS55": "77088", "COUNTY": "Amherst County", "FIPS": "51009", "STATE": "VA", "STATE_FIPS": "51", "DISPLAY": 0 }, "geometry": { "type": "Point", "coordinates": [ -79.034722766113276, 37.389209990692137 ] } },
{ "type": "Feature", "properties": { "CITIESX020": 19393, "FEATURE": "Populated Place", "NAME": "Monroe", "POP_RANGE": "Undetermined", "POP_2000": -99999, "FIPS55": "52600", "COUNTY": "Amherst County", "FIPS": "51009", "STATE": "VA", "STATE_FIPS": "51", "DISPLAY": 0 }, "geometry": { "type": "Point", "coordinates": [ -79.034722766113276, 37.389209990692137 ] } },
{ "type": "Feature", "properties": { "CITIESX020": 19530, "FEATURE": "Populated Place", "NAME": "Madison Heights", "POP_RANGE": "Undetermined", "POP_2000": -99999, "FIPS55": "48520", "COUNTY": "Amherst County", "FIPS": "51009", "STATE": "VA", "STATE_FIPS": "51", "DISPLAY": 1 }, "geometry": { "type": "Point", "coordinates": [ -79.034722766113276, 37.389209990692137 ] } },
{ "type": "Feature", "properties": { "CITIESX020": 19556, "FEATURE": "County Seat", "NAME": "Appomattox", "POP_RANGE": "0 - 9,999", "POP_2000": 1761, "FIPS55": "02072", "COUNTY": "Appomattox County", "FIPS": "51011", "STATE": "VA", "STATE_FIPS": "51", "DISPLAY": 0 }, "geometry": { "type": "Point", "coordinates": [ -79.034722766113276, 37.389209990692137 ] } },
{ "type": "Feature", "properties": { "CITIESX020": 19570, "FEATURE": "Populated Place", "NAME": "Lynchburg", "POP_RANGE": "50,000 - 99,999", "POP_2000": 65269, "FIPS55": "47672", "COUNTY": "Lynchburg City", "FIPS": "51680", "STATE": "VA", "STATE_FIPS": "51", "DISPLAY": 0 }, "geometry": { "type": "Point", "coordinates": [ -79.034722766113276, 37.389209990692137 ] } },
{ "type": "Feature", "properties": { "CITIESX020": 19636, "FEATURE": "Populated Place", "NAME": "Concord", "POP_RANGE": "Undetermined", "POP_2000": -99999, "FIPS55": "18880", "COUNTY": "Appomattox County", "FIPS": "51011", "STATE": "VA", "STATE_FIPS": "51", "DISPLAY": 0 }, "geometry": { "type": "Point", "coordinates": [ -79.034722766113276, 37.389209990692137 ] } },
{ "type": "Feature", "properties": { "CITIESX020": 19847, "FEATURE": "County Seat", "NAME": "Rustburg", "POP_RANGE": "Undetermined", "POP_2000": -99999, "FIPS55": "69536", "COUNTY": "Campbell County", "FIPS": "51031", "STATE": "VA", "STATE_FIPS": "51", "DISPLAY": 0 }, "geometry": { "type": "Point", "coordinates": [ -79.034722766113276, 37.389209990692137 ] } },
{ "type": "Feature", "properties": { "CITIESX020": 19790, "FEATURE": "County Seat", "NAME": "New Castle", "POP_RANGE": "0 - 9,999", "POP_2000": 179, "FIPS55": "55592", "COUNTY": "Craig County", "FIPS": "51045", "STATE": "VA", "STATE_FIPS": "51", "DISPLAY": 0 }, "geometry": { "type": "Point", "coordinates": [ -80.125022766113261, 37.464809990692132 ] } },
{ "type": "Feature", "properties": { "CITIESX020": 19982, "FEATURE": "Populated Place", "NAME": "Abbott", "POP_RANGE": "Undetermined", "POP_2000": -99999, "FIPS55": "00100", "COUNTY": "Craig County", "FIPS": "51045", "STATE": "VA", "STATE_FIPS": "51", "DISPLAY": 0 }, "geometry": { "type": "Point", "coordinates": [ -80.125022766113261, 37.464809990692132 ] } },
{ "type": "Feature", "properties": { "CITIESX020": 19557, "FEATURE": "Populated Place", "NAME": "Buchanan", "POP_RANGE": "0 - 9,999", "POP_2000": 1233, "FIPS55": "10744", "COUNTY": "Botetourt County", "FIPS": "51023", "STATE": "VA", "STATE_FIPS": "51", "DISPLAY": 0 }, "geometry": { "type": "Point", "coordinates": [ -79.629922766113282, 37.474909990692133 ] } },
{ "type": "Feature", "properties": { "CITIESX020": 19897, "FEATURE": "Populated Place", "NAME": "Montvale", "POP_RANGE": "Undetermined", "POP_2000": -99999, "FIPS55": "52968", "COUNTY": "Bedford County", "FIPS": "51019", "STATE": "VA", "STATE_FIPS": "51", "DISPLAY": 0 }, "geometry": { "type": "Point", "coordinates": [ -79.629922766113282, 37.474909990692133 ] } },
{ "type": "Feature", "properties": { "CITIESX020": 19400, "FEATURE": "Populated Place", "NAME": "Big Island", "POP_RANGE": "Undetermined", "POP_2000": -99999, "FIPS55": "07400", "COUNTY": "Bedford County", "FIPS": "51019", "STATE": "VA", "STATE_FIPS": "51", "DISPLAY": 0 }, "geometry": { "type": "Point", "coordinates": [ -79.341322766113279, 37.669609990692138 ] } }
]
}
