{"type":"FeatureCollection","features":[
{"geometry": {"type": "Point", "coordinates": [-79.1776647, 37.4125619]}, "type": "Feature", "properties": {"Website": "http://www.hcrs-va.org/", "Name": "Holy Cross Regional School", "OBJECTID": 1, "GIS_Address": "2125 Langhorne Road", "Type_Details": "Catholic", "Phone": "(434) 847-5436", "Grades": "PK-12", "Address": "2125 Langhorne Road Lynchburg, VA 24501", "Type": "Day Only"}},
{"geometry": {"type": "Point", "coordinates": [-79.2268257, 37.4447336]}, "type": "Feature", "properties": {"Website": "http://jamesriverdayschool.org/", "Name": "James River Day School", "OBJECTID": 2, "GIS_Address": "5039 Boonsboro Road", "Type_Details": null, "Phone": "(434) 384-7385", "Grades": "K-8", "Address": "5039 Boonsboro Road Lynchburg, VA 24503", "Type": "Day Only"}},
{"geometry": {"type": "Point", "coordinates": [-79.1721792, 37.3603334]}, "type": "Feature", "properties": {"Website": "http://www.lcabulldogs.com/", "Name": "Liberty Christian Academy", "OBJECTID": 3, "GIS_Address": "601 Mountain View Road", "Type_Details": "Baptist", "Phone": "(434) 832-2000", "Grades": "PK-12", "Address": "100 Mountain View Road Lynchburg, VA 24502", "Type": "Day Only"}},
{"geometry": {"type": "Point", "coordinates": [-79.1794891, 37.350423]}, "type": "Feature", "properties": {"Website": "http://www.libertyonlineacademy.com/", "Name": "Liberty University Online Academy", "OBJECTID": 4, "GIS_Address": "1971 University Boulevard", "Type_Details": null, "Phone": "(434) 592-4272", "Grades": "3-12", "Address": "1971 University Boulevard Lynchburg, VA 24502", "Type": "Distance Education"}},
{"geometry": {"type": "Point", "coordinates": [-79.2061299, 37.3955792]}, "type": "Feature", "properties": {"Website": "http://www.newcovenantschools.org/", "Name": "New Covenant Schools", "OBJECTID": 5, "GIS_Address": "122 Fleetwood Drive", "Type_Details": null, "Phone": "(434) 847-8313", "Grades": "K-12", "Address": "122 Fleetwood Drive Lynchburg, VA 24501-3902", "Type": "Day Only"}},
{"geometry": {"type": "Point", "coordinates": [-79.1723454, 37.3987797]}, "type": "Feature", "properties": {"Website": "http://www.newvistasschool.org/  ", "Name": "New Vistas School", "OBJECTID": 6, "GIS_Address": "520 Eldon Street", "Type_Details": null, "Phone": "(434) 846-0301 ", "Grades": "K-12", "Address": "520 Eldon Street Lynchburg, VA 24501", "Type": "Day Only"}},
{"geometry": {"type": "Point", "coordinates": [-79.2054745, 37.4171648]}, "type": "Feature", "properties": {"Website": "http://www.rivermontschools.com", "Name": "Rivermont School - Lynchburg", "OBJECTID": 7, "GIS_Address": "3024 Forest Hills Circle", "Type_Details": "Special Education", "Phone": "(434) 947-4697", "Grades": "PS-12", "Address": "3024 Forest Hills Circle Lynchburg, VA 24501", "Type": "Day Only"}},
{"geometry": {"type": "Point", "coordinates": [-79.1916404, 37.4522]}, "type": "Feature", "properties": {"Website": "http://www.ves.org/cgi-bin/MySQLdb?VIEW=/news/view_home.txt", "Name": "Virginia Episcopal School", "OBJECTID": 8, "GIS_Address": "400 VES Road", "Type_Details": "Episcopal", "Phone": "(434) 385-3600", "Grades": "9-12  ", "Address": "400 V.E.S. Road Lynchburg, VA 24503", "Type": "Boarding/Day"}},
{"geometry": {"type": "Point", "coordinates": [-79.2053462, 37.3434846]}, "type": "Feature", "properties": {"Website": "http://mentalhealth.centrahealth.com/services/bridges-treatment-center", "Name": "Bridges Treatment Center", "OBJECTID": 9, "GIS_Address": "693 Leesville Road", "Type_Details": "Special Education", "Phone": "(434) 200-5700", "Grades": "K-12", "Address": "693 Leesville Road Lynchburg, VA 24502", "Type": "Residential"}},
{"geometry": {"type": "Point", "coordinates": [-79.1881092, 37.4128449]}, "type": "Feature", "properties": {"Website": "http://mchoflynchburg.com/index.html", "Name": "Montessori Children\u2019s House", "OBJECTID": 10, "GIS_Address": "2800 Hill Street", "Type_Details": "Montessori", "Phone": "(434) 528-3216", "Grades": "2.5 - 6 yrs", "Address": "2800 Hill Street Lynchburg, VA 24501", "Type": "Day Only"}}
]}