{"type":"FeatureCollection","features":[
{"geometry": {"type": "Point", "coordinates": [-79.1399727, 37.4025122]}, "type": "Feature", "properties": {"Name": "Fire Station 2 - Grace Street", "OBJECTID": 1, "Creator": null, "Station_ID": "FD-2", "DateCreated": null, "Phone": null, "Address": "2006 GRACE ST"}},
{"geometry": {"type": "Point", "coordinates": [-79.1813426, 37.3821753]}, "type": "Feature", "properties": {"Name": "Fire Station 3 - Fort Hill", "OBJECTID": 2, "Creator": null, "Station_ID": "FD-3", "DateCreated": null, "Phone": null, "Address": "4701 FORT AVE"}},
{"geometry": {"type": "Point", "coordinates": [-79.1646674, 37.4342768]}, "type": "Feature", "properties": {"Name": "Fire Station 4 - Birch Street", "OBJECTID": 3, "Creator": null, "Station_ID": "FD-4", "DateCreated": null, "Phone": null, "Address": "410 BIRCH ST"}},
{"geometry": {"type": "Point", "coordinates": [-79.2147532, 37.4461519]}, "type": "Feature", "properties": {"Name": "Fire Station 5 - Peakland", "OBJECTID": 4, "Creator": null, "Station_ID": "FD-5", "DateCreated": null, "Phone": null, "Address": "4800 BOONSBORO RD"}},
{"geometry": {"type": "Point", "coordinates": [-79.1589437, 37.4026529]}, "type": "Feature", "properties": {"Name": "Fire Station 6 - Miller Park", "OBJECTID": 5, "Creator": null, "Station_ID": "FD-6", "DateCreated": null, "Phone": null, "Address": "2084 FORT AVE"}},
{"geometry": {"type": "Point", "coordinates": [-79.2283905, 37.3970213]}, "type": "Feature", "properties": {"Name": "Fire Station 7 - Lakeside Drive", "OBJECTID": 6, "Creator": null, "Station_ID": "FD-7", "DateCreated": null, "Phone": null, "Address": "2624 LAKESIDE DR"}},
{"geometry": {"type": "Point", "coordinates": [-79.2274595, 37.3559154]}, "type": "Feature", "properties": {"Name": "Fire Station 8 - Old Graves Mill Road", "OBJECTID": 7, "Creator": null, "Station_ID": "FD-8", "DateCreated": null, "Phone": null, "Address": "213 OLD GRAVES MILL RD"}},
{"geometry": {"type": "Point", "coordinates": [-79.1459634, 37.4136855]}, "type": "Feature", "properties": {"Name": "Fire Station 1 - Clay Street", "OBJECTID": 11, "Creator": null, "Station_ID": "FD-1", "DateCreated": null, "Phone": null, "Address": "801 CLAY ST"}}
]}