{"type":"FeatureCollection","features":[
{"geometry": {"type": "Point", "coordinates": [-76.28465193936222, 36.73612436437271]}, "type": "Feature", "properties": {"City": "Chesapeake", "Name": "Stephen  Clifford", "OBJECTID": 1, "Zip": "23320", "State": "VA", "Street": "200 Shore Side Road", "Expiration": "10/31/2017", "Applicatio": "20041974", "Y": 36.736117, "X": -76.28465}},
{"geometry": {"type": "Point", "coordinates": [-76.32752895348462, 36.75316736653945]}, "type": "Feature", "properties": {"City": "Chesapeake", "Name": "Judith  Hinch", "OBJECTID": 2, "Zip": "23323", "State": "VA", "Street": "424 Shorebird Lane", "Expiration": "11/30/2017", "Applicatio": "20021926", "Y": 36.75316, "X": -76.327527}},
{"geometry": {"type": "Point", "coordinates": [-76.23975492990921, 36.82002438372748]}, "type": "Feature", "properties": {"City": "Chesapeake", "Name": "Alana B Yacus", "OBJECTID": 3, "Zip": "23325", "State": "VA", "Street": "1219 Davis Avenue", "Expiration": "09/30/2018", "Applicatio": "20081697", "Y": 36.820017, "X": -76.239753}},
{"geometry": {"type": "Point", "coordinates": [-76.21347492231769, 36.829974386733205]}, "type": "Feature", "properties": {"City": "Virginia Beach", "Name": "Kristina  Cotten", "OBJECTID": 4, "Zip": "23464", "State": "VA", "Street": "3529 N, Crestline Drive", "Expiration": "09/30/2018", "Applicatio": "20131455", "Y": 36.829967, "X": -76.213473}},
{"geometry": {"type": "Point", "coordinates": [-76.35912696763506, 36.836705383201334]}, "type": "Feature", "properties": {"City": "Portsmouth", "Name": "Nancy  Bangel", "OBJECTID": 5, "Zip": "23707", "State": "Va", "Street": "509 Riverside Drive", "Expiration": "05/31/2019", "Applicatio": "20140560", "Y": 36.836698, "X": -76.359125}},
{"geometry": {"type": "Point", "coordinates": [-76.35903896762021, 36.836937383253485]}, "type": "Feature", "properties": {"City": "Portsmouth", "Name": "Donald  Gregory", "OBJECTID": 6, "Zip": "23707", "State": "VA", "Street": "505 Riverside Drive", "Expiration": "05/31/2019", "Applicatio": "20140559", "Y": 36.83693, "X": -76.359037}},
{"geometry": {"type": "Point", "coordinates": [-76.21903492446565, 36.83816938828418]}, "type": "Feature", "properties": {"City": "Virginia Beach", "Name": "Vickie  Etheridge", "OBJECTID": 7, "Zip": "23456", "State": "VA", "Street": "2901 Chilton Place", "Expiration": "11/30/2018", "Applicatio": "20131657", "Y": 36.838162, "X": -76.219033}},
{"geometry": {"type": "Point", "coordinates": [-76.53289002131868, 36.83832437759519]}, "type": "Feature", "properties": {"City": "Suffolk", "Name": "Gordon  Iiams", "OBJECTID": 8, "Zip": "23435", "State": "VA", "Street": "128 Sleepy Point Way", "Expiration": "09/30/2017", "Applicatio": "20011572", "Y": 36.838317, "X": -76.532888}},
{"geometry": {"type": "Point", "coordinates": [-76.3590649677168, 36.838614383608366]}, "type": "Feature", "properties": {"City": "Portsmouth", "Name": "Sid  Cervarich", "OBJECTID": 9, "Zip": "23707", "State": "VA", "Street": "437 Riverside Drive", "Expiration": "05/31/2020", "Applicatio": "20140558", "Y": 36.838607, "X": -76.359063}},
{"geometry": {"type": "Point", "coordinates": [-76.3591599677606, 36.83888738366298]}, "type": "Feature", "properties": {"City": "Portsmouth", "Name": "Karen  Hunter", "OBJECTID": 10, "Zip": "23707", "State": "VA", "Street": "433 Riverside Drive", "Expiration": "05/31/2019", "Applicatio": "20140557", "Y": 36.83888, "X": -76.359158}},
{"geometry": {"type": "Point", "coordinates": [-76.35920396780202, 36.83941438377325]}, "type": "Feature", "properties": {"City": "Portsmouth", "Name": "John R. Goodwin", "OBJECTID": 11, "Zip": "23707", "State": "VA", "Street": "425 Riverside Drive", "Expiration": "05/31/2019", "Applicatio": "20140556", "Y": 36.839407, "X": -76.359202}},
{"geometry": {"type": "Point", "coordinates": [-76.35905996776896, 36.83963038382398]}, "type": "Feature", "properties": {"City": "Portsmouth", "Name": "Albert  Fary", "OBJECTID": 12, "Zip": "23707", "State": "VA", "Street": "421 Riverside Drive", "Expiration": "05/31/2019", "Applicatio": "20140555", "Y": 36.839623, "X": -76.359058}},
{"geometry": {"type": "Point", "coordinates": [-76.35906696780707, 36.840310383968074]}, "type": "Feature", "properties": {"City": "Portsmouth", "Name": "Naurine  Hamed", "OBJECTID": 13, "Zip": "23707", "State": "VA", "Street": "415 Riverside Drive", "Expiration": "05/31/2019", "Applicatio": "20140554", "Y": 36.840303, "X": -76.359065}},
{"geometry": {"type": "Point", "coordinates": [-76.35906396781998, 36.84057238402376]}, "type": "Feature", "properties": {"City": "Portsmouth", "Name": "Larry  Smiley", "OBJECTID": 14, "Zip": "23707", "State": "VA", "Street": "411 Riverside Drive", "Expiration": "05/31/2019", "Applicatio": "20140562", "Y": 36.840565, "X": -76.359062}},
{"geometry": {"type": "Point", "coordinates": [-76.35978696807464, 36.84116938412562]}, "type": "Feature", "properties": {"City": "Portsmouth", "Name": "David  Gonzales", "OBJECTID": 15, "Zip": "23707", "State": "VA", "Street": "401 Riverside Drive", "Expiration": "05/31/2019", "Applicatio": "20140553", "Y": 36.841162, "X": -76.359785}},
{"geometry": {"type": "Point", "coordinates": [-76.55444502812739, 36.841395377505656]}, "type": "Feature", "properties": {"City": "Suffolk", "Name": "Johnny  Patterson", "OBJECTID": 16, "Zip": "23432", "State": "VA", "Street": "1509 Kings Highway", "Expiration": "09/30/2017", "Applicatio": "20052377", "Y": 36.841388, "X": -76.554443}},
{"geometry": {"type": "Point", "coordinates": [-76.30281495052688, 36.84185438621463]}, "type": "Feature", "properties": {"City": "Portsmouth", "Name": "Jennifer J Cooke", "OBJECTID": 17, "Zip": "23704", "State": "VA", "Street": "204 Swimming Point Walk", "Expiration": "10/31/2017", "Applicatio": "20021109", "Y": 36.841847, "X": -76.302813}},
{"geometry": {"type": "Point", "coordinates": [-76.06037187584269, 36.845694395261546]}, "type": "Feature", "properties": {"City": "Virginia Beach", "Name": "Virginia Beach Friends School", "OBJECTID": 18, "Zip": "23451", "State": "VA", "Street": "1537 Laskin Road", "Expiration": "10/31/2017", "Applicatio": "20062244", "Y": 36.845687, "X": -76.06037}},
{"geometry": {"type": "Point", "coordinates": [-76.06056887591959, 36.84599939531963]}, "type": "Feature", "properties": {"City": "Virginia Beach", "Name": "Leslie S Brittingham", "OBJECTID": 19, "Zip": "23452", "State": "VA", "Street": "412 Wolfs Neck Trail", "Expiration": "07/31/2019", "Applicatio": "20090883", "Y": 36.845992, "X": -76.060567}},
{"geometry": {"type": "Point", "coordinates": [-76.29405994813422, 36.8477293877594]}, "type": "Feature", "properties": {"City": "Norfolk", "Name": "Nauticus", "OBJECTID": 20, "Zip": "23510", "State": "VA", "Street": "One Waterside Drive", "Expiration": "10/31/2017", "Applicatio": "20051933", "Y": 36.847722, "X": -76.294058}},
{"geometry": {"type": "Point", "coordinates": [-76.36038696873248, 36.85010938600125]}, "type": "Feature", "properties": {"City": "Portsmouth", "Name": "John  Edmonds", "OBJECTID": 21, "Zip": "23703", "State": "VA", "Street": "3165 Holly Cliff Lane", "Expiration": "10/31/2017", "Applicatio": "19991504", "Y": 36.850102, "X": -76.360385}},
{"geometry": {"type": "Point", "coordinates": [-76.00638685960317, 36.85426439890648]}, "type": "Feature", "properties": {"City": "Virginia Beach", "Name": "Allan  Gibbs", "OBJECTID": 22, "Zip": "23451", "State": "VA", "Street": "1336 Carolyn Drive", "Expiration": "10/31/2018", "Applicatio": "20081427", "Y": 36.854257, "X": -76.006385}},
{"geometry": {"type": "Point", "coordinates": [-76.22857892827007, 36.854450391415114]}, "type": "Feature", "properties": {"City": "Norfolk", "Name": "Solomon L. Barco", "OBJECTID": 23, "Zip": "23502", "State": "VA", "Street": "950 Anna Street", "Expiration": "10/31/2018", "Applicatio": "20131443", "Y": 36.854443, "X": -76.228577}},
{"geometry": {"type": "Point", "coordinates": [-76.10387388981306, 36.85573239592081]}, "type": "Feature", "properties": {"City": "Virginia Beach", "Name": "Sandy  Doyle", "OBJECTID": 24, "Zip": "23452", "State": "VA", "Street": "421 Thalia Road", "Expiration": "12/31/2017", "Applicatio": "20121763", "Y": 36.855725, "X": -76.103872}},
{"geometry": {"type": "Point", "coordinates": [-76.30701995266283, 36.85772538943798]}, "type": "Feature", "properties": {"City": "Norfolk", "Name": "Jessica  Grell", "OBJECTID": 25, "Zip": "23505", "State": "VA", "Street": "6038 Newport Crescent", "Expiration": "12/31/2014", "Applicatio": "20111811", "Y": 36.857718, "X": -76.307018}},
{"geometry": {"type": "Point", "coordinates": [-75.98504885322089, 36.85838240050179]}, "type": "Feature", "properties": {"City": "Virginia Beach", "Name": "Maurice A. Cullen", "OBJECTID": 26, "Zip": "23451", "State": "VA", "Street": "600 25th Street", "Expiration": "12/31/2017", "Applicatio": "20121745", "Y": 36.858375, "X": -75.985047}},
{"geometry": {"type": "Point", "coordinates": [-76.01153386142191, 36.85861239965631]}, "type": "Feature", "properties": {"City": "Virginia Beach", "Name": "Margaret B Venable", "OBJECTID": 27, "Zip": "23451", "State": "VA", "Street": "937 Winwood Drive", "Expiration": "02/28/2018", "Applicatio": "20041896", "Y": 36.858605, "X": -76.011532}},
{"geometry": {"type": "Point", "coordinates": [-76.00625185980947, 36.85900739991866]}, "type": "Feature", "properties": {"City": "Virginia Beach", "Name": "Robert B. Chisholm", "OBJECTID": 28, "Zip": "23451", "State": "VA", "Street": "Post Office Box 1106", "Expiration": "09/30/2017", "Applicatio": "20121468", "Y": 36.859, "X": -76.00625}},
{"geometry": {"type": "Point", "coordinates": [-76.0068938600112, 36.85906939991017]}, "type": "Feature", "properties": {"City": "Virginia Beach", "Name": "Baylake Pines School", "OBJECTID": 29, "Zip": "23455", "State": "VA", "Street": "4444 Shore Drive", "Expiration": "10/31/2018", "Applicatio": "20131633", "Y": 36.859062, "X": -76.006892}},
{"geometry": {"type": "Point", "coordinates": [-75.99956485785196, 36.86111040059121]}, "type": "Feature", "properties": {"City": "Virginia Beach", "Name": "Suzanne  Gravitt", "OBJECTID": 30, "Zip": "23451", "State": "VA", "Street": "1216 Kamichi Court", "Expiration": "07/31/2018", "Applicatio": "20131155", "Y": 36.861103, "X": -75.999563}},
{"geometry": {"type": "Point", "coordinates": [-76.00709686032684, 36.863902400929824]}, "type": "Feature", "properties": {"City": "Virginia Beach", "Name": "David  Dickerson", "OBJECTID": 31, "Zip": "23451", "State": "VA", "Street": "1325 Starling Court", "Expiration": "12/31/2018", "Applicatio": "20131266", "Y": 36.863895, "X": -76.007095}},
{"geometry": {"type": "Point", "coordinates": [-76.10171888975428, 36.86730239845006]}, "type": "Feature", "properties": {"City": "Virginia Beach", "Name": "Geoffrey  Olander", "OBJECTID": 32, "Zip": " ", "State": "VA", "Street": "3844 Prince Phillip Circle", "Expiration": "04/30/2019", "Applicatio": "20140543", "Y": 36.867295, "X": -76.101717}},
{"geometry": {"type": "Point", "coordinates": [-76.10055188946825, 36.86872439879147]}, "type": "Feature", "properties": {"City": "Virginia Beach", "Name": "Andrea E. Bracken", "OBJECTID": 33, "Zip": "23452", "State": "VA", "Street": "1008 Michaelwood Drive", "Expiration": "08/31/2018", "Applicatio": "20131293", "Y": 36.868717, "X": -76.10055}},
{"geometry": {"type": "Point", "coordinates": [-76.0762798820028, 36.86941539976053]}, "type": "Feature", "properties": {"City": "Virginia Beach", "Name": "Rodney M. Carlson", "OBJECTID": 34, "Zip": "23452", "State": "VA", "Street": "3089 Yeates Lane", "Expiration": "08/31/2018", "Applicatio": "20131265", "Y": 36.869408, "X": -76.076278}},
{"geometry": {"type": "Point", "coordinates": [-76.48365500802389, 36.87385238681263]}, "type": "Feature", "properties": {"City": "Suffolik", "Name": "Dan  Strum, et al", "OBJECTID": 35, "Zip": "23411", "State": "VA", "Street": "9131 River Crescent", "Expiration": "12/20/2018", "Applicatio": "20131893", "Y": 36.873845, "X": -76.483653}},
{"geometry": {"type": "Point", "coordinates": [-76.07168988091924, 36.875804401272255]}, "type": "Feature", "properties": {"City": "Virginia Beach", "Name": "Steve  Klimkiewicz", "OBJECTID": 36, "Zip": "23454", "State": "VA", "Street": "1725 N. Woodhouse Road", "Expiration": "09/30/2017", "Applicatio": "20062089", "Y": 36.875797, "X": -76.071688}},
{"geometry": {"type": "Point", "coordinates": [-76.07631488241529, 36.877070401384316]}, "type": "Feature", "properties": {"City": "Virginia Beach", "Name": "Amy  Skorupa", "OBJECTID": 37, "Zip": "23452", "State": "VA", "Street": "3033 Lynndale Road", "Expiration": "12/31/2018", "Applicatio": "20081522", "Y": 36.877063, "X": -76.076313}},
{"geometry": {"type": "Point", "coordinates": [-76.05479387578188, 36.87743540219049]}, "type": "Feature", "properties": {"City": "Virginia Beach", "Name": "Lillie  Gilbert", "OBJECTID": 38, "Zip": "23454", "State": "VA", "Street": "1428 Back Cove Road", "Expiration": "09/30/2017", "Applicatio": "20041790", "Y": 36.877428, "X": -76.054792}},
{"geometry": {"type": "Point", "coordinates": [-76.27129894274923, 36.87884239513409]}, "type": "Feature", "properties": {"City": "Norfolk", "Name": "James  Affeldt, et al", "OBJECTID": 39, "Zip": "23509", "State": "VA", "Street": "3025 Vendome Terrace", "Expiration": "10/31/2017", "Applicatio": "20071932", "Y": 36.878835, "X": -76.271297}},
{"geometry": {"type": "Point", "coordinates": [-76.01706386441616, 36.88314440467897]}, "type": "Feature", "properties": {"City": "Virginia Beach", "Name": "James M. Ramsey", "OBJECTID": 40, "Zip": "23454", "State": "VA", "Street": "1444 North Woodhouse Road", "Expiration": "04/30/2019", "Applicatio": "20140469", "Y": 36.883137, "X": -76.017062}},
{"geometry": {"type": "Point", "coordinates": [-76.27586894443293, 36.88399939607165]}, "type": "Feature", "properties": {"City": "Norfolk", "Name": "Patricia  Yeiser", "OBJECTID": 41, "Zip": "23504", "State": "VA", "Street": "3912 Holly Aenue", "Expiration": "09/30/2017", "Applicatio": "20121288", "Y": 36.883992, "X": -76.275867}},
{"geometry": {"type": "Point", "coordinates": [-76.0782648834432, 36.88516940303717]}, "type": "Feature", "properties": {"City": "Virginia Beach", "Name": "Matthew W Tiffany", "OBJECTID": 42, "Zip": "23455", "State": "VA", "Street": "1056 Saw Pen Point Trail", "Expiration": "09/30/2017", "Applicatio": "20111158", "Y": 36.885162, "X": -76.078263}},
{"geometry": {"type": "Point", "coordinates": [-76.27807394518678, 36.88537939628898]}, "type": "Feature", "properties": {"City": "Norfolk", "Name": "Alexis D Mason", "OBJECTID": 43, "Zip": "23504", "State": "VA", "Street": "301 E. 42nd Street", "Expiration": "11/30/2016", "Applicatio": "20111636", "Y": 36.885372, "X": -76.278072}},
{"geometry": {"type": "Point", "coordinates": [-76.06447687930755, 36.887579404015725]}, "type": "Feature", "properties": {"City": "Virginia Beach", "Name": "Stephen  Kremers, et al", "OBJECTID": 44, "Zip": "23451", "State": "VA", "Street": "2261 Hatton Street", "Expiration": "09/30/2017", "Applicatio": "20062234", "Y": 36.887572, "X": -76.064475}},
{"geometry": {"type": "Point", "coordinates": [-76.11650689542444, 36.888235402391004]}, "type": "Feature", "properties": {"City": "Virginia Beach", "Name": "Baylake Pines School", "OBJECTID": 45, "Zip": "23455", "State": "VA", "Street": "4444 Shore Drive", "Expiration": "10/31/2018", "Applicatio": "20131631", "Y": 36.888228, "X": -76.116505}},
{"geometry": {"type": "Point", "coordinates": [-76.29237894984124, 36.88986539675189]}, "type": "Feature", "properties": {"City": "Norfolk", "Name": "Marie M Jensen", "OBJECTID": 46, "Zip": "23508", "State": "VA", "Street": "750 W. 52nd Street", "Expiration": "01/31/2018", "Applicatio": "20071973", "Y": 36.889858, "X": -76.292377}},
{"geometry": {"type": "Point", "coordinates": [-76.27699694518714, 36.891677397660835]}, "type": "Feature", "properties": {"City": "Norfolk", "Name": "Michael  Jett", "OBJECTID": 47, "Zip": "23505-1723", "State": "VA", "Street": "1307 Daniel Avenue", "Expiration": "09/30/2017", "Applicatio": "20121287", "Y": 36.89167, "X": -76.276995}},
{"geometry": {"type": "Point", "coordinates": [-76.26713494217175, 36.89224939811842]}, "type": "Feature", "properties": {"City": "Norfolk", "Name": "Ruth  McElroy", "OBJECTID": 48, "Zip": "23509", "State": "VA", "Street": "5614 Shenandoah Avenue", "Expiration": "10/31/2017", "Applicatio": "20011287", "Y": 36.892242, "X": -76.267133}},
{"geometry": {"type": "Point", "coordinates": [-76.40385498445077, 36.89357739372696]}, "type": "Feature", "properties": {"City": "Portsmouth", "Name": "Hofler Creek Wildlife Foundation", "OBJECTID": 49, "Zip": "23703", "State": "VA", "Street": "4510 Twin Pines Road", "Expiration": "10/31/2017", "Applicatio": "20070422", "Y": 36.89357, "X": -76.403853}},
{"geometry": {"type": "Point", "coordinates": [-76.27203494377095, 36.89387539829604]}, "type": "Feature", "properties": {"City": "Norfolk", "Name": "Elizabeth  Essenmacher", "OBJECTID": 50, "Zip": "23509", "State": "VA", "Street": "1349 Emory Lane", "Expiration": "08/31/2018", "Applicatio": "20131206", "Y": 36.893868, "X": -76.272033}},
{"geometry": {"type": "Point", "coordinates": [-76.30905195533933, 36.8964753975836]}, "type": "Feature", "properties": {"City": "Norfolk", "Name": "Morgan  Trimyer, Jr.", "OBJECTID": 51, "Zip": "23508", "State": "VA", "Street": "6033 Westwood Terrace", "Expiration": "10/31/2017", "Applicatio": "20042111", "Y": 36.896468, "X": -76.30905}},
{"geometry": {"type": "Point", "coordinates": [-76.31452695705869, 36.897020397511994]}, "type": "Feature", "properties": {"City": "Norfolk", "Name": "William C Eisenbeiss", "OBJECTID": 52, "Zip": "23508", "State": "VA", "Street": "6123 Studeley Avenue", "Expiration": "10/31/2018", "Applicatio": "20081893", "Y": 36.897013, "X": -76.314525}},
{"geometry": {"type": "Point", "coordinates": [-76.30991195564519, 36.89723739771561]}, "type": "Feature", "properties": {"City": "Norfolk", "Name": "Stephen  Katz", "OBJECTID": 53, "Zip": "23508", "State": "VA", "Street": "6101 Sylvan Street", "Expiration": "10/31/2017", "Applicatio": "20062125", "Y": 36.89723, "X": -76.30991}},
{"geometry": {"type": "Point", "coordinates": [-76.3099789556743, 36.89739539774688]}, "type": "Feature", "properties": {"City": "Norfolk", "Name": "K  Osborne", "OBJECTID": 54, "Zip": "23508", "State": "VA", "Street": "6112 Sylvan Street", "Expiration": "10/31/2017", "Applicatio": "20010775", "Y": 36.897388, "X": -76.309977}},
{"geometry": {"type": "Point", "coordinates": [-76.30691895473286, 36.897460397865096]}, "type": "Feature", "properties": {"City": "Norfolk", "Name": "Annie  Bashara", "OBJECTID": 55, "Zip": "23508", "State": "VA", "Street": "6048 Eastwood Terrace", "Expiration": "12/31/2018", "Applicatio": "20082179", "Y": 36.897453, "X": -76.306917}},
{"geometry": {"type": "Point", "coordinates": [-76.29443495089289, 36.897742398351184]}, "type": "Feature", "properties": {"City": "Norfolk", "Name": "Bob  Hume", "OBJECTID": 56, "Zip": "23508", "State": "VA", "Street": "901 Hanover Avenue", "Expiration": "09/30/2016", "Applicatio": "20111443", "Y": 36.897735, "X": -76.294433}},
{"geometry": {"type": "Point", "coordinates": [-76.31440995706461, 36.89781439768427]}, "type": "Feature", "properties": {"City": "Norfolk", "Name": "Robert  Branch", "OBJECTID": 57, "Zip": "23508", "State": "VA", "Street": "6141 Powhatan Avenue", "Expiration": "10/31/2018", "Applicatio": "20081900", "Y": 36.897807, "X": -76.314408}},
{"geometry": {"type": "Point", "coordinates": [-76.31433495705552, 36.89808039774321]}, "type": "Feature", "properties": {"City": "Norfolk", "Name": "Martha  Trapani", "OBJECTID": 58, "Zip": "23508", "State": "VA", "Street": "6147 Studeley Avenue", "Expiration": "10/31/2018", "Applicatio": "20081969", "Y": 36.898073, "X": -76.314333}},
{"geometry": {"type": "Point", "coordinates": [-76.04284387317738, 36.89821040700439]}, "type": "Feature", "properties": {"City": "Virginia Beach", "Name": "Stephen L. Eggleston", "OBJECTID": 59, "Zip": "23454", "State": "VA", "Street": "2249 Rose Hall Drive", "Expiration": "09/30/2017", "Applicatio": "20121389", "Y": 36.898203, "X": -76.042842}},
{"geometry": {"type": "Point", "coordinates": [-76.3081039551732, 36.898865398122425]}, "type": "Feature", "properties": {"City": "Norfolk", "Name": "Charles H Spence, Jr.", "OBJECTID": 60, "Zip": "23508-1140", "State": "VA", "Street": "6151 Westwood Terrace", "Expiration": "10/31/2016", "Applicatio": "20111582", "Y": 36.898858, "X": -76.308102}},
{"geometry": {"type": "Point", "coordinates": [-76.30467895418225, 36.90012439850614]}, "type": "Feature", "properties": {"City": "Norfolk", "Name": "Twila  Wilson", "OBJECTID": 61, "Zip": "23508", "State": "VA", "Street": "1217 Richmond Crescent", "Expiration": "10/31/2017", "Applicatio": "20062110", "Y": 36.900117, "X": -76.304677}},
{"geometry": {"type": "Point", "coordinates": [-76.3142449571475, 36.900340398225154]}, "type": "Feature", "properties": {"City": "Norfolk", "Name": "Julia  Etheridge", "OBJECTID": 62, "Zip": "23508", "State": "VA", "Street": "1617 Powhatan Place", "Expiration": "10/31/2017", "Applicatio": "20051954", "Y": 36.900333, "X": -76.314243}},
{"geometry": {"type": "Point", "coordinates": [-76.08279688567089, 36.900904406222146]}, "type": "Feature", "properties": {"City": "Virginia Beach", "Name": "Gregory W French", "OBJECTID": 63, "Zip": "23454", "State": "VA", "Street": "2041 Lynn Cove Lane", "Expiration": "09/30/2017", "Applicatio": "20071706", "Y": 36.900897, "X": -76.082795}},
{"geometry": {"type": "Point", "coordinates": [-76.07387688307061, 36.903895407159155]}, "type": "Feature", "properties": {"City": "Virginia Beach", "Name": "Lori  Rose", "OBJECTID": 64, "Zip": "23452", "State": "VA", "Street": "409 Bethune Drive", "Expiration": "09/30/2017", "Applicatio": "20062034", "Y": 36.903888, "X": -76.073875}},
{"geometry": {"type": "Point", "coordinates": [-76.06460488029808, 36.90568540785308]}, "type": "Feature", "properties": {"City": "Chesapeake", "Name": "Gale  Bryant", "OBJECTID": 65, "Zip": "23322", "State": "VA", "Street": "943 Forest Lakes Circle", "Expiration": "12/31/2017", "Applicatio": "20072104", "Y": 36.905678, "X": -76.064603}},
{"geometry": {"type": "Point", "coordinates": [-76.09607189003881, 36.90592940683783]}, "type": "Feature", "properties": {"City": "Virginia Beach", "Name": "Ryan E Kimmel", "OBJECTID": 66, "Zip": "23455", "State": "VA", "Street": "2078 Tazewell Road", "Expiration": "03/31/2019", "Applicatio": "20140315", "Y": 36.905922, "X": -76.09607}},
{"geometry": {"type": "Point", "coordinates": [-76.3076239554822, 36.90749939996815]}, "type": "Feature", "properties": {"City": "Norfolk", "Name": "Chesapeake Bay Foundation", "OBJECTID": 67, "Zip": "23510", "State": "VA", "Street": "100 W. Plume Street, Suite 336", "Expiration": "01/31/2018", "Applicatio": "19981634", "Y": 36.907492, "X": -76.307622}},
{"geometry": {"type": "Point", "coordinates": [-76.03862987236535, 36.90756040913097]}, "type": "Feature", "properties": {"City": "Virginia Beach", "Name": "Thoroughgood Elementary", "OBJECTID": 68, "Zip": "23455", "State": "VA", "Street": "1444 Dunston Lane", "Expiration": "12/31/2018", "Applicatio": "20131875", "Y": 36.907553, "X": -76.038628}},
{"geometry": {"type": "Point", "coordinates": [-76.30139495364355, 36.909100400520146]}, "type": "Feature", "properties": {"City": "Norfolk", "Name": "Katherine H Landman", "OBJECTID": 69, "Zip": "23505", "State": "VA", "Street": "1337 Laurel Crescent", "Expiration": "10/31/2017", "Applicatio": "20010838", "Y": 36.909093, "X": -76.301393}},
{"geometry": {"type": "Point", "coordinates": [-76.51056201849912, 36.914694394534585]}, "type": "Feature", "properties": {"City": "Carrollton", "Name": "David  Conlon", "OBJECTID": 70, "Zip": "22314", "State": "VA", "Street": "24146 Creekview Lane", "Expiration": "06/30/2017", "Applicatio": "20011084", "Y": 36.914687, "X": -76.51056}},
{"geometry": {"type": "Point", "coordinates": [-76.41522199165972, 36.963107408052686]}, "type": "Feature", "properties": {"City": "Newport News", "Name": "Hampton Roads Sanitation District", "OBJECTID": 71, "Zip": "23607", "State": "VA", "Street": "300 Terminal Avenue", "Expiration": "10/31/2016", "Applicatio": "20111504", "Y": 36.9631, "X": -76.41522}},
{"geometry": {"type": "Point", "coordinates": [-76.62334905757578, 36.99469940755118]}, "type": "Feature", "properties": {"City": "Smithfield", "Name": "D W McPhail", "OBJECTID": 72, "Zip": "23430", "State": "VA", "Street": "401 Pagan Ridge", "Expiration": "10/31/2017", "Applicatio": "20032124", "Y": 36.994692, "X": -76.623347}},
{"geometry": {"type": "Point", "coordinates": [-76.37320498058315, 36.99867041701442]}, "type": "Feature", "properties": {"City": "Hampton", "Name": "Christopher  Eliades", "OBJECTID": 73, "Zip": "23661", "State": "VA", "Street": "6 Maynard Street", "Expiration": "03/31/2015", "Applicatio": "20120426", "Y": 36.998663, "X": -76.373203}},
{"geometry": {"type": "Point", "coordinates": [-76.36202897731953, 37.0021954181432]}, "type": "Feature", "properties": {"City": "Hampton", "Name": "Randall T. Voland", "OBJECTID": 74, "Zip": "23661", "State": "VA", "Street": "3515 Chesapealke Avenue", "Expiration": "07/31/2018", "Applicatio": "20131107", "Y": 37.002188, "X": -76.362027}},
{"geometry": {"type": "Point", "coordinates": [-76.34164397173731, 37.01558542167274]}, "type": "Feature", "properties": {"City": "Hampton", "Name": "Nancy  Taylor", "OBJECTID": 75, "Zip": "23669", "State": "VA", "Street": "18 Ivy Home Road", "Expiration": "09/30/2017", "Applicatio": "20000959", "Y": 37.015578, "X": -76.341642}},
{"geometry": {"type": "Point", "coordinates": [-76.34398197279776, 37.021919422930914]}, "type": "Feature", "properties": {"City": "Hampton", "Name": "Kimberly H Deibler", "OBJECTID": 76, "Zip": "23669", "State": "VA", "Street": "435 Bridge Street", "Expiration": "12/30/2016", "Applicatio": "20111754", "Y": 37.021912, "X": -76.34398}},
{"geometry": {"type": "Point", "coordinates": [-76.59273505008224, 37.03093741625814]}, "type": "Feature", "properties": {"City": "Smithfield", "Name": "Harry  Thomas", "OBJECTID": 77, "Zip": "23430", "State": "VA", "Street": "19159 Farm Road", "Expiration": "02/28/2017", "Applicatio": "20120198", "Y": 37.03093, "X": -76.592733}},
{"geometry": {"type": "Point", "coordinates": [-76.33449897095164, 37.0422044275416]}, "type": "Feature", "properties": {"City": "Hampton", "Name": "Gerald  Walberg", "OBJECTID": 78, "Zip": "23669", "State": "VA", "Street": "4 Fulton Farm Road", "Expiration": "08/31/2017", "Applicatio": "20020746", "Y": 37.042197, "X": -76.334497}},
{"geometry": {"type": "Point", "coordinates": [-76.32615996872883, 37.04882442922601]}, "type": "Feature", "properties": {"City": "Hampton", "Name": "Claire  Neubert", "OBJECTID": 79, "Zip": "23669", "State": "VA", "Street": "405 Elizabeth Lake Drive", "Expiration": "09/30/2017", "Applicatio": "20062083", "Y": 37.048817, "X": -76.326158}},
{"geometry": {"type": "Point", "coordinates": [-76.32678996912351, 37.05256542999443]}, "type": "Feature", "properties": {"City": "Hampton", "Name": "Andrea C Berndt", "OBJECTID": 80, "Zip": "23669", "State": "VA", "Street": "508 Elizabeth Lake Drive", "Expiration": "08/31/2017", "Applicatio": "20042175", "Y": 37.052558, "X": -76.326788}},
{"geometry": {"type": "Point", "coordinates": [-76.28503695649086, 37.05763943249924]}, "type": "Feature", "properties": {"City": "Hampton", "Name": "James  Wharry", "OBJECTID": 81, "Zip": "23664", "State": "VA", "Street": "1024 Pointe Harbour Arch, #203", "Expiration": "09/30/2018", "Applicatio": "20081647", "Y": 37.057632, "X": -76.285035}},
{"geometry": {"type": "Point", "coordinates": [-76.28374895623702, 37.06034043311379]}, "type": "Feature", "properties": {"City": "Hampton", "Name": "Rita H Pickler", "OBJECTID": 82, "Zip": "23664", "State": "VA", "Street": "63 Bay Front Place", "Expiration": "08/31/2017", "Applicatio": "19991754", "Y": 37.060333, "X": -76.283747}},
{"geometry": {"type": "Point", "coordinates": [-76.51883902920568, 37.06679042637711]}, "type": "Feature", "properties": {"City": "Newport News", "Name": "Michael  Allen", "OBJECTID": 83, "Zip": "23606", "State": "VA", "Street": "16 Hillcrest Drive", "Expiration": "09/30/2017", "Applicatio": "20052304", "Y": 37.066783, "X": -76.518837}},
{"geometry": {"type": "Point", "coordinates": [-76.3358599732012, 37.0763874347115]}, "type": "Feature", "properties": {"City": "Hampton", "Name": "Jerome A. Meyers", "OBJECTID": 84, "Zip": "23669", "State": "VA", "Street": "453 Rockwell Road", "Expiration": "08/31/2017", "Applicatio": "20000231", "Y": 37.07638, "X": -76.335858}},
{"geometry": {"type": "Point", "coordinates": [-76.2982989625739, 37.094727439872784]}, "type": "Feature", "properties": {"City": "Hampton", "Name": "Dandy Haven Marina", "OBJECTID": 85, "Zip": "23664", "State": "VA", "Street": "374 Dandy Haven Road", "Expiration": "08/31/2017", "Applicatio": "20000957", "Y": 37.09472, "X": -76.298297}},
{"geometry": {"type": "Point", "coordinates": [-76.66385207742283, 37.1306894348052]}, "type": "Feature", "properties": {"City": "Smithfield", "Name": "David  Dunn", "OBJECTID": 86, "Zip": "23430", "State": "VA", "Street": "453 Lawnes Neck Drive", "Expiration": "06/30/2019", "Applicatio": "20140829", "Y": 37.130682, "X": -76.66385}},
{"geometry": {"type": "Point", "coordinates": [-76.35838198309034, 37.130949445443086]}, "type": "Feature", "properties": {"City": "Poquoson", "Name": "Thomas  Cirata", "OBJECTID": 87, "Zip": "23662", "State": "VA", "Street": "20B Freeman Drive", "Expiration": "12/31/2017", "Applicatio": "20072131", "Y": 37.130942, "X": -76.35838}},
{"geometry": {"type": "Point", "coordinates": [-76.36162398429389, 37.13469444612064]}, "type": "Feature", "properties": {"City": "Poquoson", "Name": "Mitch  Walker", "OBJECTID": 88, "Zip": "23662", "State": "VA", "Street": "7 Weston Drive", "Expiration": "08/31/2017", "Applicatio": "20060742", "Y": 37.134687, "X": -76.361622}},
{"geometry": {"type": "Point", "coordinates": [-76.36688498611012, 37.13822744668365]}, "type": "Feature", "properties": {"City": "Poquoson", "Name": "Thomas E Deans, Jr.", "OBJECTID": 89, "Zip": "23662", "State": "VA", "Street": "128 Forrest Road", "Expiration": "08/31/2017", "Applicatio": "19991917", "Y": 37.13822, "X": -76.366883}},
{"geometry": {"type": "Point", "coordinates": [-76.38184399084822, 37.1403524466153]}, "type": "Feature", "properties": {"City": "Poquoson", "Name": "Danny  Forrest", "OBJECTID": 90, "Zip": "23662", "State": "VA", "Street": "125 River Road", "Expiration": "12/31/2017", "Applicatio": "20072165", "Y": 37.140345, "X": -76.381842}},
{"geometry": {"type": "Point", "coordinates": [-76.38593399214912, 37.14103544661799]}, "type": "Feature", "properties": {"City": "Poquoson", "Name": "Edward C Harper", "OBJECTID": 91, "Zip": "23662", "State": "VA", "Street": "22 Rivergate Drive", "Expiration": "09/30/2018", "Applicatio": "20081654", "Y": 37.141028, "X": -76.385932}},
{"geometry": {"type": "Point", "coordinates": [-76.4322070065343, 37.142612445351844]}, "type": "Feature", "properties": {"City": "Yorktown", "Name": "Marnie  Titsch", "OBJECTID": 92, "Zip": "23692", "State": "VA", "Street": "502 Piney Point Road", "Expiration": "10/31/2017", "Applicatio": "20052341", "Y": 37.142605, "X": -76.432205}},
{"geometry": {"type": "Point", "coordinates": [-76.38818999304759, 37.14477044732697]}, "type": "Feature", "properties": {"City": "Poquoson", "Name": "David  Baker", "OBJECTID": 93, "Zip": "23662", "State": "VA", "Street": "12 Bennett Farm Road", "Expiration": "08/31/2018", "Applicatio": "20081364", "Y": 37.144763, "X": -76.388188}},
{"geometry": {"type": "Point", "coordinates": [-76.37512198916164, 37.147615448377394]}, "type": "Feature", "properties": {"City": "Poquoson", "Name": "Joseph N Zalameda", "OBJECTID": 94, "Zip": "23662", "State": "VA", "Street": "216 Mingee Street", "Expiration": "11/30/2016", "Applicatio": "20111712", "Y": 37.147608, "X": -76.37512}},
{"geometry": {"type": "Point", "coordinates": [-76.38986499380906, 37.14929544822234]}, "type": "Feature", "properties": {"City": "Poquoson", "Name": "Todd  Sperling", "OBJECTID": 95, "Zip": "23662", "State": "VA", "Street": "4 Weston Drive", "Expiration": "08/31/2017", "Applicatio": "20061501", "Y": 37.149288, "X": -76.389863}},
{"geometry": {"type": "Point", "coordinates": [-76.37988899073427, 37.14945744860086]}, "type": "Feature", "properties": {"City": "Poquoson", "Name": "Lawrence O. Myers", "OBJECTID": 96, "Zip": "23662", "State": "VA", "Street": "113 Browns Neck Road", "Expiration": "10/31/2017", "Applicatio": "20121525", "Y": 37.14945, "X": -76.379887}},
{"geometry": {"type": "Point", "coordinates": [-76.3967949961965, 37.15384944894223]}, "type": "Feature", "properties": {"City": "Poquoson", "Name": "Alan  Sheeler", "OBJECTID": 97, "Zip": "236621046", "State": "VA", "Street": "6 Timber Lane", "Expiration": "08/25/2016", "Applicatio": "20111249", "Y": 37.153842, "X": -76.396793}},
{"geometry": {"type": "Point", "coordinates": [-76.39941999711489, 37.155835449269766]}, "type": "Feature", "properties": {"City": "Poquoson", "Name": "C W Williams", "OBJECTID": 98, "Zip": "23662", "State": "VA", "Street": "8 Harbour View Drive", "Expiration": "08/31/2017", "Applicatio": "20011630", "Y": 37.155828, "X": -76.399418}},
{"geometry": {"type": "Point", "coordinates": [-76.4300770066124, 37.15625744829901]}, "type": "Feature", "properties": {"City": "Yorktown", "Name": "Dennis  Fuller", "OBJECTID": 99, "Zip": "23692", "State": "VA", "Street": "431 Weston Road", "Expiration": "10/31/2017", "Applicatio": "20010915", "Y": 37.15625, "X": -76.430075}},
{"geometry": {"type": "Point", "coordinates": [-76.39580199607721, 37.15732944970938]}, "type": "Feature", "properties": {"City": "Poquoson", "Name": "Robert  Moses", "OBJECTID": 100, "Zip": "23662", "State": "VA", "Street": "89 Sandy Bay Drive", "Expiration": "07/31/2018", "Applicatio": "20131126", "Y": 37.157322, "X": -76.3958}},
{"geometry": {"type": "Point", "coordinates": [-76.41117700109207, 37.1621994502036]}, "type": "Feature", "properties": {"City": "Yorktown", "Name": "M H Leonard", "OBJECTID": 101, "Zip": " ", "State": "VA", "Street": "1403-A Dare Road", "Expiration": "10/31/2017", "Applicatio": "20042551", "Y": 37.162192, "X": -76.411175}},
{"geometry": {"type": "Point", "coordinates": [-76.41043900102373, 37.165160450852525]}, "type": "Feature", "properties": {"City": "Gloucester", "Name": "Eric J Foell", "OBJECTID": 102, "Zip": "23061", "State": "VA", "Street": "9752 Indian Road", "Expiration": "10/31/2017", "Applicatio": "20011685", "Y": 37.165153, "X": -76.410437}},
{"geometry": {"type": "Point", "coordinates": [-76.41748000427731, 37.18510445480697]}, "type": "Feature", "properties": {"City": "Seaford", "Name": "Richard S Gula", "OBJECTID": 103, "Zip": "23696", "State": "VA", "Street": "424 Crockett Road", "Expiration": "10/31/2017", "Applicatio": "20071403", "Y": 37.185097, "X": -76.417478}},
{"geometry": {"type": "Point", "coordinates": [-76.43755701148756, 37.20366945801756]}, "type": "Feature", "properties": {"City": "Seaford", "Name": "Maureen  Galgan", "OBJECTID": 104, "Zip": "23696", "State": "VA", "Street": "221 Parker Lane", "Expiration": "10/31/2017", "Applicatio": "19990814", "Y": 37.203662, "X": -76.437555}},
{"geometry": {"type": "Point", "coordinates": [-76.43679201134522, 37.205407458409596]}, "type": "Feature", "properties": {"City": "Yorktown", "Name": "Grafton High School Marine Biology Class", "OBJECTID": 105, "Zip": " ", "State": "VA", "Street": " ", "Expiration": "11/25/2018", "Applicatio": "20131722", "Y": 37.2054, "X": -76.43679}},
{"geometry": {"type": "Point", "coordinates": [-76.46934702158718, 37.20872445797856]}, "type": "Feature", "properties": {"City": "Poquoson", "Name": "Robin  Clifford", "OBJECTID": 106, "Zip": "23662", "State": "VA", "Street": "31 Browns Neck Road", "Expiration": "08/31/2017", "Applicatio": "20121109", "Y": 37.208717, "X": -76.469345}},
{"geometry": {"type": "Point", "coordinates": [-76.47488502348264, 37.21211545849945]}, "type": "Feature", "properties": {"City": "Yorktown", "Name": "Robert M Donovan", "OBJECTID": 107, "Zip": "236924242", "State": "VA", "Street": "1004 Wormley Creek Drive", "Expiration": "10/31/2017", "Applicatio": "20011809", "Y": 37.212108, "X": -76.474883}},
{"geometry": {"type": "Point", "coordinates": [-76.42341900812707, 37.222315462428604]}, "type": "Feature", "properties": {"City": "Yorktown", "Name": "C. T. Tiller", "OBJECTID": 108, "Zip": "23692", "State": "VA", "Street": "115 Sandbox Lane", "Expiration": "05/21/2017", "Applicatio": "20120521", "Y": 37.222308, "X": -76.423417}},
{"geometry": {"type": "Point", "coordinates": [-75.99436387577143, 37.23047447891048]}, "type": "Feature", "properties": {"City": "Cape Charles", "Name": "William T. Doughty", "OBJECTID": 109, "Zip": "23310", "State": "VA", "Street": "2464 Plantation Creek Lane", "Expiration": "02/28/2018", "Applicatio": "20130195", "Y": 37.230467, "X": -75.994362}},
{"geometry": {"type": "Point", "coordinates": [-75.9944438769075, 37.251254483285045]}, "type": "Feature", "properties": {"City": "Cape Charles", "Name": "Bill  Girtman", "OBJECTID": 110, "Zip": "23310", "State": "VA", "Street": "114 Old Course Loop", "Expiration": "10/31/2017", "Applicatio": "20121517", "Y": 37.251247, "X": -75.994442}},
{"geometry": {"type": "Point", "coordinates": [-76.47948002741751, 37.25840746806759]}, "type": "Feature", "properties": {"City": "Gloucester Point", "Name": "C R Doggett", "OBJECTID": 111, "Zip": "23062", "State": "VA", "Street": "8106 Terrapin Cove Road", "Expiration": "08/31/2017", "Applicatio": "19991716", "Y": 37.2584, "X": -76.479478}},
{"geometry": {"type": "Point", "coordinates": [-76.47574002627434, 37.25864546824752]}, "type": "Feature", "properties": {"City": "Hayes", "Name": "Chester  Brown", "OBJECTID": 112, "Zip": "23072", "State": "VA", "Street": "1807 Lillaston Lane", "Expiration": "11/30/2017", "Applicatio": "20052248", "Y": 37.258638, "X": -76.475738}},
{"geometry": {"type": "Point", "coordinates": [-76.4674020237227, 37.2591244686378]}, "type": "Feature", "properties": {"City": "Richmond", "Name": "Chesapeake Bay Foundation, Inc.", "OBJECTID": 113, "Zip": "23219", "State": "VA", "Street": "1108 E. Main Street, Suite 1600", "Expiration": "11/30/2017", "Applicatio": "20001851", "Y": 37.259117, "X": -76.4674}},
{"geometry": {"type": "Point", "coordinates": [-76.48554902947116, 37.26167046854181]}, "type": "Feature", "properties": {"City": "Gloucester Point", "Name": "Robert W Jones", "OBJECTID": 114, "Zip": "23062", "State": "VA", "Street": "7887 Berkeley Drive", "Expiration": "01/31/2015", "Applicatio": "20101668", "Y": 37.261663, "X": -76.485547}},
{"geometry": {"type": "Point", "coordinates": [-76.47128502507043, 37.261832469071685]}, "type": "Feature", "properties": {"City": "Hayes", "Name": "Michael  Jeffers", "OBJECTID": 115, "Zip": "23072", "State": "VA", "Street": "8360 Circle Drive", "Expiration": "02/28/2017", "Applicatio": "20120125", "Y": 37.261825, "X": -76.471283}},
{"geometry": {"type": "Point", "coordinates": [-76.4880050305238, 37.26706046958827]}, "type": "Feature", "properties": {"City": "Hayes", "Name": "F J Crandell", "OBJECTID": 116, "Zip": "23072", "State": "VA", "Street": "2005 Tillage Lane", "Expiration": "11/30/2017", "Applicatio": "20052977", "Y": 37.267053, "X": -76.488003}},
{"geometry": {"type": "Point", "coordinates": [-76.43586001443741, 37.26771547153761]}, "type": "Feature", "properties": {"City": "Bena", "Name": "Charles R Harris, Jr.", "OBJECTID": 117, "Zip": "23018", "State": "VA", "Street": "Post Office Box 95", "Expiration": "12/30/2015", "Applicatio": "20101558", "Y": 37.267708, "X": -76.435858}},
{"geometry": {"type": "Point", "coordinates": [-76.5117200381891, 37.273200470052295]}, "type": "Feature", "properties": {"City": "Hayes", "Name": "Linda  Diedrich", "OBJECTID": 118, "Zip": "23155", "State": "VA", "Street": "2208 James Drive", "Expiration": "10/31/2018", "Applicatio": "20131606", "Y": 37.273193, "X": -76.511718}},
{"geometry": {"type": "Point", "coordinates": [-76.5138790389686, 37.2752574704089]}, "type": "Feature", "properties": {"City": "Hayes", "Name": "River Club at Twin Island Property Owners Associat", "OBJECTID": 119, "Zip": "23072", "State": "VA", "Street": "7191 Stokes Drive", "Expiration": "12/31/2015", "Applicatio": "20101639", "Y": 37.27525, "X": -76.513877}},
{"geometry": {"type": "Point", "coordinates": [-76.00010188021966, 37.28035448921793]}, "type": "Feature", "properties": {"City": "Cheriton", "Name": "Granville  Hogge", "OBJECTID": 120, "Zip": "23316", "State": "VA", "Street": "Post Office Box 117", "Expiration": "09/30/2017", "Applicatio": "20001051", "Y": 37.280347, "X": -76.0001}},
{"geometry": {"type": "Point", "coordinates": [-76.44256001803646, 37.29578747719902]}, "type": "Feature", "properties": {"City": "Achilles", "Name": "Barry R Foskit", "OBJECTID": 121, "Zip": "230010148", "State": "VA", "Street": "Post Office Box 148", "Expiration": "08/31/2017", "Applicatio": "20001763", "Y": 37.29578, "X": -76.442558}},
{"geometry": {"type": "Point", "coordinates": [-76.43884701690439, 37.296085477390584]}, "type": "Feature", "properties": {"City": "Hayes", "Name": "Richard  Steimle", "OBJECTID": 122, "Zip": "23072", "State": "VA", "Street": "9244 Sylvia Avenue", "Expiration": "06/30/2018", "Applicatio": "20081163", "Y": 37.296078, "X": -76.438845}},
{"geometry": {"type": "Point", "coordinates": [-76.44061401746136, 37.29627747736943]}, "type": "Feature", "properties": {"City": "Charlottesville", "Name": "Bryce  Paschal", "OBJECTID": 123, "Zip": "22901", "State": "VA", "Street": "2203 Brandywine Drive", "Expiration": "04/30/2019", "Applicatio": "20140475", "Y": 37.29627, "X": -76.440612}},
{"geometry": {"type": "Point", "coordinates": [-76.43437501600305, 37.30493047940245]}, "type": "Feature", "properties": {"City": "Hayes", "Name": "Nicholas G. Ryder", "OBJECTID": 124, "Zip": "23072", "State": "VA", "Street": "9345 Rowes Point Road", "Expiration": "06/30/2018", "Applicatio": "20130748", "Y": 37.304923, "X": -76.434373}},
{"geometry": {"type": "Point", "coordinates": [-76.47773203008907, 37.31735048049981]}, "type": "Feature", "properties": {"City": "Ordinary", "Name": "Etna  Walker", "OBJECTID": 125, "Zip": "23131", "State": "VA", "Street": "Post Office Box 324", "Expiration": "01/31/2018", "Applicatio": "20130079", "Y": 37.317343, "X": -76.47773}},
{"geometry": {"type": "Point", "coordinates": [-76.44523902005271, 37.317582481679366]}, "type": "Feature", "properties": {"City": "Hayes", "Name": "Steven C Wann", "OBJECTID": 126, "Zip": "23072", "State": "VA", "Street": "9607 Glass Road", "Expiration": "11/30/2017", "Applicatio": "20010116", "Y": 37.317575, "X": -76.445237}},
{"geometry": {"type": "Point", "coordinates": [-76.56823905816728, 37.31910947771245]}, "type": "Feature", "properties": {"City": "Hayes", "Name": "Elizabeth  Aldrich", "OBJECTID": 127, "Zip": "23072", "State": "VA", "Street": "3661 Shelly Road", "Expiration": "11/30/2017", "Applicatio": "20001105", "Y": 37.319102, "X": -76.568237}},
{"geometry": {"type": "Point", "coordinates": [-76.44692702137678, 37.33228248470401]}, "type": "Feature", "properties": {"City": "Gloucester", "Name": "James W Long", "OBJECTID": 128, "Zip": "23061", "State": "VA", "Street": "4412 Johns Point Road", "Expiration": "10/31/2017", "Applicatio": "20042438", "Y": 37.332275, "X": -76.446925}},
{"geometry": {"type": "Point", "coordinates": [-76.47973503179308, 37.33720748459416]}, "type": "Feature", "properties": {"City": "White Marsh", "Name": "Charles V Spain", "OBJECTID": 129, "Zip": "23183", "State": "VA", "Street": "Box 532", "Expiration": "11/30/2017", "Applicatio": "20070218", "Y": 37.3372, "X": -76.479733}},
{"geometry": {"type": "Point", "coordinates": [-76.28288697093481, 37.33817449163421]}, "type": "Feature", "properties": {"City": "Port Haywood", "Name": "Frank D Paris", "OBJECTID": 130, "Zip": "23138", "State": "VA", "Street": "Post Office Box 512", "Expiration": "03/07/2016", "Applicatio": "20110270", "Y": 37.338167, "X": -76.282885}},
{"geometry": {"type": "Point", "coordinates": [-76.47852403153526, 37.33934248508397]}, "type": "Feature", "properties": {"City": "White Marsh", "Name": "Eric  Garcia", "OBJECTID": 131, "Zip": "23183", "State": "VA", "Street": "Post Office Box 698", "Expiration": "10/31/2018", "Applicatio": "20131445", "Y": 37.339335, "X": -76.478522}},
{"geometry": {"type": "Point", "coordinates": [-76.32425498455571, 37.35315749334431]}, "type": "Feature", "properties": {"City": "Mechanicsville", "Name": "John  Zupanovich", "OBJECTID": 132, "Zip": "23116", "State": "VA", "Street": "10258 Shawns Grove Place", "Expiration": "08/31/2017", "Applicatio": "20021988", "Y": 37.35315, "X": -76.324253}},
{"geometry": {"type": "Point", "coordinates": [-76.33010398645862, 37.35485449349741]}, "type": "Feature", "properties": {"City": "Alexandria", "Name": "Rebecca S Dalessandro", "OBJECTID": 133, "Zip": "22314", "State": "VA", "Street": "407 Oronoco Street", "Expiration": "10/31/2016", "Applicatio": "20111480", "Y": 37.354847, "X": -76.330102}},
{"geometry": {"type": "Point", "coordinates": [-76.29423497561864, 37.359709495759574]}, "type": "Feature", "properties": {"City": "Port Haywood", "Name": "James L Myers", "OBJECTID": 134, "Zip": "23138", "State": "VA", "Street": "272 Brush Neck Road", "Expiration": "04/06/2016", "Applicatio": "20110473", "Y": 37.359702, "X": -76.294233}},
{"geometry": {"type": "Point", "coordinates": [-76.4428520216509, 37.36037949073646]}, "type": "Feature", "properties": {"City": "Gloucester", "Name": "Peter G Kucera", "OBJECTID": 135, "Zip": "23061", "State": "VA", "Street": "5741 Mobjack Road", "Expiration": "07/31/2016", "Applicatio": "20110716", "Y": 37.360372, "X": -76.44285}},
{"geometry": {"type": "Point", "coordinates": [-76.47862703274298, 37.36084048958634]}, "type": "Feature", "properties": {"City": "Gloucester", "Name": "Christopher S Welch", "OBJECTID": 136, "Zip": "23061", "State": "VA", "Street": "5400 Three Mile Lane", "Expiration": "08/31/2017", "Applicatio": "19982023", "Y": 37.360833, "X": -76.478625}},
{"geometry": {"type": "Point", "coordinates": [-76.28301397234725, 37.36344049693101]}, "type": "Feature", "properties": {"City": "Powhatan", "Name": "Frederick A Gibson", "OBJECTID": 137, "Zip": "23139", "State": "VA", "Street": "2361 Judes Ferry Road", "Expiration": "08/31/2017", "Applicatio": "20021850", "Y": 37.363433, "X": -76.283012}},
{"geometry": {"type": "Point", "coordinates": [-76.62401507801874, 37.36668748572856]}, "type": "Feature", "properties": {"City": "Gloucester", "Name": "John  Watts", "OBJECTID": 138, "Zip": "23061", "State": "VA", "Street": "5464 York Haven Lane", "Expiration": "11/30/2017", "Applicatio": "20072024", "Y": 37.36668, "X": -76.624013}},
{"geometry": {"type": "Point", "coordinates": [-76.3324819879711, 37.36910749640385]}, "type": "Feature", "properties": {"City": "Richmond", "Name": "David  Addison", "OBJECTID": 139, "Zip": "23229", "State": "VA", "Street": "208 Walsing Drive", "Expiration": "09/30/2017", "Applicatio": "20071892", "Y": 37.3691, "X": -76.33248}},
{"geometry": {"type": "Point", "coordinates": [-76.48573503550391, 37.37111049149012]}, "type": "Feature", "properties": {"City": "Gloucester", "Name": "Melridge  Shelby", "OBJECTID": 140, "Zip": "23061", "State": "VA", "Street": "7871 Paynes Landing Road", "Expiration": "11/30/2017", "Applicatio": "20062239", "Y": 37.371103, "X": -76.485733}},
{"geometry": {"type": "Point", "coordinates": [-76.33380998882431, 37.377219498058444]}, "type": "Feature", "properties": {"City": "Richmond", "Name": "Paul M Wiley", "OBJECTID": 141, "Zip": "23236", "State": "VA", "Street": "12139 Wexwood Drive", "Expiration": "05/31/2019", "Applicatio": "20090347", "Y": 37.377212, "X": -76.333808}},
{"geometry": {"type": "Point", "coordinates": [-76.28677897433961, 37.378630499986194]}, "type": "Feature", "properties": {"City": "Mechanicsville", "Name": "Alan  Kinker", "OBJECTID": 142, "Zip": "23111", "State": "VA", "Street": "7434 Strain Avenue", "Expiration": "10/31/2018", "Applicatio": "20131535", "Y": 37.378623, "X": -76.286777}},
{"geometry": {"type": "Point", "coordinates": [-76.27226896988455, 37.379332500636316]}, "type": "Feature", "properties": {"City": "Woodbridge", "Name": "Wayne K Mallard", "OBJECTID": 143, "Zip": "22192", "State": "VA", "Street": "11941 Shenandoah Court", "Expiration": "08/31/2017", "Applicatio": "20042483", "Y": 37.379325, "X": -76.272267}},
{"geometry": {"type": "Point", "coordinates": [-76.28219397297102, 37.37957050034218]}, "type": "Feature", "properties": {"City": "Onemo", "Name": "Mark I Hudgins", "OBJECTID": 144, "Zip": "23130", "State": "VA", "Street": "520 Ivison Lane", "Expiration": "10/31/2017", "Applicatio": "20031808", "Y": 37.379563, "X": -76.282192}},
{"geometry": {"type": "Point", "coordinates": [-75.97504387806771, 37.3848445120436]}, "type": "Feature", "properties": {"City": "Eastville", "Name": "Louis  Bonnefond", "OBJECTID": 145, "Zip": "23347", "State": "VA", "Street": "Post Office Box 326", "Expiration": "09/30/2017", "Applicatio": "19991495", "Y": 37.384837, "X": -75.975042}},
{"geometry": {"type": "Point", "coordinates": [-76.46286502920323, 37.38524549524886]}, "type": "Feature", "properties": {"City": "Gloucester", "Name": "Frederick M Clements", "OBJECTID": 146, "Zip": "23061", "State": "VA", "Street": "Box 342", "Expiration": "08/31/2017", "Applicatio": "20001007", "Y": 37.385238, "X": -76.462863}},
{"geometry": {"type": "Point", "coordinates": [-76.47254003256715, 37.392007496327395]}, "type": "Feature", "properties": {"City": "Gloucester", "Name": "Thomas E Bernard", "OBJECTID": 147, "Zip": "23061", "State": "VA", "Street": "6527 Country Acres Trail", "Expiration": "11/30/2017", "Applicatio": "20010837", "Y": 37.392, "X": -76.472538}},
{"geometry": {"type": "Point", "coordinates": [-75.96666487603704, 37.395385514544564]}, "type": "Feature", "properties": {"City": "Richmond", "Name": "Giles C Upshur", "OBJECTID": 148, "Zip": "23229", "State": "VA", "Street": "6601 River Road", "Expiration": "09/30/2017", "Applicatio": "20052174", "Y": 37.395378, "X": -75.966663}},
{"geometry": {"type": "Point", "coordinates": [-76.42303701760349, 37.39846949940716]}, "type": "Feature", "properties": {"City": "Richmond", "Name": "Anne P. Bolton", "OBJECTID": 149, "Zip": "23233", "State": "VA", "Street": "3511 Pemberton Road", "Expiration": "08/31/2017", "Applicatio": "19980875", "Y": 37.398462, "X": -76.423035}},
{"geometry": {"type": "Point", "coordinates": [-76.48518203704974, 37.40242449806716]}, "type": "Feature", "properties": {"City": "Gloucester", "Name": "John  Ericson", "OBJECTID": 150, "Zip": "230961", "State": "VA", "Street": "7058 Ware River Drive", "Expiration": "08/31/2017", "Applicatio": "19980869", "Y": 37.402417, "X": -76.48518}},
{"geometry": {"type": "Point", "coordinates": [-76.33773199143592, 37.40282750328892]}, "type": "Feature", "properties": {"City": "Mathews", "Name": "Rolf F Zierow", "OBJECTID": 151, "Zip": "23109", "State": "VA", "Street": "Post Office Box 840", "Expiration": "08/31/2017", "Applicatio": "19980893", "Y": 37.40282, "X": -76.33773}},
{"geometry": {"type": "Point", "coordinates": [-76.3514099957184, 37.40369950299614]}, "type": "Feature", "properties": {"City": "Cardinal", "Name": "Philippe  Nadeau", "OBJECTID": 152, "Zip": "23025", "State": "VA", "Street": "Post Office Box 100", "Expiration": "03/31/2019", "Applicatio": "20090067", "Y": 37.403692, "X": -76.351408}},
{"geometry": {"type": "Point", "coordinates": [-76.43758002264065, 37.4082625009508]}, "type": "Feature", "properties": {"City": "Ware Neck", "Name": "R W Johnson, Jr.", "OBJECTID": 153, "Zip": "231780052", "State": "VA", "Street": "Post Office 52", "Expiration": "11/30/2017", "Applicatio": "20052023", "Y": 37.408255, "X": -76.437578}},
{"geometry": {"type": "Point", "coordinates": [-75.97065187798678, 37.40860251718219]}, "type": "Feature", "properties": {"City": "Machipongo", "Name": "Kelsey  Gaskins", "OBJECTID": 154, "Zip": "23405", "State": "VA", "Street": "12495 Wards Road", "Expiration": "12/31/2017", "Applicatio": "20121785", "Y": 37.408595, "X": -75.97065}},
{"geometry": {"type": "Point", "coordinates": [-76.4172690163937, 37.40897450180801]}, "type": "Feature", "properties": {"City": "Ware Neck", "Name": "Armand  Wagner", "OBJECTID": 155, "Zip": "23178", "State": "VA", "Street": "Post Office Box 10", "Expiration": "11/30/2017", "Applicatio": "20070229", "Y": 37.408967, "X": -76.417267}},
{"geometry": {"type": "Point", "coordinates": [-76.34949699545571, 37.40972950432574]}, "type": "Feature", "properties": {"City": "Cardinal", "Name": "John  Chapman", "OBJECTID": 156, "Zip": "23025", "State": "VA", "Street": "673 Hicks Wharf Road", "Expiration": "08/31/2017", "Applicatio": "20061862", "Y": 37.409722, "X": -76.349495}},
{"geometry": {"type": "Point", "coordinates": [-75.96282987575415, 37.412195518204996]}, "type": "Feature", "properties": {"City": "Machipongo", "Name": "David  Kelly", "OBJECTID": 157, "Zip": "23405", "State": "VA", "Street": "12282 Wilsonia Harbor Way", "Expiration": "10/31/2017", "Applicatio": "20121577", "Y": 37.412188, "X": -75.962828}},
{"geometry": {"type": "Point", "coordinates": [-76.33117399034268, 37.41998450711087]}, "type": "Feature", "properties": {"City": "Mathews", "Name": "Catherine  Jones", "OBJECTID": 158, "Zip": "23109", "State": "VA", "Street": "Post Office Box 556", "Expiration": "09/30/2016", "Applicatio": "20111386", "Y": 37.419977, "X": -76.331172}},
{"geometry": {"type": "Point", "coordinates": [-75.95038187243813, 37.42231052075506]}, "type": "Feature", "properties": {"City": "Eastville", "Name": "Wayne M Galbraith", "OBJECTID": 159, "Zip": "23347", "State": "VA", "Street": "Post Office Box 1175", "Expiration": "03/31/2017", "Applicatio": "20120211", "Y": 37.422303, "X": -75.95038}},
{"geometry": {"type": "Point", "coordinates": [-76.44593902632916, 37.42834550486285]}, "type": "Feature", "properties": {"City": "North", "Name": "Marilyn W Layer", "OBJECTID": 160, "Zip": "23128", "State": "VA", "Street": "Post Office Box 127", "Expiration": "08/31/2017", "Applicatio": "20010597", "Y": 37.428338, "X": -76.445937}},
{"geometry": {"type": "Point", "coordinates": [-76.40971401542356, 37.433940507297756]}, "type": "Feature", "properties": {"City": "Richmond", "Name": "David B Mortimer", "OBJECTID": 161, "Zip": "23229", "State": "VA", "Street": "8407 Ridge Road", "Expiration": "12/31/2017", "Applicatio": "20072446", "Y": 37.433933, "X": -76.409712}},
{"geometry": {"type": "Point", "coordinates": [-76.44373002599323, 37.43468050626568]}, "type": "Feature", "properties": {"City": "Richmond", "Name": "Andrew C Carington", "OBJECTID": 162, "Zip": "23223", "State": "VA", "Street": "104 N. 28th Street", "Expiration": "11/30/2017", "Applicatio": "20072458", "Y": 37.434673, "X": -76.443728}},
{"geometry": {"type": "Point", "coordinates": [-76.44351202605127, 37.436965506751314]}, "type": "Feature", "properties": {"City": "Williamsburg", "Name": "Ivar H Gjolberg", "OBJECTID": 163, "Zip": "23185", "State": "VA", "Street": "19 Forest Hill Drive", "Expiration": "12/30/2016", "Applicatio": "20111682", "Y": 37.436958, "X": -76.44351}},
{"geometry": {"type": "Point", "coordinates": [-76.41362401687277, 37.43829450807259]}, "type": "Feature", "properties": {"City": "North", "Name": "Gladstone  Chandler", "OBJECTID": 164, "Zip": "231280263", "State": "VA", "Street": "Post Office Box 263", "Expiration": "09/30/2017", "Applicatio": "20011342", "Y": 37.438287, "X": -76.413622}},
{"geometry": {"type": "Point", "coordinates": [-76.28667897783114, 37.44320751352037]}, "type": "Feature", "properties": {"City": "Moonj", "Name": "Seth W Anderson", "OBJECTID": 165, "Zip": "23119", "State": "VA", "Street": "263 Haven Beanc Road", "Expiration": "05/31/2019", "Applicatio": "20090259", "Y": 37.4432, "X": -76.286677}},
{"geometry": {"type": "Point", "coordinates": [-76.44581902756056, 37.451440509698884]}, "type": "Feature", "properties": {"City": "Gloucester", "Name": "Ronald J Duke", "OBJECTID": 166, "Zip": "23061", "State": "VA", "Street": "8737 Coles Landing Drive", "Expiration": "11/30/2017", "Applicatio": "20032041", "Y": 37.451433, "X": -76.445817}},
{"geometry": {"type": "Point", "coordinates": [-76.445160027357, 37.45144750972329]}, "type": "Feature", "properties": {"City": "Gloucester", "Name": "Alvin H Ingram, Jr.", "OBJECTID": 167, "Zip": "23061", "State": "VA", "Street": "8757 Coles Landing Drive", "Expiration": "11/30/2017", "Applicatio": "20032040", "Y": 37.45144, "X": -76.445158}},
{"geometry": {"type": "Point", "coordinates": [-76.44298002680888, 37.453752510281625]}, "type": "Feature", "properties": {"City": "Gloucester", "Name": "George M Nygaard", "OBJECTID": 168, "Zip": "23061", "State": "VA", "Street": "8837 Midlothian Way", "Expiration": "08/31/2017", "Applicatio": "20001815", "Y": 37.453745, "X": -76.442978}},
{"geometry": {"type": "Point", "coordinates": [-76.30833198518584, 37.45504451524562]}, "type": "Feature", "properties": {"City": "Mathews", "Name": "Robert L Koster", "OBJECTID": 169, "Zip": "23109", "State": "VA", "Street": "1006 Pine Hall Road", "Expiration": "12/31/2018", "Applicatio": "20081774", "Y": 37.455037, "X": -76.30833}},
{"geometry": {"type": "Point", "coordinates": [-76.65615509328197, 37.463195504780636]}, "type": "Feature", "properties": {"City": "Gloucester", "Name": "Michael  Sawtschenko", "OBJECTID": 170, "Zip": "23061", "State": "VA", "Street": "9042 Twin Rivers Lane", "Expiration": "03/31/2017", "Applicatio": "20120395", "Y": 37.463188, "X": -76.656153}},
{"geometry": {"type": "Point", "coordinates": [-76.31228498686973, 37.463435516864145]}, "type": "Feature", "properties": {"City": "Mechanicsville", "Name": "Nicholas  Koch", "OBJECTID": 171, "Zip": "23116", "State": "VA", "Street": "8380 Culley Drive", "Expiration": "11/30/2017", "Applicatio": "20121678", "Y": 37.463428, "X": -76.312283}},
{"geometry": {"type": "Point", "coordinates": [-76.3148669877331, 37.46459551701705]}, "type": "Feature", "properties": {"City": "Hudgins", "Name": "Roland L. Foster", "OBJECTID": 172, "Zip": "23076", "State": "VA", "Street": "107 Slate Road", "Expiration": "08/31/2017", "Applicatio": "20130821", "Y": 37.464588, "X": -76.314865}},
{"geometry": {"type": "Point", "coordinates": [-76.29033198034676, 37.46851051868974]}, "type": "Feature", "properties": {"City": "Richmond", "Name": "Matthew  Hawks", "OBJECTID": 173, "Zip": "23227", "State": "VA", "Street": "4516 Newport Drive", "Expiration": "03/31/2015", "Applicatio": "20120280", "Y": 37.468503, "X": -76.29033}},
{"geometry": {"type": "Point", "coordinates": [-75.93625687092027, 37.47532953236019]}, "type": "Feature", "properties": {"City": "Charlottesville", "Name": "Dennis  Nordstrom", "OBJECTID": 174, "Zip": "22903", "State": "VA", "Street": "1710 Mason Lane", "Expiration": "01/31/2017", "Applicatio": "20120109", "Y": 37.475322, "X": -75.936255}},
{"geometry": {"type": "Point", "coordinates": [-76.3087369865267, 37.477237519875295]}, "type": "Feature", "properties": {"City": "Hampton", "Name": "Dennis K Gryder", "OBJECTID": 175, "Zip": "23669", "State": "VA", "Street": "626 New Bern Avenue", "Expiration": "01/31/2019", "Applicatio": "19980840", "Y": 37.47723, "X": -76.308735}},
{"geometry": {"type": "Point", "coordinates": [-76.30573998573894, 37.479804520516545]}, "type": "Feature", "properties": {"City": "Hudgins", "Name": "William J Harden", "OBJECTID": 176, "Zip": "230760215", "State": "VA", "Street": "Post Office Box 215", "Expiration": "08/31/2017", "Applicatio": "20001585", "Y": 37.479797, "X": -76.305738}},
{"geometry": {"type": "Point", "coordinates": [-76.30522398575569, 37.483027521208804]}, "type": "Feature", "properties": {"City": "Harrisonburg", "Name": "John B Reeves, Sr.", "OBJECTID": 177, "Zip": "22801-3579", "State": "VA", "Street": "400 Silver Oaks Drive", "Expiration": "08/31/2017", "Applicatio": "20031763", "Y": 37.48302, "X": -76.305222}},
{"geometry": {"type": "Point", "coordinates": [-75.93557387114464, 37.483390534073166]}, "type": "Feature", "properties": {"City": "Jamesville", "Name": "C L Imler", "OBJECTID": 178, "Zip": "23398", "State": "BVA", "Street": "Post Office Box 212", "Expiration": "09/30/2017", "Applicatio": "20062087", "Y": 37.483383, "X": -75.935572}},
{"geometry": {"type": "Point", "coordinates": [-76.32653499243092, 37.484360520745405]}, "type": "Feature", "properties": {"City": "Hudgins", "Name": "Frank J Gadams", "OBJECTID": 179, "Zip": "23076", "State": "VA", "Street": "Post Office Box 38", "Expiration": "08/31/2016", "Applicatio": "20111114", "Y": 37.484353, "X": -76.326533}},
{"geometry": {"type": "Point", "coordinates": [-75.90383886136918, 37.484790535457144]}, "type": "Feature", "properties": {"City": "Franktown", "Name": "E. P. Kellam, Jr.", "OBJECTID": 180, "Zip": "23354", "State": "VA", "Street": "Post Office Box 205", "Expiration": "09/30/2017", "Applicatio": "20121499", "Y": 37.484783, "X": -75.903837}},
{"geometry": {"type": "Point", "coordinates": [-76.32370999162968, 37.485707521125526]}, "type": "Feature", "properties": {"City": "Chesterfield", "Name": "Matthew W Reynolds", "OBJECTID": 181, "Zip": "23832", "State": "VA", "Street": "3925 Round Hill Court", "Expiration": "09/30/2017", "Applicatio": "20001734", "Y": 37.4857, "X": -76.323708}},
{"geometry": {"type": "Point", "coordinates": [-76.34873499945304, 37.487007520525374]}, "type": "Feature", "properties": {"City": "Mechanicsville", "Name": "Keith  Walls", "OBJECTID": 182, "Zip": "23116", "State": "VA", "Street": "7094 Rotherham Drive", "Expiration": "08/31/2017", "Applicatio": "20021918", "Y": 37.487, "X": -76.348733}},
{"geometry": {"type": "Point", "coordinates": [-75.9344898710979, 37.488740535231656]}, "type": "Feature", "properties": {"City": "Jamesville", "Name": "Paul V Converse", "OBJECTID": 183, "Zip": "233980009", "State": "VA", "Street": "Post Office Box 9", "Expiration": "09/30/2017", "Applicatio": "20062053", "Y": 37.488733, "X": -75.934488}},
{"geometry": {"type": "Point", "coordinates": [-76.31219398838851, 37.49166052277163]}, "type": "Feature", "properties": {"City": "Hudgins", "Name": "Holmes C. Harrison", "OBJECTID": 184, "Zip": "23076", "State": "VA", "Street": "Post Office Box 266", "Expiration": "10/31/2018", "Applicatio": "20131517", "Y": 37.491653, "X": -76.312192}},
{"geometry": {"type": "Point", "coordinates": [-76.31184498828748, 37.49179052281097]}, "type": "Feature", "properties": {"City": "Hudgins", "Name": "John  Forrest", "OBJECTID": 185, "Zip": "23076", "State": "VA", "Street": "244 Old Ferry Road", "Expiration": "10/31/2018", "Applicatio": "20131441", "Y": 37.491783, "X": -76.311843}},
{"geometry": {"type": "Point", "coordinates": [-76.29166898209951, 37.49294452375472]}, "type": "Feature", "properties": {"City": "Mathews", "Name": "Virginia Cooperative Extension", "OBJECTID": 186, "Zip": "231090569", "State": "VA", "Street": "Post Office Box 569", "Expiration": "10/31/2017", "Applicatio": "20071114", "Y": 37.492937, "X": -76.291667}},
{"geometry": {"type": "Point", "coordinates": [-75.89233185829774, 37.494054537794064]}, "type": "Feature", "properties": {"City": "Virginia Beach", "Name": "Martin S Welsh", "OBJECTID": 187, "Zip": "23455", "State": "VA", "Street": "5201 Lake Shores Raod", "Expiration": "09/30/2017", "Applicatio": "20061892", "Y": 37.494047, "X": -75.89233}},
{"geometry": {"type": "Point", "coordinates": [-76.33635699641543, 37.501515523990115]}, "type": "Feature", "properties": {"City": "Hallieford", "Name": "Donna A Hautz", "OBJECTID": 188, "Zip": "23068", "State": "VA", "Street": "P.O. Box 44", "Expiration": "09/30/2017", "Applicatio": "20060104", "Y": 37.501508, "X": -76.336355}},
{"geometry": {"type": "Point", "coordinates": [-75.80266883101714, 37.50451554306186]}, "type": "Feature", "properties": {"City": "Eastville", "Name": "Northampton High School", "OBJECTID": 189, "Zip": "23347", "State": "VA", "Street": "Box 38", "Expiration": "09/30/2017", "Applicatio": "20002177", "Y": 37.504508, "X": -75.802667}},
{"geometry": {"type": "Point", "coordinates": [-76.34072699796042, 37.504994524565014]}, "type": "Feature", "properties": {"City": "Richmond", "Name": "Robert  Burns", "OBJECTID": 190, "Zip": "23225", "State": "VA", "Street": "2701 Stratford Road", "Expiration": "11/30/2016", "Applicatio": "20111662", "Y": 37.504987, "X": -76.340725}},
{"geometry": {"type": "Point", "coordinates": [-76.43219502667628, 37.51199552283273]}, "type": "Feature", "properties": {"City": "Dutton", "Name": "D. P. Roane, Jr.", "OBJECTID": 191, "Zip": "23050", "State": "VA", "Street": "Post Office Box 237", "Expiration": "08/31/2018", "Applicatio": "20131109", "Y": 37.511988, "X": -76.432193}},
{"geometry": {"type": "Point", "coordinates": [-76.47090203872204, 37.51309452170705]}, "type": "Feature", "properties": {"City": "Gloucester", "Name": "John C Partin", "OBJECTID": 192, "Zip": "230612528", "State": "VA", "Street": "8218 Hell Neck Road", "Expiration": "08/31/2017", "Applicatio": "19981334", "Y": 37.513087, "X": -76.4709}},
{"geometry": {"type": "Point", "coordinates": [-76.36937200752442, 37.517544526188054]}, "type": "Feature", "properties": {"City": "Cobbs Creek", "Name": "James R Engle, Jr.", "OBJECTID": 193, "Zip": "23035-0752", "State": "VA", "Street": "567 Iron Point Lane, Box 752", "Expiration": "10/31/2017", "Applicatio": "20072226", "Y": 37.517537, "X": -76.36937}},
{"geometry": {"type": "Point", "coordinates": [-76.45461003395135, 37.51805252331321]}, "type": "Feature", "properties": {"City": "Williamsburg", "Name": "Darlene J Simon", "OBJECTID": 194, "Zip": "233185", "State": "VA", "Street": "309 Nottingham Road", "Expiration": "09/30/2017", "Applicatio": "19991790", "Y": 37.518045, "X": -76.454608}},
{"geometry": {"type": "Point", "coordinates": [-76.45330503355997, 37.51828252340694]}, "type": "Feature", "properties": {"City": "Vienna", "Name": "Daniel  Mulville", "OBJECTID": 195, "Zip": "22180", "State": "VA", "Street": "200 Church Street, N.E.", "Expiration": "11/30/2017", "Applicatio": "20001665", "Y": 37.518275, "X": -76.453303}},
{"geometry": {"type": "Point", "coordinates": [-76.40666501915695, 37.51901752519259]}, "type": "Feature", "properties": {"City": "Newport News", "Name": "Jerry A Williams", "OBJECTID": 196, "Zip": "23602", "State": "VA", "Street": "295 Marlboro Road", "Expiration": "01/31/2019", "Applicatio": "20032497", "Y": 37.51901, "X": -76.406663}},
{"geometry": {"type": "Point", "coordinates": [-76.3998350171595, 37.521157525878415]}, "type": "Feature", "properties": {"City": "Richmond", "Name": "Thomas  Jenkins", "OBJECTID": 197, "Zip": "23221", "State": "VA", "Street": "4228 Kingcrest Parkway", "Expiration": "08/31/2017", "Applicatio": "20121304", "Y": 37.52115, "X": -76.399833}},
{"geometry": {"type": "Point", "coordinates": [-76.44897703240841, 37.52169952427205]}, "type": "Feature", "properties": {"City": "Hartfield", "Name": "Thom  Taylor", "OBJECTID": 198, "Zip": "23071", "State": "VA", "Street": "1864 Mariner's Woods Drive", "Expiration": "10/31/2017", "Applicatio": "20070269", "Y": 37.521692, "X": -76.448975}},
{"geometry": {"type": "Point", "coordinates": [-76.37389900920512, 37.522600527086276]}, "type": "Feature", "properties": {"City": "Richmond", "Name": "Jeff  Odell", "OBJECTID": 199, "Zip": "23221", "State": "VA", "Street": "4307 Hanover Avenue", "Expiration": "05/16/2016", "Applicatio": "20110678", "Y": 37.522593, "X": -76.373897}},
{"geometry": {"type": "Point", "coordinates": [-75.7905368282398, 37.522884547327244]}, "type": "Feature", "properties": {"City": "Richmond", "Name": "Kenneth  Boyd", "OBJECTID": 200, "Zip": "23228", "State": "VA", "Street": "2129 Nelson Street", "Expiration": "01/31/2017", "Applicatio": "20120068", "Y": 37.522877, "X": -75.790535}},
{"geometry": {"type": "Point", "coordinates": [-76.46291503682619, 37.52354452416911]}, "type": "Feature", "properties": {"City": "Gloucester", "Name": "Terry  Lewis", "OBJECTID": 201, "Zip": "23601", "State": "VA", "Street": "11339 Water View Place", "Expiration": "01/31/2018", "Applicatio": "20130124", "Y": 37.523537, "X": -76.462913}},
{"geometry": {"type": "Point", "coordinates": [-76.38782901372885, 37.5263875273906]}, "type": "Feature", "properties": {"City": "Norfolk", "Name": "William F Murphy", "OBJECTID": 202, "Zip": "23505", "State": "VA", "Street": "7414 Dehlman Avenue", "Expiration": "01/11/2016", "Applicatio": "20102023", "Y": 37.52638, "X": -76.387827}},
{"geometry": {"type": "Point", "coordinates": [-76.41709402286575, 37.52769952664111]}, "type": "Feature", "properties": {"City": "Mechanicsville", "Name": "Cliff A Wood, Jr.", "OBJECTID": 203, "Zip": "231163101", "State": "VA", "Street": "3548 Anderson Court", "Expiration": "10/31/2017", "Applicatio": "20032496", "Y": 37.527692, "X": -76.417092}},
{"geometry": {"type": "Point", "coordinates": [-76.43083002720523, 37.52924552648322]}, "type": "Feature", "properties": {"City": "Richmond", "Name": "Jerry W Andrews", "OBJECTID": 204, "Zip": "23229", "State": "VA", "Street": "803 Delaney Street", "Expiration": "08/31/2017", "Applicatio": "20020611", "Y": 37.529238, "X": -76.430828}},
{"geometry": {"type": "Point", "coordinates": [-76.48052204268954, 37.53099452510728]}, "type": "Feature", "properties": {"City": "Gloucester", "Name": "Coulbourn H Tyler", "OBJECTID": 205, "Zip": "23061", "State": "VA", "Street": "11606 Parnassus Lane", "Expiration": "08/31/2017", "Applicatio": "19982020", "Y": 37.530987, "X": -76.48052}},
{"geometry": {"type": "Point", "coordinates": [-76.35032200277307, 37.538440531218434]}, "type": "Feature", "properties": {"City": "Arlington", "Name": "Cyrus E Phillips, IV", "OBJECTID": 206, "Zip": "222044020", "State": "VA", "Street": "1629 South Taylor Street", "Expiration": "10/31/2017", "Applicatio": "20051938", "Y": 37.538433, "X": -76.35032}},
{"geometry": {"type": "Point", "coordinates": [-76.5040390504257, 37.53922052599909]}, "type": "Feature", "properties": {"City": "Gloucester", "Name": "James A Wesson", "OBJECTID": 207, "Zip": "23061", "State": "VA", "Street": "12050 Freeport Road", "Expiration": "08/31/2017", "Applicatio": "20001645", "Y": 37.539213, "X": -76.504037}},
{"geometry": {"type": "Point", "coordinates": [-76.407574020621, 37.54045752963822]}, "type": "Feature", "properties": {"City": "Hartfield", "Name": "M.  Fairbrother", "OBJECTID": 208, "Zip": "23071", "State": "VA", "Street": "517 Wilton Creek Roadd", "Expiration": "10/31/2017", "Applicatio": "20062265", "Y": 37.54045, "X": -76.407572}},
{"geometry": {"type": "Point", "coordinates": [-76.34000999973742, 37.54133753218356]}, "type": "Feature", "properties": {"City": "Deltaville", "Name": "Fishing Bay Harbor Marina", "OBJECTID": 209, "Zip": "23043", "State": "VA", "Street": "Post Office Box 340", "Expiration": "10/31/2017", "Applicatio": "20042630", "Y": 37.54133, "X": -76.340008}},
{"geometry": {"type": "Point", "coordinates": [-76.35922700573933, 37.54219953169247]}, "type": "Feature", "properties": {"City": "Deltaville", "Name": "Preston F Philyaw", "OBJECTID": 210, "Zip": "23043", "State": "VA", "Street": "208 Blue Point Place", "Expiration": "08/31/2017", "Applicatio": "19980839", "Y": 37.542192, "X": -76.359225}},
{"geometry": {"type": "Point", "coordinates": [-75.9224968704277, 37.54503754743443]}, "type": "Feature", "properties": {"City": "Exmore", "Name": "Thomas J. Waller, Jr.", "OBJECTID": 211, "Zip": "23350", "State": "VA", "Street": "2681 Old Neck Road", "Expiration": "05/31/2017", "Applicatio": "20120754", "Y": 37.54503, "X": -75.922495}},
{"geometry": {"type": "Point", "coordinates": [-76.34125700063183, 37.55056053406616]}, "type": "Feature", "properties": {"City": "Deltaville", "Name": "Beverly C Metcalf", "OBJECTID": 212, "Zip": " ", "State": "VA", "Street": "Post Office Box 881", "Expiration": "02/28/2018", "Applicatio": "20080080", "Y": 37.550553, "X": -76.341255}},
{"geometry": {"type": "Point", "coordinates": [-75.92362387109272, 37.5508375486095]}, "type": "Feature", "properties": {"City": "Newport News", "Name": "Christopher  Garrett", "OBJECTID": 213, "Zip": "23606", "State": "VA", "Street": "290 Walt Whitman Avenue", "Expiration": "01/31/2019", "Applicatio": "20140032", "Y": 37.55083, "X": -75.923622}},
{"geometry": {"type": "Point", "coordinates": [-75.88876386044818, 37.554185550510304]}, "type": "Feature", "properties": {"City": "Belle Haven", "Name": "Anthony  Picardi", "OBJECTID": 214, "Zip": "23306", "State": "VA", "Street": "Post Office Box 272", "Expiration": "09/30/2017", "Applicatio": "20071886", "Y": 37.554178, "X": -75.888762}},
{"geometry": {"type": "Point", "coordinates": [-75.91867386981119, 37.55554254976463]}, "type": "Feature", "properties": {"City": "Leesburg", "Name": "Kathy  McCahill", "OBJECTID": 215, "Zip": "20175", "State": "VA", "Street": "18880 Silver Hill Lane", "Expiration": "01/31/2017", "Applicatio": "20111849", "Y": 37.555535, "X": -75.918672}},
{"geometry": {"type": "Point", "coordinates": [-75.91502886874822, 37.55681255015588]}, "type": "Feature", "properties": {"City": "Bloomingdale", "Name": "Herbert  Califano", "OBJECTID": 216, "Zip": "07403", "State": "NJ", "Street": "147 Pine Tree Road", "Expiration": "08/31/2016", "Applicatio": "20111281", "Y": 37.556805, "X": -75.915027}},
{"geometry": {"type": "Point", "coordinates": [-76.31177699210761, 37.56167053741538]}, "type": "Feature", "properties": {"City": "Glen Allen", "Name": "F M Sprinkel, Jr.", "OBJECTID": 217, "Zip": "23059", "State": "VA", "Street": "11017 Cedar Lane", "Expiration": "10/31/2017", "Applicatio": "20071003", "Y": 37.561663, "X": -76.311775}},
{"geometry": {"type": "Point", "coordinates": [-76.33401899921263, 37.565507537439586]}, "type": "Feature", "properties": {"City": "Hopewell", "Name": "Thomas C Lanik", "OBJECTID": 218, "Zip": "23860", "State": "VA", "Street": "500 Cedar Lane", "Expiration": "08/31/2017", "Applicatio": "20001122", "Y": 37.5655, "X": -76.334017}},
{"geometry": {"type": "Point", "coordinates": [-75.89548886347514, 37.57145755389291]}, "type": "Feature", "properties": {"City": "Belle Haven", "Name": "John H Stephens", "OBJECTID": 219, "Zip": "23306", "State": "VA", "Street": "11171 Indian Trail Road", "Expiration": "09/30/2017", "Applicatio": "20071830", "Y": 37.57145, "X": -75.895487}},
{"geometry": {"type": "Point", "coordinates": [-76.3422970021299, 37.571885538481624]}, "type": "Feature", "properties": {"City": "Charlottesville", "Name": "Frederic  Berry", "OBJECTID": 220, "Zip": "22903", "State": "VA", "Street": "3635 Raleight Mountain Trail", "Expiration": "08/31/2017", "Applicatio": "19990692", "Y": 37.571878, "X": -76.342295}},
{"geometry": {"type": "Point", "coordinates": [-76.45558003906143, 37.60495754141048]}, "type": "Feature", "properties": {"City": "Midlothian", "Name": "Benjamin B Smith", "OBJECTID": 221, "Zip": "23114", "State": "VA", "Street": "12615 Lancey Court", "Expiration": "03/31/2019", "Applicatio": "20090234", "Y": 37.60495, "X": -76.455578}},
{"geometry": {"type": "Point", "coordinates": [-76.4578570399683, 37.60858754208698]}, "type": "Feature", "properties": {"City": "Topping", "Name": "Marshall G Folkes, Jr.", "OBJECTID": 222, "Zip": "23169", "State": "VA", "Street": "829 Long Point Lane", "Expiration": "08/31/2017", "Applicatio": "19990605", "Y": 37.60858, "X": -76.457855}},
{"geometry": {"type": "Point", "coordinates": [-76.50219005373258, 37.60915254064625]}, "type": "Feature", "properties": {"City": "Locust Hill", "Name": "Tony  Jaramillo", "OBJECTID": 223, "Zip": "23092", "State": "VA", "Street": "25 Egret Point Drive", "Expiration": "05/31/2019", "Applicatio": "20140657", "Y": 37.609145, "X": -76.502188}},
{"geometry": {"type": "Point", "coordinates": [-76.46199404129499, 37.6093995421109]}, "type": "Feature", "properties": {"City": "Midlothian", "Name": "William N. Hartley", "OBJECTID": 224, "Zip": "23113", "State": "VA", "Street": "2650 Kentford Road", "Expiration": "09/30/2017", "Applicatio": "20121286", "Y": 37.609392, "X": -76.461992}},
{"geometry": {"type": "Point", "coordinates": [-75.8671238572358, 37.61876256476188]}, "type": "Feature", "properties": {"City": "Painter", "Name": "Richard D Smith", "OBJECTID": 225, "Zip": "23420", "State": "VA", "Street": "31432 Nandua Drive", "Expiration": "09/30/2017", "Applicatio": "20080414", "Y": 37.618755, "X": -75.867122}},
{"geometry": {"type": "Point", "coordinates": [-75.86613185697698, 37.61966956498561]}, "type": "Feature", "properties": {"City": "Pungoteague", "Name": "G. N. Heine", "OBJECTID": 226, "Zip": "23422", "State": "VA", "Street": "Post Office Box 146", "Expiration": "09/30/2017", "Applicatio": "20121333", "Y": 37.619662, "X": -75.86613}},
{"geometry": {"type": "Point", "coordinates": [-76.58631508055392, 37.62297754056137]}, "type": "Feature", "properties": {"City": "Urbanna", "Name": "Chris  Riddick", "OBJECTID": 227, "Zip": "23175", "State": "VA", "Street": "Post Office Box 1153", "Expiration": "08/31/2017", "Applicatio": "20020956", "Y": 37.62297, "X": -76.586313}},
{"geometry": {"type": "Point", "coordinates": [-76.29115698924808, 37.62571555149891]}, "type": "Feature", "properties": {"City": "Penhook", "Name": "James R Lockerman", "OBJECTID": 228, "Zip": "24137", "State": "VA", "Street": "310 Anthony Ford Road", "Expiration": "08/31/2017", "Applicatio": "20000722", "Y": 37.625708, "X": -76.291155}},
{"geometry": {"type": "Point", "coordinates": [-75.84329385030209, 37.62743456739506]}, "type": "Feature", "properties": {"City": "Pungoteague", "Name": "David R Warren", "OBJECTID": 229, "Zip": "23422", "State": "VA", "Street": "Post Office Box 11", "Expiration": "08/31/2016", "Applicatio": "20111269", "Y": 37.627427, "X": -75.843292}},
{"geometry": {"type": "Point", "coordinates": [-75.84718485163563, 37.62971556773787]}, "type": "Feature", "properties": {"City": "Pungoteague", "Name": "Haywood L Kellam", "OBJECTID": 230, "Zip": "23422", "State": "VA", "Street": "Post Office Boix 407", "Expiration": "06/30/2016", "Applicatio": "20110865", "Y": 37.629708, "X": -75.847183}},
{"geometry": {"type": "Point", "coordinates": [-75.8787348616262, 37.63312056736215]}, "type": "Feature", "properties": {"City": "Hacks Neck", "Name": "George R Heinrichs", "OBJECTID": 231, "Zip": "23358", "State": "VA", "Street": "Box 99", "Expiration": "09/30/2017", "Applicatio": "20011464", "Y": 37.633113, "X": -75.878733}},
{"geometry": {"type": "Point", "coordinates": [-76.31009399553086, 37.63314255238506]}, "type": "Feature", "properties": {"City": "White Stone", "Name": "Lee  Archard", "OBJECTID": 232, "Zip": "22578", "State": "VA", "Street": "70 Camp Drive", "Expiration": "02/28/2019", "Applicatio": "20140198", "Y": 37.633135, "X": -76.310092}},
{"geometry": {"type": "Point", "coordinates": [-76.57336507711805, 37.63326554316016]}, "type": "Feature", "properties": {"City": "Glenns", "Name": "Chesapeake Bay Governor's School", "OBJECTID": 233, "Zip": "23149", "State": "VA", "Street": "12745 College Drive", "Expiration": "09/30/2017", "Applicatio": "19992001", "Y": 37.633258, "X": -76.573363}},
{"geometry": {"type": "Point", "coordinates": [-76.36309401221182, 37.63763255146499]}, "type": "Feature", "properties": {"City": "White Stone", "Name": "Robert E Lee", "OBJECTID": 234, "Zip": "22578", "State": "VA", "Street": "405 Farriers Road", "Expiration": "02/28/2016", "Applicatio": "20110121", "Y": 37.637625, "X": -76.363092}},
{"geometry": {"type": "Point", "coordinates": [-76.5703650764633, 37.638179544288896]}, "type": "Feature", "properties": {"City": "Glenns", "Name": "Chesapeake Bay Governor's School", "OBJECTID": 235, "Zip": "231492616", "State": "VA", "Street": "12745 College Drive", "Expiration": "09/30/2017", "Applicatio": "20020210", "Y": 37.638172, "X": -76.570363}},
{"geometry": {"type": "Point", "coordinates": [-75.67921880019125, 37.64414557652348]}, "type": "Feature", "properties": {"City": "Locustville", "Name": "George  Reiger", "OBJECTID": 236, "Zip": "23404", "State": "VA", "Street": "Post Office Box C", "Expiration": "09/30/2017", "Applicatio": "19991552", "Y": 37.644138, "X": -75.679217}},
{"geometry": {"type": "Point", "coordinates": [-76.41968703033929, 37.64817955167633]}, "type": "Feature", "properties": {"City": "Clifton", "Name": "Cindy  Dullea", "OBJECTID": 237, "Zip": "20124", "State": "VA", "Street": "7411 Union Ridge Road", "Expiration": "03/31/2019", "Applicatio": "20140378", "Y": 37.648172, "X": -76.419685}},
{"geometry": {"type": "Point", "coordinates": [-76.3552820104198, 37.64899555410634]}, "type": "Feature", "properties": {"City": "Herndon", "Name": "Steven L Burton", "OBJECTID": 238, "Zip": "20171", "State": "VA", "Street": "2907 Timberwood Way", "Expiration": "10/31/2017", "Applicatio": "20052047", "Y": 37.648988, "X": -76.35528}},
{"geometry": {"type": "Point", "coordinates": [-76.34401900701137, 37.65050455481554]}, "type": "Feature", "properties": {"City": "White Stone", "Name": "Charlie  Carter", "OBJECTID": 239, "Zip": "22578", "State": "VA", "Street": "300 Edgewater Farm Drive", "Expiration": "09/30/2017", "Applicatio": "20022005", "Y": 37.650497, "X": -76.344017}},
{"geometry": {"type": "Point", "coordinates": [-76.51091005883855, 37.65235454933606]}, "type": "Feature", "properties": {"City": "Lanaster", "Name": "Paul  McClean", "OBJECTID": 240, "Zip": "22503", "State": "VA", "Street": "157 Hazzard Lane", "Expiration": "11/30/2017", "Applicatio": "20072379", "Y": 37.652347, "X": -76.510908}},
{"geometry": {"type": "Point", "coordinates": [-76.5126940594423, 37.65326954946355]}, "type": "Feature", "properties": {"City": "Lancaster", "Name": "Paul  McClean", "OBJECTID": 241, "Zip": "22503", "State": "VA", "Street": "157 Hazzard Lane", "Expiration": "08/31/2017", "Applicatio": "19991896", "Y": 37.653262, "X": -76.512692}},
{"geometry": {"type": "Point", "coordinates": [-76.40370702595852, 37.658479554382644]}, "type": "Feature", "properties": {"City": "White Stone", "Name": "Raymond  Funkhouser", "OBJECTID": 242, "Zip": "22570", "State": "VA", "Street": "989 Ring Farm Road", "Expiration": "09/30/2017", "Applicatio": "19981499", "Y": 37.658472, "X": -76.403705}},
{"geometry": {"type": "Point", "coordinates": [-76.4368820364812, 37.662792554114716]}, "type": "Feature", "properties": {"City": "McLean", "Name": "David B. Daniel", "OBJECTID": 243, "Zip": "22102", "State": "VA", "Street": "7906 Old Falls Road", "Expiration": "06/30/2019", "Applicatio": "20140730", "Y": 37.662785, "X": -76.43688}},
{"geometry": {"type": "Point", "coordinates": [-76.50067905625082, 37.662792551868975]}, "type": "Feature", "properties": {"City": "Adelphi", "Name": "Jonathan  Clarke", "OBJECTID": 244, "Zip": "20783", "State": "MD", "Street": "9704 22nd Avenue", "Expiration": "12/31/2018", "Applicatio": "20131739", "Y": 37.662785, "X": -76.500677}},
{"geometry": {"type": "Point", "coordinates": [-75.82328684601379, 37.66288457549058]}, "type": "Feature", "properties": {"City": "Melfa", "Name": "Sam  Sellard", "OBJECTID": 245, "Zip": "23410", "State": "VA", "Street": "28116 Harbor Road", "Expiration": "07/31/2016", "Applicatio": "20111058", "Y": 37.662877, "X": -75.823285}},
{"geometry": {"type": "Point", "coordinates": [-75.82330184602604, 37.663024575519316]}, "type": "Feature", "properties": {"City": "Melfa", "Name": "Ralph  Pecorelli", "OBJECTID": 246, "Zip": "23410", "State": "VA", "Street": "28133 Harbor Road", "Expiration": "06/30/2016", "Applicatio": "20110940", "Y": 37.663017, "X": -75.8233}},
{"geometry": {"type": "Point", "coordinates": [-76.4688050463918, 37.66310455305652]}, "type": "Feature", "properties": {"City": "Weems", "Name": "Joseph  Price", "OBJECTID": 247, "Zip": "22576", "State": "VA", "Street": "629 Cedar Pointe Drive", "Expiration": "12/31/2018", "Applicatio": "20131730", "Y": 37.663097, "X": -76.468803}},
{"geometry": {"type": "Point", "coordinates": [-75.83528984999462, 37.66745457603137]}, "type": "Feature", "properties": {"City": "Harborton", "Name": "Charles  Tosi", "OBJECTID": 248, "Zip": "23389", "State": "VA", "Street": "27381 Martin Road", "Expiration": "09/30/2017", "Applicatio": "20062411", "Y": 37.667447, "X": -75.835288}},
{"geometry": {"type": "Point", "coordinates": [-76.53620706768024, 37.670362552191136]}, "type": "Feature", "properties": {"City": "Fredericksburg", "Name": "Carl W Walker, Jr.", "OBJECTID": 249, "Zip": "22405", "State": "VA", "Street": "805 Culpeper Street", "Expiration": "03/31/2018", "Applicatio": "20080348", "Y": 37.670355, "X": -76.536205}},
{"geometry": {"type": "Point", "coordinates": [-76.60726008971648, 37.67087754978792]}, "type": "Feature", "properties": {"City": "Urbanna", "Name": "R W Simon", "OBJECTID": 250, "Zip": "23175", "State": "VA", "Street": "HC 67, Box 690", "Expiration": "10/31/2017", "Applicatio": "19981923", "Y": 37.67087, "X": -76.607258}},
{"geometry": {"type": "Point", "coordinates": [-76.36086001343969, 37.67224955875396]}, "type": "Feature", "properties": {"City": "White Stone", "Name": "James A. Covington, Jr.", "OBJECTID": 251, "Zip": "22578", "State": "VA", "Street": "15 Dymer Circle", "Expiration": "06/30/2017", "Applicatio": "20120823", "Y": 37.672242, "X": -76.360858}},
{"geometry": {"type": "Point", "coordinates": [-75.7975188385292, 37.67256257839919]}, "type": "Feature", "properties": {"City": "Onancock", "Name": "Les  Darling", "OBJECTID": 252, "Zip": "23417", "State": "VA", "Street": "26753 Mount Nebo Rod", "Expiration": "08/23/2016", "Applicatio": "20111209", "Y": 37.672555, "X": -75.797517}},
{"geometry": {"type": "Point", "coordinates": [-75.79243183701927, 37.673882578849984]}, "type": "Feature", "properties": {"City": "Onley", "Name": "George E Davis", "OBJECTID": 253, "Zip": "23418", "State": "VA", "Street": "Post Office Box 313", "Expiration": "08/31/2016", "Applicatio": "20111241", "Y": 37.673875, "X": -75.79243}},
{"geometry": {"type": "Point", "coordinates": [-76.36755701580557, 37.67745755960326]}, "type": "Feature", "properties": {"City": "White Stone", "Name": "John  Mill", "OBJECTID": 254, "Zip": "22578", "State": "VA", "Street": "141 Long Lane Court", "Expiration": "08/31/2017", "Applicatio": "20022022", "Y": 37.67745, "X": -76.367555}},
{"geometry": {"type": "Point", "coordinates": [-76.36301901451948, 37.679635560216006]}, "type": "Feature", "properties": {"City": "McLean", "Name": "Randall  Eliason", "OBJECTID": 255, "Zip": "22101", "State": "VA", "Street": "1603 Walden Drive", "Expiration": "10/31/2017", "Applicatio": "20052701", "Y": 37.679628, "X": -76.363017}},
{"geometry": {"type": "Point", "coordinates": [-76.36918001652988, 37.68143556037447]}, "type": "Feature", "properties": {"City": "White Stone", "Name": "David H Herndon", "OBJECTID": 256, "Zip": "225782100", "State": "VA", "Street": "469 Long Lane Farm", "Expiration": "08/31/2017", "Applicatio": "19991819", "Y": 37.681428, "X": -76.369178}},
{"geometry": {"type": "Point", "coordinates": [-76.48448505232167, 37.68231255650113]}, "type": "Feature", "properties": {"City": "Ashland", "Name": "Joe F. Pitts", "OBJECTID": 257, "Zip": "23005", "State": "VA", "Street": "12252 Jennings Road", "Expiration": "03/31/2017", "Applicatio": "20120221", "Y": 37.682305, "X": -76.484483}},
{"geometry": {"type": "Point", "coordinates": [-76.45040404192856, 37.685350558333646]}, "type": "Feature", "properties": {"City": "Weems", "Name": "Richard  Wineland", "OBJECTID": 258, "Zip": "22576", "State": "VA", "Street": "711 Peake Road", "Expiration": "12/31/2018", "Applicatio": "20082267", "Y": 37.685343, "X": -76.450402}},
{"geometry": {"type": "Point", "coordinates": [-76.46039504504358, 37.68567955805034]}, "type": "Feature", "properties": {"City": "Weems", "Name": "Cary  Fishburne", "OBJECTID": 259, "Zip": "22576", "State": "VA", "Street": "441 Berkeley Forrest Road", "Expiration": "02/28/2016", "Applicatio": "20110177", "Y": 37.685672, "X": -76.460393}},
{"geometry": {"type": "Point", "coordinates": [-76.34442400921414, 37.687935562596344]}, "type": "Feature", "properties": {"City": "Kilmarnock", "Name": "John F DePew", "OBJECTID": 260, "Zip": "22484", "State": "VA", "Street": "Post Office Box 782", "Expiration": "08/31/2017", "Applicatio": "20020525", "Y": 37.687928, "X": -76.344422}},
{"geometry": {"type": "Point", "coordinates": [-76.49483205595506, 37.68996055772725]}, "type": "Feature", "properties": {"City": "Lancaster", "Name": "Frederick B Johnson", "OBJECTID": 261, "Zip": "22503", "State": "VA", "Street": "49 Starview Place", "Expiration": "09/30/2017", "Applicatio": "20011965", "Y": 37.689953, "X": -76.49483}},
{"geometry": {"type": "Point", "coordinates": [-76.35980501410383, 37.69009056250516]}, "type": "Feature", "properties": {"City": "Falls Church", "Name": "Steven  Askin", "OBJECTID": 262, "Zip": " ", "State": "VA", "Street": "610 Knollwood Drive", "Expiration": "12/31/2017", "Applicatio": "20052240", "Y": 37.690083, "X": -76.359803}},
{"geometry": {"type": "Point", "coordinates": [-76.48447405277189, 37.69044055819221]}, "type": "Feature", "properties": {"City": "Lancaster", "Name": "Carol  Jacobsen", "OBJECTID": 263, "Zip": "22503", "State": "VA", "Street": "502 Yankee Point Road", "Expiration": "12/31/2018", "Applicatio": "20131777", "Y": 37.690433, "X": -76.484472}},
{"geometry": {"type": "Point", "coordinates": [-75.62430978562479, 37.6906325881207]}, "type": "Feature", "properties": {"City": "Fairfax", "Name": "Craig  Havenner", "OBJECTID": 264, "Zip": "22030", "State": "VA", "Street": "10714 Scott Drive", "Expiration": "09/30/2017", "Applicatio": "20062752", "Y": 37.690625, "X": -75.624308}},
{"geometry": {"type": "Point", "coordinates": [-75.62433878565577, 37.69103758820437]}, "type": "Feature", "properties": {"City": "Basking Ridge", "Name": "Marc  Roelke", "OBJECTID": 265, "Zip": "07920", "State": "NJ", "Street": "150 Linden Drive", "Expiration": "09/30/2017", "Applicatio": "20061912", "Y": 37.69103, "X": -75.624337}},
{"geometry": {"type": "Point", "coordinates": [-76.49972405774746, 37.69490955858393]}, "type": "Feature", "properties": {"City": "Lancaster", "Name": "William V Arnold", "OBJECTID": 266, "Zip": "22503", "State": "VA", "Street": "600 Foxfield Lane", "Expiration": "10/01/2018", "Applicatio": "20081772", "Y": 37.694902, "X": -76.499722}},
{"geometry": {"type": "Point", "coordinates": [-76.47876005127105, 37.69527755939967]}, "type": "Feature", "properties": {"City": "Lancaster", "Name": "Ed  Matthews", "OBJECTID": 267, "Zip": "22503", "State": "VA", "Street": "149 Bar Point Road", "Expiration": "08/31/2017", "Applicatio": "19991968", "Y": 37.69527, "X": -76.478758}},
{"geometry": {"type": "Point", "coordinates": [-76.48016405178423, 37.69667455964074]}, "type": "Feature", "properties": {"City": "Richmond", "Name": "Dennis  Matt", "OBJECTID": 268, "Zip": "23238", "State": "VA", "Street": "10214 Monument Cricle", "Expiration": "01/31/2017", "Applicatio": "20120017", "Y": 37.696667, "X": -76.480162}},
{"geometry": {"type": "Point", "coordinates": [-76.45445704398203, 37.69964456116442]}, "type": "Feature", "properties": {"City": "Weems", "Name": "Linwood  Holton", "OBJECTID": 269, "Zip": "22576", "State": "VA", "Street": "3883 Black Stump Road", "Expiration": "08/31/2017", "Applicatio": "19991765", "Y": 37.699637, "X": -76.454455}},
{"geometry": {"type": "Point", "coordinates": [-76.3472450108545, 37.70170756536375]}, "type": "Feature", "properties": {"City": "Richmond", "Name": "James  Bellows", "OBJECTID": 270, "Zip": "23227", "State": "VA", "Street": "8204 Tarkington Drive", "Expiration": "09/30/2017", "Applicatio": "20121125", "Y": 37.7017, "X": -76.347243}},
{"geometry": {"type": "Point", "coordinates": [-76.35520401335171, 37.70222456519183]}, "type": "Feature", "properties": {"City": "Kilmarnock", "Name": "Robert G Holloway", "OBJECTID": 271, "Zip": "22482", "State": "VA", "Street": "160 Boathouse Cove", "Expiration": "03/31/2016", "Applicatio": "20110250", "Y": 37.702217, "X": -76.355202}},
{"geometry": {"type": "Point", "coordinates": [-75.75764382793321, 37.70569558668918]}, "type": "Feature", "properties": {"City": "Bethany Beach", "Name": "Neoklis  Kypreos", "OBJECTID": 272, "Zip": "19930", "State": "DE", "Street": "33258 Kent Avenue", "Expiration": "10/31/2017", "Applicatio": "20121514", "Y": 37.705688, "X": -75.757642}},
{"geometry": {"type": "Point", "coordinates": [-76.49025405547968, 37.70684756140032]}, "type": "Feature", "properties": {"City": "Lancaster", "Name": "Steve  Haley", "OBJECTID": 273, "Zip": "22503", "State": "VA", "Street": "341 Oak Hill Road", "Expiration": "09/30/2018", "Applicatio": "20131312", "Y": 37.70684, "X": -76.490252}},
{"geometry": {"type": "Point", "coordinates": [-75.75585382750378, 37.70803258723861]}, "type": "Feature", "properties": {"City": "Onancock", "Name": "Eric T Dodge", "OBJECTID": 274, "Zip": "23417", "State": "VA", "Street": "12 Meadville Drive", "Expiration": "08/23/2016", "Applicatio": "20111221", "Y": 37.708025, "X": -75.755852}},
{"geometry": {"type": "Point", "coordinates": [-75.76558983073416, 37.71172958767505]}, "type": "Feature", "properties": {"City": "Onancock", "Name": "Henry P. Custis, Jr.", "OBJECTID": 275, "Zip": "23417", "State": "VA", "Street": "24291 Meadville Lane", "Expiration": "09/30/2017", "Applicatio": "20121472", "Y": 37.711722, "X": -75.765588}},
{"geometry": {"type": "Point", "coordinates": [-76.46826404895754, 37.712104563268795]}, "type": "Feature", "properties": {"City": "Lancaster", "Name": "Greg  Hoffman", "OBJECTID": 276, "Zip": "225033627", "State": "VA", "Street": "215 Mariner Drive", "Expiration": "09/30/2017", "Applicatio": "20000638", "Y": 37.712097, "X": -76.468262}},
{"geometry": {"type": "Point", "coordinates": [-76.46695404855778, 37.71221756333855]}, "type": "Feature", "properties": {"City": "Lancaster", "Name": "Kenneth A. Vincent", "OBJECTID": 277, "Zip": "22503-2414", "State": "VA", "Street": "536 Maston's Wharf Road", "Expiration": "05/31/2019", "Applicatio": "20140638", "Y": 37.71221, "X": -76.466952}},
{"geometry": {"type": "Point", "coordinates": [-76.45003204357023, 37.71684056489612]}, "type": "Feature", "properties": {"City": "Lancaster", "Name": "George F Crichton", "OBJECTID": 278, "Zip": "22503", "State": "VA", "Street": "237 Piney Point Road", "Expiration": "09/30/2017", "Applicatio": "19981705", "Y": 37.716833, "X": -76.45003}},
{"geometry": {"type": "Point", "coordinates": [-75.78238983641164, 37.72000058882219]}, "type": "Feature", "properties": {"City": "Onancock", "Name": "William D. Chamberlin", "OBJECTID": 279, "Zip": "23417", "State": "VA", "Street": "Post Office Box 367", "Expiration": "07/31/2016", "Applicatio": "20110996", "Y": 37.719993, "X": -75.782388}},
{"geometry": {"type": "Point", "coordinates": [-76.53623007052211, 37.72104056272685]}, "type": "Feature", "properties": {"City": "Mollusk", "Name": "Nicholas  Ferriter", "OBJECTID": 280, "Zip": "22517", "State": "VA", "Street": "Post Office Box 233", "Expiration": "08/31/2017", "Applicatio": "20000756", "Y": 37.721033, "X": -76.536228}},
{"geometry": {"type": "Point", "coordinates": [-76.51189006298824, 37.721204563620866]}, "type": "Feature", "properties": {"City": "Lancaster", "Name": "E J Rackel", "OBJECTID": 281, "Zip": "22502", "State": "VA", "Street": "144 Hills Lane", "Expiration": "09/30/2017", "Applicatio": "19980774", "Y": 37.721197, "X": -76.511888}},
{"geometry": {"type": "Point", "coordinates": [-76.32432700518055, 37.72750457153527]}, "type": "Feature", "properties": {"City": "Kilmarnock", "Name": "Robert L Gary", "OBJECTID": 282, "Zip": "22482", "State": "VA", "Street": "1375 Kent Point Road", "Expiration": "06/30/2018", "Applicatio": "19981081", "Y": 37.727497, "X": -76.324325}},
{"geometry": {"type": "Point", "coordinates": [-76.42354403600942, 37.72851056825557]}, "type": "Feature", "properties": {"City": "Alexandria", "Name": "John J Sheehan", "OBJECTID": 283, "Zip": "22314", "State": "VA", "Street": "709 Hawkins Way", "Expiration": "10/31/2017", "Applicatio": "20062500", "Y": 37.728503, "X": -76.423542}},
{"geometry": {"type": "Point", "coordinates": [-76.51423206416985, 37.72934456522961]}, "type": "Feature", "properties": {"City": "Akron", "Name": "W A Pfeiffer", "OBJECTID": 284, "Zip": "44303", "State": "OH", "Street": "425 Letchworth Drive", "Expiration": "08/31/2017", "Applicatio": "19991202", "Y": 37.729337, "X": -76.51423}},
{"geometry": {"type": "Point", "coordinates": [-76.61965209686974, 37.729977561630015]}, "type": "Feature", "properties": {"City": "Mechanicsville", "Name": "Jerry B Davis", "OBJECTID": 285, "Zip": "23116", "State": "VA", "Street": "11099 Sugarload Drive", "Expiration": "08/31/2017", "Applicatio": "19981147", "Y": 37.72997, "X": -76.61965}},
{"geometry": {"type": "Point", "coordinates": [-76.51657706533214, 37.737117566761704]}, "type": "Feature", "properties": {"City": "Lancaster", "Name": "Lea  Gallogly", "OBJECTID": 286, "Zip": "22503", "State": "VA", "Street": "218 East Highview Drive", "Expiration": "10/31/2017", "Applicatio": "20071128", "Y": 37.73711, "X": -76.516575}},
{"geometry": {"type": "Point", "coordinates": [-76.51655906532808, 37.737144566767924]}, "type": "Feature", "properties": {"City": "Fairfax", "Name": "Michael  Carter", "OBJECTID": 287, "Zip": "22032", "State": "VA", "Street": "10711 Paynes Church Drive", "Expiration": "07/31/2018", "Applicatio": "20080982", "Y": 37.737137, "X": -76.516557}},
{"geometry": {"type": "Point", "coordinates": [-76.50275706142035, 37.74375456862876]}, "type": "Feature", "properties": {"City": "Lancaster", "Name": "Kenneth D Sausser", "OBJECTID": 288, "Zip": "22503", "State": "VA", "Street": "1279 Kelley Neck Road", "Expiration": "10/31/2017", "Applicatio": "20061005", "Y": 37.743747, "X": -76.502755}},
{"geometry": {"type": "Point", "coordinates": [-76.502335061368, 37.745154568934474]}, "type": "Feature", "properties": {"City": "Lancaster", "Name": "Frank D Verderame", "OBJECTID": 289, "Zip": "22503", "State": "VA", "Street": "1280 Kelley Neck Road", "Expiration": "10/31/2017", "Applicatio": "20071182", "Y": 37.745147, "X": -76.502333}},
{"geometry": {"type": "Point", "coordinates": [-76.50120506116052, 37.74770256950369]}, "type": "Feature", "properties": {"City": "Lancaster", "Name": "Robert E Hedges", "OBJECTID": 290, "Zip": "22503", "State": "VA", "Street": "575 Colinbrook Way", "Expiration": "04/30/2019", "Applicatio": "20090415", "Y": 37.747695, "X": -76.501203}},
{"geometry": {"type": "Point", "coordinates": [-75.77217183477468, 37.74821559505912]}, "type": "Feature", "properties": {"City": "Onancock", "Name": "Frederick  Slagle", "OBJECTID": 291, "Zip": "23417", "State": "VA", "Street": "21365 Southside Road", "Expiration": "07/31/2017", "Applicatio": "20120909", "Y": 37.748208, "X": -75.77217}},
{"geometry": {"type": "Point", "coordinates": [-76.6686151133339, 37.753037564678564]}, "type": "Feature", "properties": {"City": "Mechanicsville", "Name": "Zachary  Mantlo", "OBJECTID": 292, "Zip": "23116", "State": "VA", "Street": "10389 Morning Dew Lane", "Expiration": "10/31/2017", "Applicatio": "20121582", "Y": 37.75303, "X": -76.668613}},
{"geometry": {"type": "Point", "coordinates": [-75.74748482775526, 37.760329598435725]}, "type": "Feature", "properties": {"City": "Onancock", "Name": "Henning  Pedersen", "OBJECTID": 293, "Zip": "23417", "State": "VA", "Street": "19112 Mink Farm Road", "Expiration": "05/31/2019", "Applicatio": "20140635", "Y": 37.760322, "X": -75.747483}},
{"geometry": {"type": "Point", "coordinates": [-75.76759383423156, 37.76432759857595]}, "type": "Feature", "properties": {"City": "Onancock", "Name": "Eugene T Brennan", "OBJECTID": 294, "Zip": "234172507", "State": "VA", "Street": "20287 Canvasback Lane", "Expiration": "09/30/2017", "Applicatio": "20001730", "Y": 37.76432, "X": -75.767592}},
{"geometry": {"type": "Point", "coordinates": [-76.58053508713516, 37.77239057182087]}, "type": "Feature", "properties": {"City": "Warsaw", "Name": "Chesapeake Bay Governor's School", "OBJECTID": 295, "Zip": " ", "State": "VA", "Street": "52 Campus Drive", "Expiration": "09/30/2017", "Applicatio": "20001731", "Y": 37.772383, "X": -76.580533}},
{"geometry": {"type": "Point", "coordinates": [-76.68240911883916, 37.774885568719995]}, "type": "Feature", "properties": {"City": "Henrico", "Name": "John R. Miksch", "OBJECTID": 296, "Zip": "23238-5557", "State": "VA", "Street": "9809 Colony Bluff Drive", "Expiration": "05/22/2018", "Applicatio": "20130707", "Y": 37.774878, "X": -76.682407}},
{"geometry": {"type": "Point", "coordinates": [-76.33115401081761, 37.79061258441213]}, "type": "Feature", "properties": {"City": "Virginia Beach", "Name": "Camille G. Grabb", "OBJECTID": 297, "Zip": "23464", "State": "VA", "Street": "5233 Lowery Downs", "Expiration": "02/28/2017", "Applicatio": "20120128", "Y": 37.790605, "X": -76.331152}},
{"geometry": {"type": "Point", "coordinates": [-76.72840213417517, 37.79417457108042]}, "type": "Feature", "properties": {"City": "Tappahannock", "Name": "Lewis B Wilkins", "OBJECTID": 298, "Zip": "22560", "State": "VA", "Street": "738 Kino Road", "Expiration": "10/31/2017", "Applicatio": "20061681", "Y": 37.794167, "X": -76.7284}},
{"geometry": {"type": "Point", "coordinates": [-76.32010700772184, 37.79656758603752]}, "type": "Feature", "properties": {"City": "Heathsville", "Name": "Daniel  Colacicco", "OBJECTID": 299, "Zip": "22473", "State": "VA", "Street": "99 East Harmony Cricle", "Expiration": "10/31/2016", "Applicatio": "20111204", "Y": 37.79656, "X": -76.320105}},
{"geometry": {"type": "Point", "coordinates": [-76.27045499332053, 37.814687591546104]}, "type": "Feature", "properties": {"City": "Falls Church", "Name": "Bill  Koehler", "OBJECTID": 300, "Zip": "220432708", "State": "VA", "Street": "7300 Redd Road", "Expiration": "06/30/2018", "Applicatio": "19981481", "Y": 37.81468, "X": -76.270453}},
{"geometry": {"type": "Point", "coordinates": [-76.32358900998213, 37.81766559029552]}, "type": "Feature", "properties": {"City": "Reedville", "Name": "Douglas A. Lemke", "OBJECTID": 301, "Zip": "22539", "State": "VA", "Street": "418 East Harbor Drive", "Expiration": "06/30/2019", "Applicatio": "20140837", "Y": 37.817658, "X": -76.323587}},
{"geometry": {"type": "Point", "coordinates": [-76.2660819921879, 37.81871959253706]}, "type": "Feature", "properties": {"City": "Reedville", "Name": "Carolyn  Hennige, etal", "OBJECTID": 302, "Zip": "22539", "State": "VA", "Street": "Post Office Box 372", "Expiration": "04/30/2019", "Applicatio": "20140523", "Y": 37.818712, "X": -76.26608}},
{"geometry": {"type": "Point", "coordinates": [-76.3191870086749, 37.81872459067031]}, "type": "Feature", "properties": {"City": "Chantilly", "Name": "Darryl  Krolicki", "OBJECTID": 303, "Zip": "20151", "State": "VA", "Street": "15213 Sovereign Place", "Expiration": "10/31/2018", "Applicatio": "20131558", "Y": 37.818717, "X": -76.319185}},
{"geometry": {"type": "Point", "coordinates": [-76.26764199276332, 37.82035059282084]}, "type": "Feature", "properties": {"City": "LaPlata", "Name": "Anthony F. Harris", "OBJECTID": 304, "Zip": "20646", "State": "MD", "Street": "9015 Bridgett Lane", "Expiration": "05/31/2019", "Applicatio": "20140505", "Y": 37.820343, "X": -76.26764}},
{"geometry": {"type": "Point", "coordinates": [-76.67757412009334, 37.82355257897887]}, "type": "Feature", "properties": {"City": "Farnham", "Name": "George M Park", "OBJECTID": 305, "Zip": "22460", "State": "VA", "Street": "1220 Little Florida Road", "Expiration": "10/31/2017", "Applicatio": "19981937", "Y": 37.823545, "X": -76.677572}},
{"geometry": {"type": "Point", "coordinates": [-76.33055701298798, 37.832724593175406]}, "type": "Feature", "properties": {"City": "Heathsville", "Name": "James  Messing", "OBJECTID": 306, "Zip": "22475", "State": "VA", "Street": "760 Southgate Drive", "Expiration": "06/30/2018", "Applicatio": "20130717", "Y": 37.832717, "X": -76.330555}},
{"geometry": {"type": "Point", "coordinates": [-76.30298500451812, 37.834327594478985]}, "type": "Feature", "properties": {"City": "Reedville", "Name": "Brian H Wood", "OBJECTID": 307, "Zip": "22539", "State": "VA", "Street": "244 Reason View Lane", "Expiration": "02/28/2019", "Applicatio": "20090153", "Y": 37.83432, "X": -76.302983}},
{"geometry": {"type": "Point", "coordinates": [-76.7660191483977, 37.83950457912513]}, "type": "Feature", "properties": {"City": "Aylett", "Name": "Steve K. Smith", "OBJECTID": 308, "Zip": "23009", "State": "VA", "Street": "458 Oak Springs Drive", "Expiration": "03/20/2017", "Applicatio": "20120279", "Y": 37.839497, "X": -76.766017}},
{"geometry": {"type": "Point", "coordinates": [-76.72722413651941, 37.8419525810181]}, "type": "Feature", "properties": {"City": "Warsaw", "Name": "Robert T Heltzel", "OBJECTID": 309, "Zip": "22572", "State": "VA", "Street": "2150 Suggetts Point Road", "Expiration": "10/31/2017", "Applicatio": "20001008", "Y": 37.841945, "X": -76.727222}},
{"geometry": {"type": "Point", "coordinates": [-76.32888901342699, 37.84980059677678]}, "type": "Feature", "properties": {"City": "Reedville", "Name": "Gary  Boyce", "OBJECTID": 310, "Zip": "23539", "State": "VA", "Street": "442 Captains Way", "Expiration": "01/31/2018", "Applicatio": "20121679", "Y": 37.849793, "X": -76.328887}},
{"geometry": {"type": "Point", "coordinates": [-76.36653202543577, 37.855560596643485]}, "type": "Feature", "properties": {"City": "Burgess", "Name": "Andrew E Kauders", "OBJECTID": 311, "Zip": "22432", "State": "VA", "Street": "Post Office Box 9", "Expiration": "06/30/2018", "Applicatio": "19981722", "Y": 37.855553, "X": -76.36653}},
{"geometry": {"type": "Point", "coordinates": [-76.36696002563032, 37.85665959685626]}, "type": "Feature", "properties": {"City": "Henrico", "Name": "Kenneth  Carter", "OBJECTID": 312, "Zip": "23233", "State": "VA", "Street": "11102 Fox Meadow Road", "Expiration": "02/28/2019", "Applicatio": "20131778", "Y": 37.856652, "X": -76.366958}},
{"geometry": {"type": "Point", "coordinates": [-76.37178902733159, 37.86026259743283]}, "type": "Feature", "properties": {"City": "Burgess", "Name": "Martin L. Chamberlain", "OBJECTID": 313, "Zip": "22432", "State": "VA", "Street": "Post Office Box 394", "Expiration": "05/31/2017", "Applicatio": "20120629", "Y": 37.860255, "X": -76.371787}},
{"geometry": {"type": "Point", "coordinates": [-76.2513769904535, 37.86937960356715]}, "type": "Feature", "properties": {"City": "Reedville", "Name": "Marshall L Wise, Jr.", "OBJECTID": 314, "Zip": "22539", "State": "VA", "Street": "Post Office Box 407", "Expiration": "06/30/2018", "Applicatio": "19981772", "Y": 37.869372, "X": -76.251375}},
{"geometry": {"type": "Point", "coordinates": [-76.27905499923563, 37.872689603279504]}, "type": "Feature", "properties": {"City": "Bethesda", "Name": "Don  Besom", "OBJECTID": 315, "Zip": "20817", "State": "MD", "Street": "6604 Rannoch Court", "Expiration": "07/31/2018", "Applicatio": "20130995", "Y": 37.872682, "X": -76.279053}},
{"geometry": {"type": "Point", "coordinates": [-76.42795204558657, 37.87489759848049]}, "type": "Feature", "properties": {"City": "Silver Spring", "Name": "Kara  Strong", "OBJECTID": 316, "Zip": "20910", "State": "MD", "Street": "7981 Eastern Avenue, #117", "Expiration": "09/30/2018", "Applicatio": "20131456", "Y": 37.87489, "X": -76.42795}},
{"geometry": {"type": "Point", "coordinates": [-76.25687199269954, 37.87900760537055]}, "type": "Feature", "properties": {"City": "Lynchburg", "Name": "Leslie E Allen, III", "OBJECTID": 317, "Zip": "24503", "State": "VA", "Street": "164 Irvington Sp. Road", "Expiration": "06/30/2018", "Applicatio": "19982025", "Y": 37.879, "X": -76.25687}},
{"geometry": {"type": "Point", "coordinates": [-76.2962350053117, 37.88589260541154]}, "type": "Feature", "properties": {"City": "Reedville", "Name": "Jan  Unterzuber", "OBJECTID": 318, "Zip": "22539", "State": "VA", "Street": "668 Greenfield Point Drive", "Expiration": "10/31/2016", "Applicatio": "20111416", "Y": 37.885885, "X": -76.296233}},
{"geometry": {"type": "Point", "coordinates": [-76.28107500067686, 37.887205606217925]}, "type": "Feature", "properties": {"City": "Richmond", "Name": "David  Croy", "OBJECTID": 319, "Zip": "23221", "State": "VA", "Street": "3217 Floyd Avenue", "Expiration": "06/30/2019", "Applicatio": "20140704", "Y": 37.887198, "X": -76.281073}},
{"geometry": {"type": "Point", "coordinates": [-76.27768500011321, 37.89592760814527]}, "type": "Feature", "properties": {"City": "Ophelia", "Name": "Elizabeth B. Greene", "OBJECTID": 320, "Zip": "22530", "State": "VA", "Street": "Post Office Box 550", "Expiration": "10/31/2018", "Applicatio": "20131479", "Y": 37.89592, "X": -76.277683}},
{"geometry": {"type": "Point", "coordinates": [-76.31072401111938, 37.90917060972419]}, "type": "Feature", "properties": {"City": "Heathsville", "Name": "Robert T. Morgan", "OBJECTID": 321, "Zip": "22473", "State": "VA", "Street": "39 Holly Acre Place", "Expiration": "07/31/2018", "Applicatio": "20130892", "Y": 37.909163, "X": -76.310722}},
{"geometry": {"type": "Point", "coordinates": [-76.26585699729837, 37.91124061173541]}, "type": "Feature", "properties": {"City": "Montgomery Village", "Name": "Gordon  Taylor", "OBJECTID": 322, "Zip": "20886", "State": "MD", "Street": "1 Wild Ginger Court", "Expiration": "12/31/2015", "Applicatio": "20101920", "Y": 37.911233, "X": -76.265855}},
{"geometry": {"type": "Point", "coordinates": [-75.39827972729242, 37.91334564229929]}, "type": "Feature", "properties": {"City": "Chincoteague", "Name": "Ronald K. Stott", "OBJECTID": 323, "Zip": "23336", "State": "VA", "Street": "2934 Main Street", "Expiration": "09/30/2017", "Applicatio": "20121285", "Y": 37.913338, "X": -75.398278}},
{"geometry": {"type": "Point", "coordinates": [-76.42460504894285, 37.95274961471502]}, "type": "Feature", "properties": {"City": "Falls Church", "Name": "Mark R. Erbe", "OBJECTID": 324, "Zip": "22041-3653", "State": "VA", "Street": "6128 Madison Crest Court", "Expiration": "02/28/2019", "Applicatio": "20140029", "Y": 37.952742, "X": -76.424603}},
{"geometry": {"type": "Point", "coordinates": [-75.34529371326525, 37.95938265368908]}, "type": "Feature", "properties": {"City": "Chincoteague Island", "Name": "Bill  Troxler", "OBJECTID": 325, "Zip": "233369144", "State": "VA", "Street": "Post Office Box 1144", "Expiration": "09/30/2017", "Applicatio": "20062081", "Y": 37.959375, "X": -75.345292}},
{"geometry": {"type": "Point", "coordinates": [-76.47989906837148, 37.99261262098999]}, "type": "Feature", "properties": {"City": "King George", "Name": "Ken  Perrotte", "OBJECTID": 326, "Zip": "22485", "State": "VA", "Street": "Post Office Box 1069", "Expiration": "11/30/2016", "Applicatio": "20111472", "Y": 37.992605, "X": -76.479897}},
{"geometry": {"type": "Point", "coordinates": [-76.479749068342, 37.992912621057386]}, "type": "Feature", "properties": {"City": "Richmond", "Name": "Ted  Markow", "OBJECTID": 327, "Zip": "23235", "State": "VA", "Street": "4255 Cheyenne Road", "Expiration": "05/31/2016", "Applicatio": "20110603", "Y": 37.992905, "X": -76.479747}},
{"geometry": {"type": "Point", "coordinates": [-76.55253909192717, 38.01026962204709]}, "type": "Feature", "properties": {"City": "Callao", "Name": "J W Johnson", "OBJECTID": 328, "Zip": "22435", "State": "VA", "Street": "308 Tyson lane", "Expiration": "06/30/2018", "Applicatio": "19981148", "Y": 38.010262, "X": -76.552537}},
{"geometry": {"type": "Point", "coordinates": [-76.5588620943997, 38.01920762366603]}, "type": "Feature", "properties": {"City": "Midlothian", "Name": "Tscharner D Watkins, III", "OBJECTID": 329, "Zip": "23113", "State": "VA", "Street": "2260 Chalkwell Drive", "Expiration": "04/30/2016", "Applicatio": "20110318", "Y": 38.0192, "X": -76.55886}},
{"geometry": {"type": "Point", "coordinates": [-76.54966509311295, 38.046675629661294]}, "type": "Feature", "properties": {"City": "Tequesta", "Name": "Patricia A Adams", "OBJECTID": 330, "Zip": "33469", "State": "FL", "Street": "18285 SE Courtview Circle", "Expiration": "02/28/2017", "Applicatio": "20111789", "Y": 38.046668, "X": -76.549663}},
{"geometry": {"type": "Point", "coordinates": [-76.71943914759244, 38.07783562999574]}, "type": "Feature", "properties": {"City": "Montross", "Name": "George W Townsend, III", "OBJECTID": 331, "Zip": "22520", "State": "VA", "Street": "Post Office Box 1147", "Expiration": "06/30/2018", "Applicatio": "19982176", "Y": 38.077828, "X": -76.719437}},
{"geometry": {"type": "Point", "coordinates": [-76.73484015313646, 38.09112763217771]}, "type": "Feature", "properties": {"City": "Virginia Beach", "Name": "F. A. Nelson", "OBJECTID": 332, "Zip": "23454", "State": "VA", "Street": "1713 Royal Park Court", "Expiration": "09/30/2018", "Applicatio": "20131294", "Y": 38.09112, "X": -76.734838}},
{"geometry": {"type": "Point", "coordinates": [-76.6497951270882, 38.09710463646609]}, "type": "Feature", "properties": {"City": "Alexandria", "Name": "Kathryn A. McGlynn", "OBJECTID": 333, "Zip": "22302", "State": "VA", "Street": "305 Fontaine Street", "Expiration": "06/30/2017", "Applicatio": "20120656", "Y": 38.097097, "X": -76.649793}},
{"geometry": {"type": "Point", "coordinates": [-76.48024907540065, 38.11396564601121]}, "type": "Feature", "properties": {"City": "Lottsburg", "Name": "Robin  Megel", "OBJECTID": 334, "Zip": "22511", "State": "VA", "Street": "458 Kingscote Drive", "Expiration": "01/31/2016", "Applicatio": "20101757", "Y": 38.113958, "X": -76.480247}},
{"geometry": {"type": "Point", "coordinates": [-76.63713912460227, 38.1221876420837]}, "type": "Feature", "properties": {"City": "Hague", "Name": "Jerry A Cornwell, Jr.", "OBJECTID": 335, "Zip": "22469", "State": "VA", "Street": "708 Narrows Beach Road", "Expiration": "06/30/2018", "Applicatio": "19981190", "Y": 38.12218, "X": -76.637137}},
{"geometry": {"type": "Point", "coordinates": [-76.63442012418585, 38.12961764371025]}, "type": "Feature", "properties": {"City": "Martinsville", "Name": "E. K. Williams", "OBJECTID": 336, "Zip": "24112", "State": "VA", "Street": "105 Courtney Terrace", "Expiration": "01/31/2017", "Applicatio": "20111744", "Y": 38.12961, "X": -76.634418}},
{"geometry": {"type": "Point", "coordinates": [-76.96347923291859, 38.24345265517104]}, "type": "Feature", "properties": {"City": "Chester", "Name": "Susan  Mack", "OBJECTID": 337, "Zip": "23836", "State": "VA", "Street": "12900 Rivers Bend Road", "Expiration": "02/28/2019", "Applicatio": "20140030", "Y": 38.243445, "X": -76.963477}},
{"geometry": {"type": "Point", "coordinates": [-77.05373526586013, 38.32749466906509]}, "type": "Feature", "properties": {"City": "King George", "Name": "Eric  Bosworth", "OBJECTID": 338, "Zip": "22485", "State": "VA", "Street": "6126 South Virginia Lane", "Expiration": "09/30/2017", "Applicatio": "20121126", "Y": 38.327487, "X": -77.053733}}
]}