{"type":"FeatureCollection","features":[
{"geometry": {"type": "Point", "coordinates": [-79.1399727, 37.4025122]}, "type": "Feature", "properties": {"Name": "Fire Station 2 - Grace Street", "OBJECTID": 1, "Creator": null, "GlobalID": "{77F05140-2707-4403-9B7C-8DC58E3AB3A5}", "DateModify": null, "Station_ID": "FD-2", "DateCreated": null, "Phone": null, "Editor": null, "Address": "2006 GRACE ST", "Department": 1}},
{"geometry": {"type": "Point", "coordinates": [-79.1813426, 37.3821753]}, "type": "Feature", "properties": {"Name": "Fire Station 3 - Fort Hill", "OBJECTID": 2, "Creator": null, "GlobalID": "{0B6B714F-4BF2-4356-BF74-F66E82D53EA3}", "DateModify": null, "Station_ID": "FD-3", "DateCreated": null, "Phone": null, "Editor": null, "Address": "4701 FORT AVE", "Department": 1}},
{"geometry": {"type": "Point", "coordinates": [-79.1646674, 37.4342768]}, "type": "Feature", "properties": {"Name": "Fire Station 4 - Birch Street", "OBJECTID": 3, "Creator": null, "GlobalID": "{FC8AD03C-33D9-4A24-986C-CDBBFA0F1950}", "DateModify": 1435581787000, "Station_ID": "FD-4", "DateCreated": null, "Phone": null, "Editor": "GISOWNER", "Address": "410 BIRCH ST", "Department": 1}},
{"geometry": {"type": "Point", "coordinates": [-79.2147532, 37.4461519]}, "type": "Feature", "properties": {"Name": "Fire Station 5 - Peakland", "OBJECTID": 4, "Creator": null, "GlobalID": "{53156EC8-FC81-4C6E-9AFA-249256E2E219}", "DateModify": null, "Station_ID": "FD-5", "DateCreated": null, "Phone": null, "Editor": null, "Address": "4800 BOONSBORO RD", "Department": 1}},
{"geometry": {"type": "Point", "coordinates": [-79.1589437, 37.4026529]}, "type": "Feature", "properties": {"Name": "Fire Station 6 - Miller Park", "OBJECTID": 5, "Creator": null, "GlobalID": "{057A2B70-42D4-4F5A-B064-B2802E1CF56F}", "DateModify": null, "Station_ID": "FD-6", "DateCreated": null, "Phone": null, "Editor": null, "Address": "2084 FORT AVE", "Department": 1}},
{"geometry": {"type": "Point", "coordinates": [-79.2283905, 37.3970213]}, "type": "Feature", "properties": {"Name": "Fire Station 7 - Lakeside Drive", "OBJECTID": 6, "Creator": null, "GlobalID": "{E75F052C-232D-4B57-B6E7-6EDB65A8FE18}", "DateModify": null, "Station_ID": "FD-7", "DateCreated": null, "Phone": null, "Editor": null, "Address": "2624 LAKESIDE DR", "Department": 1}},
{"geometry": {"type": "Point", "coordinates": [-79.2274595, 37.3559154]}, "type": "Feature", "properties": {"Name": "Fire Station 8 - Old Graves Mill Road", "OBJECTID": 7, "Creator": null, "GlobalID": "{2E8A5EEF-33A1-44BA-8567-E13F5FF3496F}", "DateModify": 1299062987000, "Station_ID": "FD-8", "DateCreated": null, "Phone": null, "Editor": "LYNCHBURGVA\\conwasc@GIS-SCC1", "Address": "213 OLD GRAVES MILL RD", "Department": 1}},
{"geometry": {"type": "Point", "coordinates": [-79.1459634, 37.4136855]}, "type": "Feature", "properties": {"Name": "Fire Station 1 - Clay Street", "OBJECTID": 11, "Creator": null, "GlobalID": "{3BB18EF0-5B77-460B-B42C-BCB899FEAAEC}", "DateModify": null, "Station_ID": "FD-1", "DateCreated": null, "Phone": null, "Editor": null, "Address": "801 CLAY ST", "Department": 1}}
]}