{"type":"FeatureCollection","features":[
{"geometry": {"type": "Point", "coordinates": [-79.1602034, 37.431296]}, "type": "Feature", "properties": {"City": "Lynchburg, VA 24504", "Name": "Fellowship Church of Christ", "OBJECTID": 1, "Creator": null, "DateModify": 1484323790000, "ZipCode": 24504, "Telephone": "434-528-3924", "State": "VA", "Link": "https://www.facebook.com/pages/Fellowship-Church-of-Christ/119908798019765", "Editor": "CONWASC", "Address": "1816 Bedford Avenue", "DateCreated": null}},
{"geometry": {"type": "Point", "coordinates": [-79.1460126, 37.4141728]}, "type": "Feature", "properties": {"City": "Lynchburg, VA 24504", "Name": "Lynchburg Daily Bread", "OBJECTID": 2, "Creator": null, "DateModify": 1484323551000, "ZipCode": 24504, "Telephone": "434-845-5703", "State": "VA", "Link": "http://lynchburgdailybread.com/", "Editor": "CONWASC", "Address": "721 Clay Street", "DateCreated": null}},
{"geometry": {"type": "Point", "coordinates": [-79.1457061, 37.3886354]}, "type": "Feature", "properties": {"City": "Lynchburg, VA 24501", "Name": "Fairview United Methodist Church", "OBJECTID": 3, "Creator": null, "DateModify": 1484322891000, "ZipCode": 24501, "Telephone": "434-258-8372", "State": "VA", "Link": "https://www.brafb.org/", "Editor": "CONWASC", "Address": "3041 Campbell Avenue", "DateCreated": null}},
{"geometry": {"type": "Point", "coordinates": [-79.1514021, 37.4096154]}, "type": "Feature", "properties": {"City": "Lynchburg, VA 24501", "Name": "Smyrna SDA Church", "OBJECTID": 4, "Creator": null, "DateModify": 1484323024000, "ZipCode": 24501, "Telephone": "434-528-9581", "State": "VA", "Link": "https://www.brafb.org/", "Editor": "CONWASC", "Address": "911 Taylor Street", "DateCreated": null}},
{"geometry": {"type": "Point", "coordinates": [-79.1672965, 37.4031136]}, "type": "Feature", "properties": {"City": "Lynchburg, VA 24501", "Name": "Park View Community Missions", "OBJECTID": 5, "Creator": null, "DateModify": 1484322977000, "ZipCode": 24501, "Telephone": "434-845-8468", "State": "VA", "Link": "http://www.parkviewcommunitymission.org/index.html", "Editor": "CONWASC", "Address": "2420 Memorial Avenue", "DateCreated": null}},
{"geometry": {"type": "Point", "coordinates": [-79.1682475, 37.3944882]}, "type": "Feature", "properties": {"City": "Lynchburg, VA 24501", "Name": "Love & Truth Community Center", "OBJECTID": 6, "Creator": null, "DateModify": 1484322747000, "ZipCode": 24501, "Telephone": "434-845-0200", "State": "VA", "Link": "http://www.ltcchurch.com/", "Editor": "CONWASC", "Address": "3135 Fort Avenue", "DateCreated": null}},
{"geometry": {"type": "Point", "coordinates": [-79.1476517, 37.3917145]}, "type": "Feature", "properties": {"City": "Lynchburg, VA 24501", "Name": "Fairview Christian Church", "OBJECTID": 7, "Creator": null, "DateModify": 1484322940000, "ZipCode": 24501, "Telephone": "434-845-6031", "State": "VA", "Link": "http://www.fairviewchristian.org/", "Editor": "CONWASC", "Address": "2701 Campbell Avenue", "DateCreated": null}},
{"geometry": {"type": "Point", "coordinates": [-79.1940112, 37.361134]}, "type": "Feature", "properties": {"City": "Lynchburg, VA 24502", "Name": "Lynchburg First Church of the Nazarene", "OBJECTID": 8, "Creator": null, "DateModify": 1484322646000, "ZipCode": 24502, "Telephone": "434-239-4943", "State": "VA", "Link": "http://lynchburgnaz.com/", "Editor": "CONWASC", "Address": "1737 Wards Ferry Road", "DateCreated": null}},
{"geometry": {"type": "Point", "coordinates": [-79.1822968, 37.4368807]}, "type": "Feature", "properties": {"City": "Lynchburg, VA 24503", "Name": "Rivermont Area Emergency Food Pantry", "OBJECTID": 9, "Creator": null, "DateModify": 1484324341000, "ZipCode": 24503, "Telephone": "Call Case Worker", "State": "VA", "Link": "https://www.brafb.org/", "Editor": "CONWASC", "Address": "1000 Langhorne Road", "DateCreated": null}},
{"geometry": {"type": "Point", "coordinates": [-79.1466393, 37.4162799]}, "type": "Feature", "properties": {"City": "Lynchburg, VA 24501", "Name": "Court Street Baptist Church", "OBJECTID": 10, "Creator": null, "DateModify": 1484323759000, "ZipCode": 24501, "Telephone": "434-847-8209", "State": "VA", "Link": "https://www.brafb.org/", "Editor": "CONWASC", "Address": "517 Court Street", "DateCreated": null}},
{"geometry": {"type": "Point", "coordinates": [-79.1398303, 37.4107554]}, "type": "Feature", "properties": {"City": "Lynchburg, VA 24504", "Name": "FARR Foundation Lighthouse", "OBJECTID": 12, "Creator": null, "DateModify": 1484323626000, "ZipCode": 24504, "Telephone": "434-546-3385", "State": "VA", "Link": "http://thelhcc.org/", "Editor": "CONWASC", "Address": "1310 Church Street", "DateCreated": null}},
{"geometry": {"type": "Point", "coordinates": [-79.2087723, 37.3976152]}, "type": "Feature", "properties": {"City": "Lynchburg, VA 24501", "Name": "Shekijah Prep Assembly", "OBJECTID": 13, "Creator": null, "DateModify": 1484323726000, "ZipCode": 24501, "Telephone": "434-237-7721", "State": "VA", "Link": "http://www.shekijah.org/", "Editor": "CONWASC", "Address": "104 Fleetwood Drive", "DateCreated": null}},
{"geometry": {"type": "Point", "coordinates": [-79.1862533, 37.3211563]}, "type": "Feature", "properties": {"City": "Lynchburg, VA 24502", "Name": "Lynchburg Seventh Day Adventist Church", "OBJECTID": 14, "Creator": null, "DateModify": 1484323683000, "ZipCode": 24502, "Telephone": "434-239-8466", "State": "VA", "Link": "http://www.lynchburgsda.org/", "Editor": "CONWASC", "Address": "19 George Street", "DateCreated": null}},
{"geometry": {"type": "Point", "coordinates": [-79.1393148, 37.4023446]}, "type": "Feature", "properties": {"City": "Lynchburg, VA 24504", "Name": "Amazing Grace Ministries PHC", "OBJECTID": 15, "Creator": "CONWASC", "DateModify": 1484323380000, "ZipCode": 24504, "Telephone": "434-847-3030", "State": "VA", "Link": "http://www.anamazinggraceoutreachchurch.com/About-Us.html", "Editor": "CONWASC", "Address": "2012 Grace Street", "DateCreated": 1484323326000}},
{"geometry": {"type": "Point", "coordinates": [-79.1434242, 37.4110874]}, "type": "Feature", "properties": {"City": "Lynchburg, VA 24505", "Name": "Central Virginia Alliance for Community Living", "OBJECTID": 16, "Creator": "CONWASC", "DateModify": 1484323509000, "ZipCode": 24505, "Telephone": null, "State": "VA", "Link": "https://www.brafb.org/", "Editor": "CONWASC", "Address": "501 12th Street", "DateCreated": 1484323449000}}
]}