{"type":"FeatureCollection","features":[
{"geometry": {"type": "Point", "coordinates": [-79.1493041, 37.4115163]}, "type": "Feature", "properties": {"CenterType": "Neighborhood Center", "Name": "College Hill Neighborhood Center", "OBJECTID": 1, "Creator": null, "GlobalID": "{F2B0B3CB-F254-4C4F-917B-D0173B24442E}", "DateModify": 1458329726000, "DateCreated": null, "Phone": "847-1418", "Link": "http://www.lynchburgparksandrec.com/community-centers/college-hill-center/", "Editor": "JONESE", "Address": "811 JACKSON ST"}},
{"geometry": {"type": "Point", "coordinates": [-79.1451268, 37.4228398]}, "type": "Feature", "properties": {"CenterType": "Neighborhood Center", "Name": "Daniel's Hill Neighborhood Center", "OBJECTID": 2, "Creator": null, "GlobalID": "{A4DF2503-D540-4C6A-8610-1E30ACC6FA6E}", "DateModify": 1458329735000, "DateCreated": null, "Phone": "847-1396", "Link": "http://www.lynchburgparksandrec.com/community-centers/daniels-hill-center/", "Editor": "JONESE", "Address": "317 NORWOOD ST"}},
{"geometry": {"type": "Point", "coordinates": [-79.1446901, 37.4043499]}, "type": "Feature", "properties": {"CenterType": "Neighborhood Center", "Name": "Diamond Hill Neighborhood Center", "OBJECTID": 3, "Creator": null, "GlobalID": "{0C785A6D-AB2B-4E4B-8BFD-F1CF9E42C6D0}", "DateModify": 1458329736000, "DateCreated": null, "Phone": "847-1409", "Link": "http://www.lynchburgparksandrec.com/community-centers/diamond-hill-center/", "Editor": "JONESE", "Address": "1005 17TH ST"}},
{"geometry": {"type": "Point", "coordinates": [-79.1388551, 37.3817596]}, "type": "Feature", "properties": {"CenterType": "Neighborhood Center", "Name": "Fairview Heights Neighborhood Center", "OBJECTID": 4, "Creator": null, "GlobalID": "{17E402F0-EF92-44DB-8CD1-389A8A04603B}", "DateModify": 1458329737000, "DateCreated": null, "Phone": "847-1751", "Link": "http://www.lynchburgparksandrec.com/community-centers/fairview-center/", "Editor": "JONESE", "Address": "3621 CAMPBELL AVE"}},
{"geometry": {"type": "Point", "coordinates": [-79.1276132, 37.3867417]}, "type": "Feature", "properties": {"CenterType": "City-Wide Community Center", "Name": "Art Studio at Jackson Heights", "OBJECTID": 5, "Creator": null, "GlobalID": "{01D2CD82-B456-43EE-B9E9-9FCC2D1FB837}", "DateModify": 1458329755000, "DateCreated": null, "Phone": "455-4001", "Link": "http://www.lynchburgparksandrec.com/community-centers/the-art-studio-at-jackson-heights/", "Editor": "JONESE", "Address": "720 WINSTON RIDGE RD"}},
{"geometry": {"type": "Point", "coordinates": [-79.1639576, 37.416415]}, "type": "Feature", "properties": {"CenterType": "Neighborhood Center", "Name": "Jefferson Park Neighborhood Center", "OBJECTID": 6, "Creator": null, "GlobalID": "{FBA6CEF6-8735-4063-9B5C-B7EE9115FE6C}", "DateModify": 1458329744000, "DateCreated": null, "Phone": "847-1405", "Link": "http://www.lynchburgparksandrec.com/community-centers/jefferson-park-center/", "Editor": "JONESE", "Address": "405 YORK ST"}},
{"geometry": {"type": "Point", "coordinates": [-79.2238748, 37.4087038]}, "type": "Feature", "properties": {"CenterType": "City-Wide Community Center", "Name": "Templeton Senior Center", "OBJECTID": 7, "Creator": null, "GlobalID": "{F309D326-1FDC-4375-83C8-DCB6A08B40F8}", "DateModify": 1458329765000, "DateCreated": null, "Phone": "455-4115", "Link": "http://www.lynchburgparksandrec.com/community-centers/templeton-senior-center/", "Editor": "JONESE", "Address": "225 WIGGINGTON RD"}},
{"geometry": {"type": "Point", "coordinates": [-79.1542227, 37.4169431]}, "type": "Feature", "properties": {"CenterType": "Neighborhood Center", "Name": "Yoder Neighborhood Center", "OBJECTID": 8, "Creator": null, "GlobalID": "{98DDD0A6-1176-43F2-81C8-DFBB0E6DC2B1}", "DateModify": 1458329745000, "DateCreated": null, "Phone": "847-1645", "Link": "http://www.lynchburgparksandrec.com/community-centers/yoder-center/", "Editor": "JONESE", "Address": "109 JACKSON ST"}},
{"geometry": {"type": "Point", "coordinates": [-79.1647696, 37.402769]}, "type": "Feature", "properties": {"CenterType": "City-Wide Community Center", "Name": "Miller Center", "OBJECTID": 9, "Creator": "CONWASC", "GlobalID": "{F5165480-7B25-4621-9A97-9F9FE1CEBD0C}", "DateModify": 1458329765000, "DateCreated": 1433181155000, "Phone": "455-5858", "Link": "http://www.lynchburgparksandrec.com/community-centers/miller-center/", "Editor": "JONESE", "Address": "301 GROVE ST"}}
]}