{"type":"FeatureCollection","features":[
{"geometry": {"type": "Point", "coordinates": [-76.5757063, 36.7612954]}, "type": "Feature", "properties": {"Town_Type": "o", "Id": 4, "OBJECTID": 1, "Name": "Teracosick"}},
{"geometry": {"type": "Point", "coordinates": [-76.4493899, 36.7903245]}, "type": "Feature", "properties": {"Town_Type": "o", "Id": 7, "OBJECTID": 2, "Name": "Mantoughquemend"}},
{"geometry": {"type": "Point", "coordinates": [-76.2448506, 36.7926414]}, "type": "Feature", "properties": {"Town_Type": "k", "Id": 3, "OBJECTID": 3, "Name": "CHESAPEACK"}},
{"geometry": {"type": "Point", "coordinates": [-76.5704643, 36.8291592]}, "type": "Feature", "properties": {"Town_Type": "k", "Id": 5, "OBJECTID": 4, "Name": "NANDSAMUND"}},
{"geometry": {"type": "Point", "coordinates": [-76.5333622, 36.8692538]}, "type": "Feature", "properties": {"Town_Type": "o", "Id": 8, "OBJECTID": 5, "Name": "Mattanock"}},
{"geometry": {"type": "Point", "coordinates": [-76.5650625, 36.982337]}, "type": "Feature", "properties": {"Town_Type": "k", "Id": 9, "OBJECTID": 6, "Name": "WARRASKOYACK"}},
{"geometry": {"type": "Point", "coordinates": [-76.5558031, 36.9938845]}, "type": "Feature", "properties": {"Town_Type": "o", "Id": 10, "OBJECTID": 7, "Name": "Mokete"}},
{"geometry": {"type": "Point", "coordinates": [-76.3320982, 37.0171731]}, "type": "Feature", "properties": {"Town_Type": "k", "Id": 6, "OBJECTID": 8, "Name": "KECOUGHTAN"}},
{"geometry": {"type": "Point", "coordinates": [-76.6183335, 37.0318953]}, "type": "Feature", "properties": {"Town_Type": "o", "Id": 11, "OBJECTID": 9, "Name": "Mathomauk"}},
{"geometry": {"type": "Point", "coordinates": [-77.0179763, 37.198664]}, "type": "Feature", "properties": {"Town_Type": "o", "Id": 15, "OBJECTID": 10, "Name": "Unnamed"}},
{"geometry": {"type": "Point", "coordinates": [-76.8733507, 37.2025635]}, "type": "Feature", "properties": {"Town_Type": "o", "Id": 12, "OBJECTID": 11, "Name": "Nantapoyack/\"Tappahanna\""}},
{"geometry": {"type": "Point", "coordinates": [-76.9520046, 37.2249041]}, "type": "Feature", "properties": {"Town_Type": "k", "Id": 13, "OBJECTID": 12, "Name": "QUIYOUGHCOHANOCK"}},
{"geometry": {"type": "Point", "coordinates": [-76.7902369, 37.231269]}, "type": "Feature", "properties": {"Town_Type": "o", "Id": 21, "OBJECTID": 13, "Name": "Namquosick"}},
{"geometry": {"type": "Point", "coordinates": [-76.9789401, 37.2351199]}, "type": "Feature", "properties": {"Town_Type": "o", "Id": 14, "OBJECTID": 14, "Name": "Chawopo"}},
{"geometry": {"type": "Point", "coordinates": [-76.9458687, 37.2455695]}, "type": "Feature", "properties": {"Town_Type": "k", "Id": 20, "OBJECTID": 15, "Name": "PASPAHEGH"}},
{"geometry": {"type": "Point", "coordinates": [-76.9116044, 37.2468895]}, "type": "Feature", "properties": {"Town_Type": "o", "Id": 26, "OBJECTID": 16, "Name": "Unnamed"}},
{"geometry": {"type": "Point", "coordinates": [-76.860308, 37.2530383]}, "type": "Feature", "properties": {"Town_Type": "o", "Id": 22, "OBJECTID": 17, "Name": "Paspahegh"}},
{"geometry": {"type": "Point", "coordinates": [-77.3872571, 37.2534442]}, "type": "Feature", "properties": {"Town_Type": "o", "Id": 227, "OBJECTID": 18, "Name": "unnamed"}},
{"geometry": {"type": "Point", "coordinates": [-76.9966011, 37.2546259]}, "type": "Feature", "properties": {"Town_Type": "o", "Id": 16, "OBJECTID": 19, "Name": "Unnamed"}},
{"geometry": {"type": "Point", "coordinates": [-76.8823657, 37.2587828]}, "type": "Feature", "properties": {"Town_Type": "o", "Id": 27, "OBJECTID": 20, "Name": "Unnamed"}},
{"geometry": {"type": "Point", "coordinates": [-76.8635781, 37.2697432]}, "type": "Feature", "properties": {"Town_Type": "o", "Id": 23, "OBJECTID": 21, "Name": "Cinquactock"}},
{"geometry": {"type": "Point", "coordinates": [-77.0315208, 37.2776422]}, "type": "Feature", "properties": {"Town_Type": "o", "Id": 17, "OBJECTID": 22, "Name": "Unnamed"}},
{"geometry": {"type": "Point", "coordinates": [-77.371401, 37.2843298]}, "type": "Feature", "properties": {"Town_Type": "o", "Id": 226, "OBJECTID": 23, "Name": "unnamed"}},
{"geometry": {"type": "Point", "coordinates": [-76.8763595, 37.2855358]}, "type": "Feature", "properties": {"Town_Type": "o", "Id": 24, "OBJECTID": 24, "Name": "Marinough"}},
{"geometry": {"type": "Point", "coordinates": [-77.2229555, 37.3054263]}, "type": "Feature", "properties": {"Town_Type": "o", "Id": 19, "OBJECTID": 25, "Name": "Unnamed"}},
{"geometry": {"type": "Point", "coordinates": [-77.3615754, 37.3126477]}, "type": "Feature", "properties": {"Town_Type": "o", "Id": 225, "OBJECTID": 26, "Name": "unnamed"}},
{"geometry": {"type": "Point", "coordinates": [-77.1223296, 37.3209835]}, "type": "Feature", "properties": {"Town_Type": "o", "Id": 18, "OBJECTID": 27, "Name": "Unnamed"}},
{"geometry": {"type": "Point", "coordinates": [-76.8248718, 37.3244235]}, "type": "Feature", "properties": {"Town_Type": "o", "Id": 25, "OBJECTID": 28, "Name": "Mattapanient"}},
{"geometry": {"type": "Point", "coordinates": [-77.2477072, 37.3361839]}, "type": "Feature", "properties": {"Town_Type": "k", "Id": 47, "OBJECTID": 29, "Name": "WEANOCK"}},
{"geometry": {"type": "Point", "coordinates": [-77.2782816, 37.3424031]}, "type": "Feature", "properties": {"Town_Type": "o", "Id": 224, "OBJECTID": 30, "Name": "unnamed"}},
{"geometry": {"type": "Point", "coordinates": [-76.90839, 37.3459546]}, "type": "Feature", "properties": {"Town_Type": "o", "Id": 38, "OBJECTID": 31, "Name": "Mansa"}},
{"geometry": {"type": "Point", "coordinates": [-76.8979196, 37.3468847]}, "type": "Feature", "properties": {"Town_Type": "o", "Id": 36, "OBJECTID": 32, "Name": "Opahaock"}},
{"geometry": {"type": "Point", "coordinates": [-76.8684139, 37.3496395]}, "type": "Feature", "properties": {"Town_Type": "o", "Id": 28, "OBJECTID": 33, "Name": "Unnamed"}},
{"geometry": {"type": "Point", "coordinates": [-77.3561581, 37.3576816]}, "type": "Feature", "properties": {"Town_Type": "o", "Id": 51, "OBJECTID": 34, "Name": "Unnamed"}},
{"geometry": {"type": "Point", "coordinates": [-77.3945379, 37.3645261]}, "type": "Feature", "properties": {"Town_Type": "o", "Id": 52, "OBJECTID": 35, "Name": "Unnamed"}},
{"geometry": {"type": "Point", "coordinates": [-76.9041029, 37.3650646]}, "type": "Feature", "properties": {"Town_Type": "o", "Id": 31, "OBJECTID": 36, "Name": "Werawahon"}},
{"geometry": {"type": "Point", "coordinates": [-76.8736176, 37.3670748]}, "type": "Feature", "properties": {"Town_Type": "o", "Id": 30, "OBJECTID": 37, "Name": "Oranieck"}},
{"geometry": {"type": "Point", "coordinates": [-76.9157232, 37.3717315]}, "type": "Feature", "properties": {"Town_Type": "o", "Id": 39, "OBJECTID": 38, "Name": "Menascosic"}},
{"geometry": {"type": "Point", "coordinates": [-76.9007103, 37.3818751]}, "type": "Feature", "properties": {"Town_Type": "o", "Id": 32, "OBJECTID": 39, "Name": "Askakep"}},
{"geometry": {"type": "Point", "coordinates": [-76.9417535, 37.3819697]}, "type": "Feature", "properties": {"Town_Type": "o", "Id": 42, "OBJECTID": 40, "Name": "Chosicks"}},
{"geometry": {"type": "Point", "coordinates": [-76.9208423, 37.3853578]}, "type": "Feature", "properties": {"Town_Type": "o", "Id": 40, "OBJECTID": 41, "Name": "Paspanigh"}},
{"geometry": {"type": "Point", "coordinates": [-77.3522704, 37.3859372]}, "type": "Feature", "properties": {"Town_Type": "o", "Id": 49, "OBJECTID": 42, "Name": "Unnamed"}},
{"geometry": {"type": "Point", "coordinates": [-77.2607221, 37.3884853]}, "type": "Feature", "properties": {"Town_Type": "o", "Id": 48, "OBJECTID": 43, "Name": "Unnamed"}},
{"geometry": {"type": "Point", "coordinates": [-76.9075622, 37.3886194]}, "type": "Feature", "properties": {"Town_Type": "o", "Id": 29, "OBJECTID": 44, "Name": "Unnamed"}},
{"geometry": {"type": "Point", "coordinates": [-77.3916667, 37.3942853]}, "type": "Feature", "properties": {"Town_Type": "o", "Id": 53, "OBJECTID": 45, "Name": "Unnamed"}},
{"geometry": {"type": "Point", "coordinates": [-76.9277549, 37.3943848]}, "type": "Feature", "properties": {"Town_Type": "o", "Id": 41, "OBJECTID": 46, "Name": "Mamanahunt"}},
{"geometry": {"type": "Point", "coordinates": [-77.3773821, 37.3953351]}, "type": "Feature", "properties": {"Town_Type": "o", "Id": 50, "OBJECTID": 47, "Name": "Unnamed"}},
{"geometry": {"type": "Point", "coordinates": [-76.9029841, 37.3963095]}, "type": "Feature", "properties": {"Town_Type": "o", "Id": 33, "OBJECTID": 48, "Name": "Moysonec"}},
{"geometry": {"type": "Point", "coordinates": [-76.9479506, 37.4001467]}, "type": "Feature", "properties": {"Town_Type": "o", "Id": 43, "OBJECTID": 49, "Name": "Paspanegh"}},
{"geometry": {"type": "Point", "coordinates": [-77.3833468, 37.4028307]}, "type": "Feature", "properties": {"Town_Type": "k", "Id": 57, "OBJECTID": 50, "Name": "ARROHATECK"}},
{"geometry": {"type": "Point", "coordinates": [-76.9652464, 37.4044301]}, "type": "Feature", "properties": {"Town_Type": "o", "Id": 44, "OBJECTID": 51, "Name": "Righkahauk"}},
{"geometry": {"type": "Point", "coordinates": [-76.9318454, 37.4049808]}, "type": "Feature", "properties": {"Town_Type": "o", "Id": 34, "OBJECTID": 52, "Name": "Quosaugh"}},
{"geometry": {"type": "Point", "coordinates": [-76.9786867, 37.4072524]}, "type": "Feature", "properties": {"Town_Type": "o", "Id": 45, "OBJECTID": 53, "Name": "Nechaniok"}},
{"geometry": {"type": "Point", "coordinates": [-77.0065854, 37.4151598]}, "type": "Feature", "properties": {"Town_Type": "o", "Id": 46, "OBJECTID": 54, "Name": "Mattahunt"}},
{"geometry": {"type": "Point", "coordinates": [-76.9934455, 37.4237599]}, "type": "Feature", "properties": {"Town_Type": "o", "Id": 35, "OBJECTID": 55, "Name": "Attamuspinck"}},
{"geometry": {"type": "Point", "coordinates": [-77.4248878, 37.447679]}, "type": "Feature", "properties": {"Town_Type": "o", "Id": 54, "OBJECTID": 56, "Name": "Unnamed"}},
{"geometry": {"type": "Point", "coordinates": [-77.4097124, 37.4510358]}, "type": "Feature", "properties": {"Town_Type": "o", "Id": 56, "OBJECTID": 57, "Name": "Unnamed"}},
{"geometry": {"type": "Point", "coordinates": [-77.0831211, 37.454962]}, "type": "Feature", "properties": {"Town_Type": "o", "Id": 37, "OBJECTID": 58, "Name": "Appocant"}},
{"geometry": {"type": "Point", "coordinates": [-77.4148527, 37.4623541]}, "type": "Feature", "properties": {"Town_Type": "o", "Id": 55, "OBJECTID": 59, "Name": "Unnamed"}},
{"geometry": {"type": "Point", "coordinates": [-77.4198502, 37.4988063]}, "type": "Feature", "properties": {"Town_Type": "k", "Id": 58, "OBJECTID": 60, "Name": "POWHATAN"}},
{"geometry": {"type": "Point", "coordinates": [-77.7310823, 37.5796126]}, "type": "Feature", "properties": {"Town_Type": "o", "Id": 181, "OBJECTID": 61, "Name": "Mowhemcho"}},
{"geometry": {"type": "Point", "coordinates": [-77.4130455, 37.6224031]}, "type": "Feature", "properties": {"Town_Type": "k", "Id": 230, "OBJECTID": 62, "Name": "Orapaks"}},
{"geometry": {"type": "Point", "coordinates": [-77.8649224, 37.6318674]}, "type": "Feature", "properties": {"Town_Type": "k", "Id": 180, "OBJECTID": 63, "Name": "MASSINACACK"}},
{"geometry": {"type": "Point", "coordinates": [-78.7311331, 37.63336]}, "type": "Feature", "properties": {"Town_Type": "k", "Id": 178, "OBJECTID": 64, "Name": "MONAHASSANAUGH"}},
{"geometry": {"type": "Point", "coordinates": [-78.186103, 37.7503098]}, "type": "Feature", "properties": {"Town_Type": "k", "Id": 179, "OBJECTID": 65, "Name": "RASSAWEK"}},
{"geometry": {"type": "Point", "coordinates": [-78.4599251, 38.1146842]}, "type": "Feature", "properties": {"Town_Type": "k", "Id": 177, "OBJECTID": 66, "Name": "MONASUKAPANOUGH"}}
]}