{"type":"FeatureCollection","features":[
{"geometry": {"type": "Point", "coordinates": [-79.1403198, 37.4115862]}, "type": "Feature", "properties": {"Status": "M", "Match_type": "A", "Name": "Heritage Crafter's Gallery", "ObjectID": 1, "Addr_type": "StreetAddress", "Address": "1219 Main St", "Ref_ID": 17863, "Hours": "M-Sa 8a-2p", "Phone": "(434) 455-4485", "Score": 100, "Link": "http://lynchburgcommunitymarket.com/", "X": 11296928.678218, "Y": 3674071.155912, "Match_addr": "1219 MAIN ST", "ARC_Single_Line_Input": "1219 Main St", "Side": "", "Description": "Local made fine artisan handcrafts"}},
{"geometry": {"type": "Point", "coordinates": [-79.1403855, 37.4116639]}, "type": "Feature", "properties": {"Status": "M", "Match_type": "A", "Name": "Willow Breezes", "ObjectID": 2, "Addr_type": "StreetAddress", "Address": "1219 Main St", "Ref_ID": 17863, "Hours": "T-F 10-2, Sa 8-2", "Phone": "(434) 847-0088", "Score": 100, "Link": "http://lynchburgcommunitymarket.com/vendors/willow-breezes/", "X": 11296928.678218, "Y": 3674071.155912, "Match_addr": "1219 MAIN ST", "ARC_Single_Line_Input": "1219 Main St", "Side": "", "Description": "Jewelry & ladies accessories"}},
{"geometry": {"type": "Point", "coordinates": [-79.1352049, 37.4073543]}, "type": "Feature", "properties": {"Status": "M", "Match_type": "A", "Name": "Accents", "ObjectID": 3, "Addr_type": "StreetAddress", "Address": "1716 Main St", "Ref_ID": 18069, "Hours": "M-Sa 9a-5:30p, Su 11a-4p", "Phone": "(434) 847-0576", "Score": 100, "Link": "http://www.accentsflagsandgifts.com", "X": 11298422.706491, "Y": 3672491.862035, "Match_addr": "1716 MAIN ST", "ARC_Single_Line_Input": "1716 Main St", "Side": "", "Description": "Flags, gifts, home & garden"}},
{"geometry": {"type": "Point", "coordinates": [-79.1387041, 37.4105322]}, "type": "Feature", "properties": {"Status": "M", "Match_type": "A", "Name": "Oxide Pottery", "ObjectID": 4, "Addr_type": "StreetAddress", "Address": "1337 Main St", "Ref_ID": 18107, "Hours": "W-F 10a-6p, Sa 10a-3p", "Phone": "(434) 845-5656", "Score": 100, "Link": "http://www.oxidepottery.com", "X": 11297414.213904, "Y": 3673655.782167, "Match_addr": "1337 MAIN ST", "ARC_Single_Line_Input": "1337 Main St", "Side": "", "Description": "Pottery & handmade goods"}},
{"geometry": {"type": "Point", "coordinates": [-79.1389777, 37.4114381]}, "type": "Feature", "properties": {"Status": "M", "Match_type": "A", "Name": "Farmer's Seed & Supply", "ObjectID": 5, "Addr_type": "StreetAddress", "Address": "1306 Main St", "Ref_ID": 18095, "Hours": "M-F 8a-5p, Sa 8a-2p", "Phone": "(434) 845-2522", "Score": 100, "Link": "http://farmersseed.blogspot.com/", "X": 11297336.987529, "Y": 3673986.163198, "Match_addr": "1306 MAIN ST", "ARC_Single_Line_Input": "1306 Main St", "Side": "", "Description": "Garden supplies"}},
{"geometry": {"type": "Point", "coordinates": [-79.1394289, 37.4113077]}, "type": "Feature", "properties": {"Status": "M", "Match_type": "A", "Name": "Estates Revisited", "ObjectID": 6, "Addr_type": "StreetAddress", "Address": "1301 Main St", "Ref_ID": 18108, "Hours": "M-Sa 10-5 ", "Phone": "(434) 845-0555", "Score": 100, "Link": "http://www.estatesrevisited.com", "X": 11297205.6303, "Y": 3673939.568495, "Match_addr": "1301 MAIN ST", "ARC_Single_Line_Input": "1301 Main St", "Side": "", "Description": "Antiques & consignments"}},
{"geometry": {"type": "Point", "coordinates": [-79.1396758, 37.4115794]}, "type": "Feature", "properties": {"Status": "M", "Match_type": "A", "Name": "Galaxie Modern Furniture & Art", "ObjectID": 7, "Addr_type": "StreetAddress", "Address": "1225 Main St", "Ref_ID": 18161, "Hours": "Tu-Sa 10a-5p", "Phone": "(434) 846-0077", "Score": 100, "Link": "http://www.galaxiemodern.com", "X": 11297134.578966, "Y": 3674038.966969, "Match_addr": "1225 MAIN ST", "ARC_Single_Line_Input": "1225 Main St", "Side": "", "Description": "Modern furniture & unique art"}},
{"geometry": {"type": "Point", "coordinates": [-79.1393949, 37.4119307]}, "type": "Feature", "properties": {"Status": "M", "Match_type": "A", "Name": "Gladiola Girls ", "ObjectID": 8, "Addr_type": "StreetAddress", "Address": "1220 Main St", "Ref_ID": 18162, "Hours": "M-Sa 10-6, Sun 1-6", "Phone": "(434) 944-4233", "Score": 100, "Link": "http://www.gladiolagirls.com", "X": 11297217.037612, "Y": 3674166.330272, "Match_addr": "1220 MAIN ST", "ARC_Single_Line_Input": "1220 Main St", "Side": "", "Description": "Ladies urban chic boutique"}},
{"geometry": {"type": "Point", "coordinates": [-79.1395348, 37.4120584]}, "type": "Feature", "properties": {"Status": "M", "Match_type": "A", "Name": "Bailey Spencer Hardware", "ObjectID": 9, "Addr_type": "StreetAddress", "Address": "1216 Main St", "Ref_ID": 18152, "Hours": "M-F 8a-5p, Sa 9a-4p, closed Sunday", "Phone": "(434) 845-9024", "Score": 100, "Link": "http://www.baileyspencer.com", "X": 11297176.712026, "Y": 3674213.116464, "Match_addr": "1216 MAIN ST", "ARC_Single_Line_Input": "1216 Main St", "Side": "", "Description": "Chippendale doors, stained glass, etc."}},
{"geometry": {"type": "Point", "coordinates": [-79.139473, 37.412003]}, "type": "Feature", "properties": {"Status": "U", "Match_type": "A", "Name": "McCraw's New/Used Furniture ", "ObjectID": 10, "Addr_type": "", "Address": "1214 Main St", "Ref_ID": -1, "Hours": "M-Sa 8a-4:30p", "Phone": "(434) 845-8812", "Score": 0, "Link": "-", "X": 0, "Y": 0, "Match_addr": "", "ARC_Single_Line_Input": "1214 Main St", "Side": "", "Description": "Furniture"}},
{"geometry": {"type": "Point", "coordinates": [-79.1398144, 37.4123204]}, "type": "Feature", "properties": {"Status": "U", "Match_type": "A", "Name": "Enchanted ", "ObjectID": 11, "Addr_type": "", "Address": "1204 Main St", "Ref_ID": -1, "Hours": "Tu-Sa 10a-3p", "Phone": "(434) 846-5580", "Score": 0, "Link": "-", "X": 0, "Y": 0, "Match_addr": "", "ARC_Single_Line_Input": "1204 Main St", "Side": "", "Description": "Antiques"}},
{"geometry": {"type": "Point", "coordinates": [-79.1398912, 37.4123803]}, "type": "Feature", "properties": {"Status": "M", "Match_type": "A", "Name": "Telitha", "ObjectID": 12, "Addr_type": "StreetAddress", "Address": "1200 Main St", "Ref_ID": 17853, "Hours": "Tu/W/F 9a-6p, Th 9a-8p, Sa 9a-3p", "Phone": "(434) 384-7722", "Score": 100, "Link": "-", "X": 11297073.997512, "Y": 3674331.001363, "Match_addr": "1200 MAIN ST", "ARC_Single_Line_Input": "1200 Main St", "Side": "", "Description": "Facials, spa massage"}},
{"geometry": {"type": "Point", "coordinates": [-79.1407824, 37.4129056]}, "type": "Feature", "properties": {"Status": "M", "Match_type": "A", "Name": "Scene 3 Boardshop", "ObjectID": 13, "Addr_type": "StreetAddress", "Address": "1107 Main St", "Ref_ID": 17844, "Hours": "M-F 12-6p, Sa 10a-5p", "Phone": "(434) 385-4431", "Score": 100, "Link": "http://www.s3bs.com", "X": 11296816.474624, "Y": 3674524.014256, "Match_addr": "1107 MAIN ST", "ARC_Single_Line_Input": "1107 Main St", "Side": "", "Description": "Bikes, skateboards and snowboards"}},
{"geometry": {"type": "Point", "coordinates": [-79.1410917, 37.4132105]}, "type": "Feature", "properties": {"Status": "M", "Match_type": "A", "Name": "Schewel's Furniture", "ObjectID": 14, "Addr_type": "StreetAddress", "Address": "1031 Main St", "Ref_ID": 26906, "Hours": "M/Tu/Th/F/Sa 9a-5p, Closed W/Su", "Phone": "(434) 845-2326", "Score": 100, "Link": "https://www.schewels.com", "X": 11296727.391904, "Y": 3674635.644049, "Match_addr": "1031 MAIN ST", "ARC_Single_Line_Input": "1031 Main St", "Side": "", "Description": "Furniture"}},
{"geometry": {"type": "Point", "coordinates": [-79.1407811, 37.4134427]}, "type": "Feature", "properties": {"Status": "M", "Match_type": "A", "Name": "Scarlett's Antique Mall", "ObjectID": 15, "Addr_type": "StreetAddress", "Address": "1026 Main St", "Ref_ID": 17915, "Hours": "Tu-F 11a-5:30p, Sa 10a-5p", "Phone": "(434) 528-0488", "Score": 100, "Link": "-", "X": 11296818.190691, "Y": 3674719.560552, "Match_addr": "1026 MAIN ST", "ARC_Single_Line_Input": "1026 Main St", "Side": "", "Description": "Antiques"}},
{"geometry": {"type": "Point", "coordinates": [-79.1413514, 37.4134795]}, "type": "Feature", "properties": {"Status": "U", "Match_type": "A", "Name": "Absolute Bridal & Formal", "ObjectID": 16, "Addr_type": "", "Address": "1015 Main St", "Ref_ID": -1, "Hours": "Su-M 12p-5p, Tu-F 10a-7p, Sa 9a-6p", "Phone": "(434) 528-4560", "Score": 0, "Link": "http://www.absolutebridalandformal.com", "X": 0, "Y": 0, "Match_addr": "", "ARC_Single_Line_Input": "1015 Main St", "Side": "", "Description": "Women's clothing/gowns"}},
{"geometry": {"type": "Point", "coordinates": [-79.1420296, 37.4142477]}, "type": "Feature", "properties": {"Status": "M", "Match_type": "A", "Name": "Garrett Wayne Exquisite Apparel", "ObjectID": 17, "Addr_type": "StreetAddress", "Address": "915 Main St", "Ref_ID": 17889, "Hours": "M 11:30a-6p, W-Th 11:30a-5p, F 11:30a-6p, Sa 12:30-5p, Su 12:30-4p", "Phone": "(434) 258-6554", "Score": 100, "Link": "-", "X": 11296439.351437, "Y": 3675037.716936, "Match_addr": "915 MAIN ST", "ARC_Single_Line_Input": "915 Main St", "Side": "", "Description": "Special occasion apparel"}},
{"geometry": {"type": "Point", "coordinates": [-79.1415595, 37.4136535]}, "type": "Feature", "properties": {"Status": "M", "Match_type": "A", "Name": "Lynchburg Camera Shop", "ObjectID": 18, "Addr_type": "StreetAddress", "Address": "1009 Main St", "Ref_ID": 17923, "Hours": "M-F 9a-5:30p, Sa 10a-3p", "Phone": "(434) 846-6015", "Score": 100, "Link": "http://www.lynchburgcamera.com", "X": 11296592.632564, "Y": 3674797.842455, "Match_addr": "1009 MAIN ST", "ARC_Single_Line_Input": "1009 Main St", "Side": "", "Description": "Cameras and equipment"}},
{"geometry": {"type": "Point", "coordinates": [-79.1414285, 37.4141839]}, "type": "Feature", "properties": {"Status": "M", "Match_type": "A", "Name": "High Peak Sportswear", "ObjectID": 19, "Addr_type": "StreetAddress", "Address": "924 Main St", "Ref_ID": 27602, "Hours": "M-F 10a-5p, Sa 10a-2p", "Phone": "(434) 847-5035", "Score": 100, "Link": "http://www.hipeak.com", "X": 11296632.007373, "Y": 3674990.727244, "Match_addr": "924 MAIN ST", "ARC_Single_Line_Input": "924 Main St", "Side": "", "Description": "Sports apparel & gifts"}},
{"geometry": {"type": "Point", "coordinates": [-79.1415343, 37.4142904]}, "type": "Feature", "properties": {"Status": "M", "Match_type": "A", "Name": "Celebration ", "ObjectID": 20, "Addr_type": "StreetAddress", "Address": "920 Main St", "Ref_ID": 17931, "Hours": "Tu-Th 10a-6p, F-Sa 10a-5p, Su 1-5p", "Phone": "(434) 237-5557", "Score": 100, "Link": "http://www.celebrationbridal.com", "X": 11296601.531828, "Y": 3675029.692385, "Match_addr": "920 MAIN ST", "ARC_Single_Line_Input": "920 Main St", "Side": "", "Description": "Special occasion dresses"}},
{"geometry": {"type": "Point", "coordinates": [-79.1418444, 37.4146408]}, "type": "Feature", "properties": {"Status": "M", "Match_type": "A", "Name": "ALTUS Chocolate", "ObjectID": 21, "Addr_type": "StreetAddress", "Address": "908 Main St", "Ref_ID": 18376, "Hours": "S-M 11a-3p, Tu-Th 11a-8p, F-Sa 11a-10p", "Phone": "(434) 847-2970", "Score": 100, "Link": "http://www.caoartisanchocolates.com", "X": 11296512.340353, "Y": 3675157.911053, "Match_addr": "908 MAIN ST", "ARC_Single_Line_Input": "908 Main St", "Side": "", "Description": "Chocolate, gelato, coffee, tea"}},
{"geometry": {"type": "Point", "coordinates": [-79.1421141, 37.4143391]}, "type": "Feature", "properties": {"Status": "M", "Match_type": "A", "Name": "Heritage Connection Gift Shop", "ObjectID": 22, "Addr_type": "StreetAddress", "Address": "915 Main St", "Ref_ID": 17889, "Hours": "M-F 11a-6p, Sa 9a-5p", "Phone": "(434) 665-1360", "Score": 100, "Link": "-", "X": 11296439.351437, "Y": 3675037.716936, "Match_addr": "915 MAIN ST", "ARC_Single_Line_Input": "915 Main St", "Side": "", "Description": "Custom gifts, apparel, florist"}},
{"geometry": {"type": "Point", "coordinates": [-79.1422342, 37.4144661]}, "type": "Feature", "properties": {"Status": "M", "Match_type": "A", "Name": "L. Oppleman", "ObjectID": 23, "Addr_type": "StreetAddress", "Address": "909 Main St", "Ref_ID": 17891, "Hours": "M-F 9:30a-5:30p, Sa 9:30-5p", "Phone": "(434) 845-5751", "Score": 100, "Link": "http://www.loppleman.com", "X": 11296398.703589, "Y": 3675095.05641, "Match_addr": "909 MAIN ST", "ARC_Single_Line_Input": "909 Main St", "Side": "", "Description": "Oldest pawn shop in USA"}},
{"geometry": {"type": "Point", "coordinates": [-79.1418827, 37.4146791]}, "type": "Feature", "properties": {"Status": "M", "Match_type": "A", "Name": "Fashion Plus ", "ObjectID": 24, "Addr_type": "StreetAddress", "Address": "906 Main St", "Ref_ID": 18375, "Hours": "M-Th 9a-6p, F-Sa 9a-7p", "Phone": "(434) 846-3427", "Score": 100, "Link": "-", "X": 11296501.310682, "Y": 3675171.928495, "Match_addr": "906 MAIN ST", "ARC_Single_Line_Input": "906 Main St", "Side": "", "Description": "Wigs"}},
{"geometry": {"type": "Point", "coordinates": [-79.142697, 37.4147532]}, "type": "Feature", "properties": {"Status": "M", "Match_type": "A", "Name": "Bowen Jewelry", "ObjectID": 25, "Addr_type": "StreetAddress", "Address": "829 Main St", "Ref_ID": 31106, "Hours": "M-F 10a-5p, Sa 10a-4p", "Phone": "(434) 845-3495", "Score": 100, "Link": "http://www.bowenjewelry.com", "X": 11296265.026465, "Y": 3675200.516499, "Match_addr": "829 MAIN ST", "ARC_Single_Line_Input": "829 Main St", "Side": "", "Description": "Hand crafted & Estate jewelry"}},
{"geometry": {"type": "Point", "coordinates": [-79.1427233, 37.4150247]}, "type": "Feature", "properties": {"Status": "M", "Match_type": "A", "Name": "Baby B's Baby Boutique", "ObjectID": 26, "Addr_type": "StreetAddress", "Address": "821 Main St", "Ref_ID": 18399, "Hours": "M-Sa 10a-3p", "Phone": "(434) 845-7494", "Score": 100, "Link": "-", "X": 11296258.050771, "Y": 3675299.425908, "Match_addr": "821 MAIN ST", "ARC_Single_Line_Input": "821 Main St", "Side": "", "Description": "Baby clothes & toys"}},
{"geometry": {"type": "Point", "coordinates": [-79.1442332, 37.417346]}, "type": "Feature", "properties": {"Status": "M", "Match_type": "A", "Name": "Ann White Academy Gallery", "ObjectID": 27, "Addr_type": "StreetAddress", "Address": "600 Main St", "Ref_ID": 18465, "Hours": "M-F 9a-5p", "Phone": "(434) 528-3256", "Score": 100, "Link": "http://www.academyfinearts.com", "X": 11295825.31552, "Y": 3676147.578272, "Match_addr": "600 MAIN ST", "ARC_Single_Line_Input": "600 Main St", "Side": "", "Description": "Art gallery and handcrafted gifts"}},
{"geometry": {"type": "Point", "coordinates": [-79.1422343, 37.4166017]}, "type": "Feature", "properties": {"Status": "M", "Match_type": "A", "Name": "Buzzards Roost", "ObjectID": 28, "Addr_type": "StreetAddress", "Address": "718 Commerce St", "Ref_ID": 18412, "Hours": "M-Th 1-5p, F 1-7p, Sa 10a-5p, Su 12p-5p", "Phone": "(434) 847-4368", "Score": 100, "Link": "http://www.lynchburgbuzzardsroost.com", "X": 11296403.958545, "Y": 3675872.636498, "Match_addr": "718 COMMERCE ST", "ARC_Single_Line_Input": "718 Commerce St", "Side": "", "Description": "Antiques & more"}},
{"geometry": {"type": "Point", "coordinates": [-79.1396389, 37.4136963]}, "type": "Feature", "properties": {"Status": "M", "Match_type": "A", "Name": "Shay's Unique Gifts", "ObjectID": 29, "Addr_type": "StreetAddress", "Address": "1102 Commerce St", "Ref_ID": 17936, "Hours": "W 11a-6p, Th-Sa 10a-4p", "Phone": "(434) 845-6340", "Score": 100, "Link": "http://www.shaysuniquegifts.com", "X": 11297150.514641, "Y": 3674809.660102, "Match_addr": "1102 COMMERCE ST", "ARC_Single_Line_Input": "1102 Commerce St", "Side": "", "Description": "gifts"}},
{"geometry": {"type": "Point", "coordinates": [-79.1421442, 37.4128604]}, "type": "Feature", "properties": {"Status": "M", "Match_type": "A", "Name": "Melinda's ", "ObjectID": 30, "Addr_type": "StreetAddress", "Address": "1019 Church St", "Ref_ID": 17859, "Hours": "M-F 9a-5p, Sa 10a-2p", "Phone": "(434) 528-1329", "Score": 100, "Link": "http://www.melindasframe.com", "X": 11296420.852336, "Y": 3674510.262364, "Match_addr": "1019 CHURCH ST", "ARC_Single_Line_Input": "1019 Church St", "Side": "", "Description": "Custom framing, paintings"}},
{"geometry": {"type": "Point", "coordinates": [-79.141852, 37.4125353]}, "type": "Feature", "properties": {"Status": "U", "Match_type": "A", "Name": "Live Trendy or Die ", "ObjectID": 31, "Addr_type": "", "Address": "1101 B Church St", "Ref_ID": -1, "Hours": "M-F 11am-6:30p; Sa 10:30a-5:30p", "Phone": "-", "Score": 0, "Link": "http://www.livetrendyordie.com", "X": 0, "Y": 0, "Match_addr": "", "ARC_Single_Line_Input": "1101 B Church St", "Side": "", "Description": "Women\u2019s Clothing"}},
{"geometry": {"type": "Point", "coordinates": [-79.1445861, 37.4162576]}, "type": "Feature", "properties": {"Status": "M", "Match_type": "A", "Name": "Church Street Bridal", "ObjectID": 32, "Addr_type": "StreetAddress", "Address": "626 Church St", "Ref_ID": 18457, "Hours": "Tu-F 3p-6p, Sa 12p-5p", "Phone": "(434) 847-7751", "Score": 100, "Link": "http://www.churchstreetbridal.com", "X": 11295720.117645, "Y": 3675752.003356, "Match_addr": "626 CHURCH ST", "ARC_Single_Line_Input": "626 Church St", "Side": "", "Description": "Designer gowns at affordable prices"}},
{"geometry": {"type": "Point", "coordinates": [-79.1425191, 37.4107378]}, "type": "Feature", "properties": {"Status": "M", "Match_type": "A", "Name": "Art Box", "ObjectID": 33, "Addr_type": "StreetAddress", "Address": "422 12th St", "Ref_ID": 17582, "Hours": "M-F 11a-6p, Sa 11a-4p", "Phone": "(434) 401-1620", "Score": 100, "Link": "http://www.artboxvirginia.com", "X": 11296281.630686, "Y": 3673774.249541, "Match_addr": "422 12TH ST", "ARC_Single_Line_Input": "422 12th St", "Side": "", "Description": "Art supplies"}},
{"geometry": {"type": "Point", "coordinates": [-79.1426064, 37.4108364]}, "type": "Feature", "properties": {"Status": "M", "Match_type": "A", "Name": "Art on 12th", "ObjectID": 34, "Addr_type": "StreetAddress", "Address": "422 12th St", "Ref_ID": 17582, "Hours": "By appointment or chance", "Phone": "(434) 401-1620", "Score": 100, "Link": "http://www.artoninitiative.com", "X": 11296281.630686, "Y": 3673774.249541, "Match_addr": "422 12TH ST", "ARC_Single_Line_Input": "422 12th St", "Side": "", "Description": "Art studios"}},
{"geometry": {"type": "Point", "coordinates": [-79.1393241, 37.4124612]}, "type": "Feature", "properties": {"Status": "M", "Match_type": "A", "Name": "Estates & Consignments", "ObjectID": 35, "Addr_type": "StreetAddress", "Address": "139 12th St", "Ref_ID": 126010, "Hours": "M-F 10a-5p, Sa 8:30a-4:30p, Su 12-3p", "Phone": "(434) 528-3667", "Score": 100, "Link": "http://www.estatesrevisited.com", "X": 11297238.908799, "Y": 3674359.342498, "Match_addr": "139 12TH ST", "ARC_Single_Line_Input": "139 12th St", "Side": "", "Description": "antiques & consignments"}},
{"geometry": {"type": "Point", "coordinates": [-79.1389827, 37.4119455]}, "type": "Feature", "properties": {"Status": "M", "Match_type": "A", "Name": "Beeswax Candle Company", "ObjectID": 36, "Addr_type": "StreetAddress", "Address": "109 13th St", "Ref_ID": 17869, "Hours": "M-F 10a-3p, Sa 10a-5p", "Phone": "(434) 528-9885", "Score": 100, "Link": "http://www.beeswaxcandleco.com", "X": 11297336.78403, "Y": 3674170.914013, "Match_addr": "109 13TH ST", "ARC_Single_Line_Input": "109 13th St", "Side": "", "Description": "Artisan gifts & beeswax candles"}},
{"geometry": {"type": "Point", "coordinates": [-79.1486767, 37.4160512]}, "type": "Feature", "properties": {"Status": "M", "Match_type": "A", "Name": "Speakertree Records ", "ObjectID": 37, "Addr_type": "StreetAddress", "Address": "522 5th St", "Ref_ID": 115563, "Hours": "M-Tu & F 1-7p, Sa 11a-5p", "Phone": "(434) 485-8262", "Score": 100, "Link": "-", "X": 11294531.657481, "Y": 3675684.965298, "Match_addr": "522 5TH ST", "ARC_Single_Line_Input": "522 5th St", "Side": "", "Description": "Used Records"}},
{"geometry": {"type": "Point", "coordinates": [-79.1368188, 37.4119768]}, "type": "Feature", "properties": {"Status": "M", "Match_type": "A", "Name": "Bikes Unlimited ", "ObjectID": 38, "Addr_type": "StreetAddress", "Address": "1312 Jefferson St", "Ref_ID": 17882, "Hours": "M-F 10a-7p, Sat. 10-5", "Phone": "(434) 385-4157", "Score": 100, "Link": "http://www.bikesunlimited.com", "X": 11297965.318449, "Y": 3674178.065184, "Match_addr": "1312 JEFFERSON ST", "ARC_Single_Line_Input": "1312 Jefferson St", "Side": "", "Description": "Bicycle Sales and Rentals"}},
{"geometry": {"type": "Point", "coordinates": [-79.1403942, 37.4156118]}, "type": "Feature", "properties": {"Status": "T", "Match_type": "A", "Name": "Craddock-Terry Gallery ", "ObjectID": 39, "Addr_type": "StreetAddress", "Address": "901 Jefferson St", "Ref_ID": 33247, "Hours": "W-Sun 12p-5p", "Phone": "(434) 847-7277", "Score": 100, "Link": "http://www.riverviews.net", "X": 11296871.10522, "Y": 3675536.286595, "Match_addr": "901 JEFFERSON ST", "ARC_Single_Line_Input": "901 Jefferson St", "Side": "", "Description": "Contemporary Art Gallery"}},
{"geometry": {"type": "Point", "coordinates": [-79.1403592, 37.4155635]}, "type": "Feature", "properties": {"Status": "T", "Match_type": "A", "Name": "Riverviews Artists Co-Op", "ObjectID": 40, "Addr_type": "StreetAddress", "Address": "901 Jefferson St", "Ref_ID": 33247, "Hours": "W-F 12p-5p, Sat 12p-4p", "Phone": "(434) 847-7277", "Score": 100, "Link": "http://www.riverviews.net", "X": 11296871.10522, "Y": 3675536.286595, "Match_addr": "901 JEFFERSON ST", "ARC_Single_Line_Input": "901 Jefferson St", "Side": "", "Description": "Local artists gallery"}},
{"geometry": {"type": "Point", "coordinates": [-79.140307, 37.4154914]}, "type": "Feature", "properties": {"Status": "T", "Match_type": "A", "Name": "Good Karma Tea Co.", "ObjectID": 41, "Addr_type": "StreetAddress", "Address": "901 Jefferson St", "Ref_ID": 33247, "Hours": "F 12-4p, Sa 1-5p", "Phone": "(434) 515-2058", "Score": 100, "Link": "http://www.sipgoodkarma.com", "X": 11296871.10522, "Y": 3675536.286595, "Match_addr": "901 JEFFERSON ST", "ARC_Single_Line_Input": "901 Jefferson St", "Side": "", "Description": "Specialty teas made on site"}},
{"geometry": {"type": "Point", "coordinates": [-79.1703041, 37.4350921]}, "type": "Feature", "properties": {"Status": null, "Match_type": null, "Name": "Riverside Runners", "ObjectID": 42, "Addr_type": null, "Address": "2480 Rivermont Ave", "Ref_ID": null, "Hours": "M-W 10a-7p, Th 10a-8p, F 10a-7p, Sa 10a-6p", "Phone": "(434) 846-7449", "Score": null, "Link": "http://www.riversiderunners.com", "X": null, "Y": null, "Match_addr": null, "ARC_Single_Line_Input": "", "Side": null, "Description": "Specialty running and walking store "}},
{"geometry": {"type": "Point", "coordinates": [-79.1710565, 37.4352217]}, "type": "Feature", "properties": {"Status": null, "Match_type": null, "Name": "Ned's Beer Shop", "ObjectID": 43, "Addr_type": null, "Address": "2496 Rivermont Ave", "Ref_ID": null, "Hours": "M 5p-12a, T-Su 12p-12a", "Phone": "(434) 846-6337", "Score": null, "Link": "http://www.nedsbeershop.com/", "X": null, "Y": null, "Match_addr": null, "ARC_Single_Line_Input": "", "Side": null, "Description": "Beer shop"}},
{"geometry": {"type": "Point", "coordinates": [-79.1709086, 37.4350959]}, "type": "Feature", "properties": {"Status": null, "Match_type": null, "Name": "Fur Kidz", "ObjectID": 44, "Addr_type": null, "Address": "2488 Rivermont Ave", "Ref_ID": null, "Hours": "W-F 10a-5p, Sa 10a-3p", "Phone": "(434) 846-3877", "Score": null, "Link": "http://www.furkidz.biz", "X": null, "Y": null, "Match_addr": null, "ARC_Single_Line_Input": "", "Side": null, "Description": "Pet Boutique"}},
{"geometry": {"type": "Point", "coordinates": [-79.1402351, 37.4115165]}, "type": "Feature", "properties": {"Status": null, "Match_type": null, "Name": "Spearman Artisanry", "ObjectID": 45, "Addr_type": null, "Address": "1219 Main St", "Ref_ID": null, "Hours": "T-Sa 9a-2p", "Phone": "(434) 401-1127", "Score": null, "Link": "http://lynchburgcommunitymarket.com/vendors/spearman-artisanry/", "X": null, "Y": null, "Match_addr": null, "ARC_Single_Line_Input": "", "Side": null, "Description": "Jewelry"}}
]}