{"type":"FeatureCollection","features":[
{"geometry": {"type": "Point", "coordinates": [-79.1403515, 37.4116188]}, "type": "Feature", "properties": {"Status": "M", "Match_type": "A", "Name": "Barb's Dream Hut", "ObjectID": 1, "Addr_type": "StreetAddress", "Address": "1219 Main St", "Ref_ID": 17863, "Hours": "Tu-Sa 7a-2p", "Phone": "(434) 845-6700", "Score": 100, "Link": "-", "X": 11296928.678218, "Y": 3674071.155912, "Match_addr": "1219 MAIN ST", "ARC_Single_Line_Input": "1219 Main St", "Side": "", "Description": "Breakfast & lunch plates"}},
{"geometry": {"type": "Point", "coordinates": [-79.1403108, 37.4115732]}, "type": "Feature", "properties": {"Status": "M", "Match_type": "A", "Name": "Irene's Country Cooking", "ObjectID": 2, "Addr_type": "StreetAddress", "Address": "1219 Main St", "Ref_ID": 17863, "Hours": "Tu-Sa 7a-2p", "Phone": "(434) 847-0660", "Score": 100, "Link": "-", "X": 11296928.678218, "Y": 3674071.155912, "Match_addr": "1219 MAIN ST", "ARC_Single_Line_Input": "1219 Main St", "Side": "", "Description": "Home-style Southern food"}},
{"geometry": {"type": "Point", "coordinates": [-79.1403915, 37.4116651]}, "type": "Feature", "properties": {"Status": "M", "Match_type": "A", "Name": "Philippine Delight", "ObjectID": 3, "Addr_type": "StreetAddress", "Address": "1219 Main St", "Ref_ID": 17863, "Hours": "Tu-Sa 7a-2p", "Phone": "(434) 238-2585", "Score": 100, "Link": "-", "X": 11296928.678218, "Y": 3674071.155912, "Match_addr": "1219 MAIN ST", "ARC_Single_Line_Input": "1219 Main St", "Side": "", "Description": "Kabobs, egg rolls, veggie dishes"}},
{"geometry": {"type": "Point", "coordinates": [-79.1402693, 37.4115293]}, "type": "Feature", "properties": {"Status": "M", "Match_type": "A", "Name": "Pride of Virginia", "ObjectID": 4, "Addr_type": "StreetAddress", "Address": "1219 Main St", "Ref_ID": 17863, "Hours": "Tu-Sa 7a-2p", "Phone": "(434) 847-5566", "Score": 100, "Link": "http://prideofva.com/homestead-meats/ ", "X": 11296928.678218, "Y": 3674071.155912, "Match_addr": "1219 MAIN ST", "ARC_Single_Line_Input": "1219 Main St", "Side": "", "Description": "Salads & soups"}},
{"geometry": {"type": "Point", "coordinates": [-79.1404428, 37.4117191]}, "type": "Feature", "properties": {"Status": "M", "Match_type": "A", "Name": "Lorraine's Bakery", "ObjectID": 5, "Addr_type": "StreetAddress", "Address": "1219 Main St", "Ref_ID": 17863, "Hours": "Tu, Th, & F 9a-3p, W 10a-3p, Sa 7:30a-3p", "Phone": "(434) 942-6266", "Score": 100, "Link": "https://www.facebook.com/Lorraine-Bakery-116338628393845/ ", "X": 11296928.678218, "Y": 3674071.155912, "Match_addr": "1219 MAIN ST", "ARC_Single_Line_Input": "1219 Main St", "Side": "", "Description": "Fresh bread, rolls"}},
{"geometry": {"type": "Point", "coordinates": [-79.1402181, 37.4114825]}, "type": "Feature", "properties": {"Status": "M", "Match_type": "A", "Name": "Grains of Sense", "ObjectID": 6, "Addr_type": "StreetAddress", "Address": "1219 Main St", "Ref_ID": 17863, "Hours": "Tu-Sa 8:30a-1p", "Phone": "(434) 433-6853", "Score": 100, "Link": "http://www.grainsofsense.com/ ", "X": 11296928.678218, "Y": 3674071.155912, "Match_addr": "1219 MAIN ST", "ARC_Single_Line_Input": "1219 Main St", "Side": "", "Description": "Coffee & tea, light snacks      "}},
{"geometry": {"type": "Point", "coordinates": [-79.1428224, 37.415134]}, "type": "Feature", "properties": {"Status": "U", "Match_type": "A", "Name": "Al Ryan ", "ObjectID": 7, "Addr_type": "", "Address": "817 1/2 Main St", "Ref_ID": -1, "Hours": "Mon-Sat 11a-8:30p", "Phone": "(434) 907-9528", "Score": 0, "Link": "http://www.alryanmediterranean.com/ ", "X": 0, "Y": 0, "Match_addr": "", "ARC_Single_Line_Input": "817 1/2 Main St", "Side": "", "Description": "Mediterranean Cuisine"}},
{"geometry": {"type": "Point", "coordinates": [-79.1401281, 37.4127075]}, "type": "Feature", "properties": {"Status": "M", "Match_type": "A", "Name": "Dish ", "ObjectID": 8, "Addr_type": "StreetAddress", "Address": "1120 Main St", "Ref_ID": 17855, "Hours": "Mon-Sat 5p-until", "Phone": "(434) 528-0070", "Score": 100, "Link": "http://www.dishsmallplates.com/ ", "X": 11297006.017351, "Y": 3674450.588985, "Match_addr": "1120 MAIN ST", "ARC_Single_Line_Input": "1120 Main St", "Side": "", "Description": "Small plates & wine bar"}},
{"geometry": {"type": "Point", "coordinates": [-79.1422791, 37.4145359]}, "type": "Feature", "properties": {"Status": "M", "Match_type": "A", "Name": "Main Street Eatery ", "ObjectID": 9, "Addr_type": "StreetAddress", "Address": "907 Main St", "Ref_ID": 18367, "Hours": "M-Sa 4:30pm to close", "Phone": "(434) 847-2526", "Score": 100, "Link": "http://mainsteatery.com/ ", "X": 11296385.846426, "Y": 3675120.555892, "Match_addr": "907 MAIN ST", "ARC_Single_Line_Input": "907 Main St", "Side": "", "Description": "Fine dining & catering"}},
{"geometry": {"type": "Point", "coordinates": [-79.1420929, 37.4143094]}, "type": "Feature", "properties": {"Status": "M", "Match_type": "A", "Name": "Georgia's Deli & Subs", "ObjectID": 10, "Addr_type": "StreetAddress", "Address": "915 Main St", "Ref_ID": 17889, "Hours": "M-W 7a-7p, Th 7a-9p, F 7a-11p, Sa10a-11p, Su 11a-9p", "Phone": "(434) 846-3227", "Score": 100, "Link": "https://www.facebook.com/eljefetaqueriagaraje/", "X": 11296439.351437, "Y": 3675037.716936, "Match_addr": "915 MAIN ST", "ARC_Single_Line_Input": "915 Main St", "Side": "", "Description": "Breakfast & lunch"}},
{"geometry": {"type": "Point", "coordinates": [-79.1401532, 37.412746]}, "type": "Feature", "properties": {"Status": "M", "Match_type": "A", "Name": "Kegney Brothers ", "ObjectID": 11, "Addr_type": "StreetAddress", "Address": "1118 Main St", "Ref_ID": 100752, "Hours": "Su-Sa 11a-2a", "Phone": "(434) 616-6691", "Score": 100, "Link": "http://kegneybrothers.com/ ", "X": 11296998.814138, "Y": 3674464.67515, "Match_addr": "1118 MAIN ST", "ARC_Single_Line_Input": "1118 Main St", "Side": "", "Description": "Irish pub and more"}},
{"geometry": {"type": "Point", "coordinates": [-79.1419363, 37.4147337]}, "type": "Feature", "properties": {"Status": "M", "Match_type": "A", "Name": "Market at Main", "ObjectID": 12, "Addr_type": "StreetAddress", "Address": "904 Main St", "Ref_ID": 18374, "Hours": "M-Tu 7a-3p, W-Sa 7a-9p, Su 8a-9p", "Phone": "(434) 847-9040", "Score": 100, "Link": "http://www.marketatmain.com/ ", "X": 11296485.879419, "Y": 3675191.896796, "Match_addr": "904 MAIN ST", "ARC_Single_Line_Input": "904 Main St", "Side": "", "Description": "Breakfast, lunch, & dinner"}},
{"geometry": {"type": "Point", "coordinates": [-79.1418444, 37.4146408]}, "type": "Feature", "properties": {"Status": "M", "Match_type": "A", "Name": "ALTUS Chocolate ", "ObjectID": 13, "Addr_type": "StreetAddress", "Address": "908 Main St", "Ref_ID": 18376, "Hours": "M-Th 11a-8p F-Sat 11a-10p, Sun 12:30p-3:30p", "Phone": "(434) 847-2970", "Score": 100, "Link": "http://www.caoartisanchocolates.com/ ", "X": 11296512.340353, "Y": 3675157.911053, "Match_addr": "908 MAIN ST", "ARC_Single_Line_Input": "908 Main St", "Side": "", "Description": "Chocolate, pastries, coffee/tea"}},
{"geometry": {"type": "Point", "coordinates": [-79.1380984, 37.4105296]}, "type": "Feature", "properties": {"Status": "M", "Match_type": "A", "Name": "Robin Alexander Bistro ", "ObjectID": 14, "Addr_type": "StreetAddress", "Address": "1344 Main St", "Ref_ID": 18096, "Hours": "M-Th 11a-11p, F-Sa 11a-12a, Sun 11a-9p", "Phone": "(434) 845-1601", "Score": 100, "Link": "http://www.rabistro.com/ ", "X": 11297590.132176, "Y": 3673653.652429, "Match_addr": "1344 MAIN ST", "ARC_Single_Line_Input": "1344 Main St", "Side": "", "Description": "Pasta, salad, & sandwiches"}},
{"geometry": {"type": "Point", "coordinates": [-79.1446957, 37.4167664]}, "type": "Feature", "properties": {"Status": "M", "Match_type": "A", "Name": "601 MAIN ", "ObjectID": 15, "Addr_type": "StreetAddress", "Address": "601 Main St", "Ref_ID": 18411, "Hours": "M-F 6:30a-10:30a, M-Th 5p-11:00p, F-Sa 5p-12a,  Sa-Su 7a-10:30a,  Su 5p-10p ", "Phone": "(434) 455-4710", "Score": 100, "Link": "-", "X": 11295689.552694, "Y": 3675937.468088, "Match_addr": "601 MAIN ST", "ARC_Single_Line_Input": "601 Main St", "Side": "", "Description": "Breakfast & dinner"}},
{"geometry": {"type": "Point", "coordinates": [-79.145121, 37.4184138]}, "type": "Feature", "properties": {"Status": "M", "Match_type": "A", "Name": "Texas Inn ", "ObjectID": 16, "Addr_type": "StreetAddress", "Address": "422 Main St", "Ref_ID": 18464, "Hours": "M-Sa open 24 Hours, Closed Sunday", "Phone": "(434) 846-3823", "Score": 100, "Link": "-", "X": 11295570.139882, "Y": 3676538.125083, "Match_addr": "422 MAIN ST", "ARC_Single_Line_Input": "422 Main St", "Side": "", "Description": "Burgers & dogs"}},
{"geometry": {"type": "Point", "coordinates": [-79.1397368, 37.4122508]}, "type": "Feature", "properties": {"Status": "M", "Match_type": "A", "Name": "White Hart Caf\u00e9", "ObjectID": 17, "Addr_type": "StreetAddress", "Address": "1208 Main St", "Ref_ID": 4952, "Hours": "M-Sat 7a-10p, Sun 10:30a-4p", "Phone": "(434) 207-5600", "Score": 100, "Link": "http://www.thewhitehartcoffee.com/ ", "X": 11297118.515853, "Y": 3674283.543956, "Match_addr": "1208 MAIN ST", "ARC_Single_Line_Input": "1208 Main St", "Side": "", "Description": "Coffee, sandwiches"}},
{"geometry": {"type": "Point", "coordinates": [-79.1418019, 37.4145906]}, "type": "Feature", "properties": {"Status": "M", "Match_type": "A", "Name": "Domino's Pizza ", "ObjectID": 18, "Addr_type": "StreetAddress", "Address": "910 Main St", "Ref_ID": 18371, "Hours": "Su-Th 10a-12a, F-Sa 10p-1a", "Phone": "(434) 845-6000", "Score": 100, "Link": "https://pizza.dominos.com/ ", "X": 11296524.567, "Y": 3675139.544727, "Match_addr": "910 MAIN ST", "ARC_Single_Line_Input": "910 Main St", "Side": "", "Description": "Pizza"}},
{"geometry": {"type": "Point", "coordinates": [-79.1386995, 37.4126243]}, "type": "Feature", "properties": {"Status": "M", "Match_type": "A", "Name": "El Jefe Taqueria Garaje", "ObjectID": 19, "Addr_type": "StreetAddress", "Address": "1214 Commerce St", "Ref_ID": 141616, "Hours": "M-W, Su 11am-10pm; Th-Sa 11am-1am", "Phone": "(434) 333-4317", "Score": 100, "Link": "-", "X": 11297420.708539, "Y": 3674417.493968, "Match_addr": "1214 COMMERCE ST", "ARC_Single_Line_Input": "1214 Commerce St", "Side": "", "Description": "Gourmet Mexican fare"}},
{"geometry": {"type": "Point", "coordinates": [-79.1431706, 37.4176249]}, "type": "Feature", "properties": {"Status": "M", "Match_type": "A", "Name": "Jimmy's on the James ", "ObjectID": 20, "Addr_type": "StreetAddress", "Address": "610 Commerce St", "Ref_ID": 27418, "Hours": "Tu-Sa 5p-until", "Phone": "(434) 845-1116", "Score": 100, "Link": "http://www.jimmysonthejames.com/ ", "X": 11296134.607335, "Y": 3676247.001433, "Match_addr": "610 COMMERCE ST", "ARC_Single_Line_Input": "610 Commerce St", "Side": "", "Description": "Part bistro/supper club, dinner"}},
{"geometry": {"type": "Point", "coordinates": [-79.1389778, 37.41244]}, "type": "Feature", "properties": {"Status": "M", "Match_type": "A", "Name": "Ploughcroft Tea Room ", "ObjectID": 21, "Addr_type": "StreetAddress", "Address": "1215 Commerce St", "Ref_ID": 79130, "Hours": "M-Sa 11a-2p, Tea 2:15p-5p", "Phone": "(434) 832-7467", "Score": 100, "Link": "http://ploughcrofttearoom.com/ ", "X": 11297339.424852, "Y": 3674350.959655, "Match_addr": "1215 COMMERCE ST", "ARC_Single_Line_Input": "1215 Commerce St", "Side": "", "Description": "Authentic English tea room, lunch"}},
{"geometry": {"type": "Point", "coordinates": [-79.1376093, 37.4113711]}, "type": "Feature", "properties": {"Status": "M", "Match_type": "A", "Name": "Shoemakers Grille ", "ObjectID": 22, "Addr_type": "StreetAddress", "Address": "1312 Commerce St", "Ref_ID": 27296, "Hours": "M-Sa 4:30p-10p", "Phone": "(434) 455-1510", "Score": 100, "Link": "http://www.shoemakersdining.com/ ", "X": 11297734.248488, "Y": 3673959.090431, "Match_addr": "1312 COMMERCE ST", "ARC_Single_Line_Input": "1312 Commerce St", "Side": "", "Description": "Fine dining"}},
{"geometry": {"type": "Point", "coordinates": [-79.137131, 37.4118856]}, "type": "Feature", "properties": {"Status": "M", "Match_type": "A", "Name": "The Waterstone ", "ObjectID": 23, "Addr_type": "StreetAddress", "Address": "1309 Jefferson St", "Ref_ID": 27131, "Hours": "Su-Th 11a-10p, F-Sa 11a-11p", "Phone": "(434) 455-1515", "Score": 100, "Link": "http://www.waterstonepizza.com/ ", "X": 11297874.42892, "Y": 3674145.477916, "Match_addr": "1309 JEFFERSON ST", "ARC_Single_Line_Input": "1309 Jefferson St", "Side": "", "Description": "Micro-brewery, salads & pizza"}},
{"geometry": {"type": "Point", "coordinates": [-79.1417814, 37.4124398]}, "type": "Feature", "properties": {"Status": "M", "Match_type": "A", "Name": "It's A Wrap ", "ObjectID": 24, "Addr_type": "StreetAddress", "Address": "1103 Church St", "Ref_ID": 17849, "Hours": "Tu-Sa 10:30a-5:30p", "Phone": "(434) 847-1166", "Score": 100, "Link": "-", "X": 11296525.180167, "Y": 3674356.392757, "Match_addr": "1103 CHURCH ST", "ARC_Single_Line_Input": "1103 Church St", "Side": "", "Description": "Caribbean take out"}},
{"geometry": {"type": "Point", "coordinates": [-79.1442166, 37.4151799]}, "type": "Feature", "properties": {"Status": "M", "Match_type": "A", "Name": "Crisp ", "ObjectID": 25, "Addr_type": "StreetAddress", "Address": "725 Church St", "Ref_ID": 18453, "Hours": "M-Sa 7a-3p", "Phone": "(434) 363-6152", "Score": 100, "Link": "https://www.facebook.com/crisp434 ", "X": 11295824.747723, "Y": 3675358.858424, "Match_addr": "725 CHURCH ST", "ARC_Single_Line_Input": "725 Church St", "Side": "", "Description": "Salads, wraps, soups, smoothies"}},
{"geometry": {"type": "Point", "coordinates": [-79.1427183, 37.4147792]}, "type": "Feature", "properties": {"Status": "M", "Match_type": "A", "Name": "Hot & Cold Caf\u00e9", "ObjectID": 26, "Addr_type": "StreetAddress", "Address": "205 9th St", "Ref_ID": 31107, "Hours": "M-F 10a-7p, Sa 11a-6p", "Phone": "(434) 846-4976", "Score": 100, "Link": "http://www.hotcoldcafe.com/ ", "X": 11296258.904801, "Y": 3675210.006913, "Match_addr": "205 9TH ST", "ARC_Single_Line_Input": "205 9th St", "Side": "", "Description": "Indian & Mediterranean cuisine"}},
{"geometry": {"type": "Point", "coordinates": [-79.1393468, 37.415608]}, "type": "Feature", "properties": {"Status": "M", "Match_type": "A", "Name": "The Depot Grille ", "ObjectID": 27, "Addr_type": "StreetAddress", "Address": "10 9th St", "Ref_ID": 26055, "Hours": "M-Th 11a-10p, F-Sa 11a-11p, Su 11a-9p", "Phone": "(434) 846-4464", "Score": 100, "Link": "http://depotgrille.com/ ", "X": 11297240.060406, "Y": 3675505.122489, "Match_addr": "10 9TH ST", "ARC_Single_Line_Input": "10 9th St", "Side": "", "Description": "American cuisine"}},
{"geometry": {"type": "Point", "coordinates": [-79.14169, 37.4150212]}, "type": "Feature", "properties": {"Status": "U", "Match_type": "A", "Name": "Boiler Room Lounge ", "ObjectID": 28, "Addr_type": "", "Address": "904 9th St", "Ref_ID": -1, "Hours": "Tu-Sat 5p-10p", "Phone": "(434) 455-0016", "Score": 0, "Link": "http://www.theboilerroomdowntown.com/ ", "X": 0, "Y": 0, "Match_addr": "", "ARC_Single_Line_Input": "904 9th St", "Side": "", "Description": "Gourmet burgers & fine entrees"}},
{"geometry": {"type": "Point", "coordinates": [-79.140618, 37.4156867]}, "type": "Feature", "properties": {"Status": null, "Match_type": null, "Name": "Simply Irresistible Bakery", "ObjectID": 29, "Addr_type": null, "Address": "901 Jefferson St", "Ref_ID": null, "Hours": "M-Th 8:30a-7:30p, F 8:30a-8:30p, Sa 10a-8:30p, Su 11a-4p", "Phone": "(434) 851-1484", "Score": null, "Link": "https://www.facebook.com/simplyirresistiblebyloretta ", "X": null, "Y": null, "Match_addr": null, "ARC_Single_Line_Input": "", "Side": null, "Description": "Baked Goods"}},
{"geometry": {"type": "Point", "coordinates": [-79.1701202, 37.4351142]}, "type": "Feature", "properties": {"Status": null, "Match_type": null, "Name": "Magnolia Foods", "ObjectID": 30, "Addr_type": null, "Address": "2476 Rivermont Ave", "Ref_ID": null, "Hours": "M-Th 9a-7p, F 9a-9p, Sa 10a-9p, Su 11a-4p", "Phone": "(434) 528-5442", "Score": null, "Link": "http://magnoliafoods.com/", "X": null, "Y": null, "Match_addr": null, "ARC_Single_Line_Input": "", "Side": null, "Description": "Gourmet deli, bakery, boutique wine and craft beer"}},
{"geometry": {"type": "Point", "coordinates": [-79.1711216, 37.4351369]}, "type": "Feature", "properties": {"Status": null, "Match_type": null, "Name": "The Corner at Rivermont", "ObjectID": 31, "Addr_type": null, "Address": "2496 Rivermont Ave", "Ref_ID": null, "Hours": "M 11:30a-10p, W-Th 11:30a-10p, F 11:30a-11p, Sa 11a-11p, Su 11a-10p", "Phone": "(434) 219-6035", "Score": null, "Link": "http://www.thecorneratrivermont.com/", "X": null, "Y": null, "Match_addr": null, "ARC_Single_Line_Input": "", "Side": null, "Description": "Farm-to-table low country, creole and classic southern dishes"}},
{"geometry": {"type": "Point", "coordinates": [-79.1710576, 37.4352214]}, "type": "Feature", "properties": {"Status": null, "Match_type": null, "Name": "Rivermont Pizza", "ObjectID": 32, "Addr_type": null, "Address": "2496 Rivermont Ave", "Ref_ID": null, "Hours": "M 5p-2a, Tu-Sa 11:30a-2a, 12p-2a", "Phone": "(434) 846-2877", "Score": null, "Link": "https://www.facebook.com/rivermontpizza/", "X": null, "Y": null, "Match_addr": null, "ARC_Single_Line_Input": "", "Side": null, "Description": "Pizza"}},
{"geometry": {"type": "Point", "coordinates": [-79.1763741, 37.4376939]}, "type": "Feature", "properties": {"Status": null, "Match_type": null, "Name": "The Cavalier Store", "ObjectID": 33, "Addr_type": null, "Address": "2920 Rivermont Ave", "Ref_ID": null, "Hours": "M-Sa 10a-12a, Su 10a-10p", "Phone": "(434) 845-3837", "Score": null, "Link": "https://www.facebook.com/pages/The-Cavalier-Store/115899258431456", "X": null, "Y": null, "Match_addr": null, "ARC_Single_Line_Input": "", "Side": null, "Description": "Burgers and sandwiches"}},
{"geometry": {"type": "Point", "coordinates": [-79.1423303, 37.4151174]}, "type": "Feature", "properties": {"Status": null, "Match_type": null, "Name": "Caf\u00e9 Bliss", "ObjectID": 34, "Addr_type": null, "Address": "828 Main St", "Ref_ID": null, "Hours": "M-F 7a-6:30p, Sa 8a-2p", "Phone": "(434) 384-1779", "Score": null, "Link": "https://www.facebook.com/Cafe-Bliss-1553564861603718", "X": null, "Y": null, "Match_addr": null, "ARC_Single_Line_Input": "", "Side": null, "Description": "Gourmet coffee, organic drinks, and caf\u00e9"}},
{"geometry": {"type": "Point", "coordinates": [-79.1418162, 37.4142455]}, "type": "Feature", "properties": {"Status": null, "Match_type": null, "Name": "Dave's Dawgs", "ObjectID": 35, "Addr_type": null, "Address": "111 Dale Ave", "Ref_ID": null, "Hours": "-", "Phone": "(434) 528-1555", "Score": null, "Link": "https://www.facebook.com/pages/Daves-Dawgs/110805618981864", "X": null, "Y": null, "Match_addr": null, "ARC_Single_Line_Input": "", "Side": null, "Description": "Hot dogs"}}
]}