{"type":"FeatureCollection","features":[
{"geometry": {"type": "Point", "coordinates": [-79.1938893, 37.3304947]}, "type": "Feature", "properties": {"Name": "Airport Terminal", "OBJECTID": 1, "Facility": "Lynchburg Regional Airport", "Notes": null, "Locality": "Campbell County", "Parcel_ID": null, "Address": "350 TERMINAL DR", "Lucity_ID": "AP216"}},
{"geometry": {"type": "Point", "coordinates": [-79.1431555, 37.4139451]}, "type": "Feature", "properties": {"Name": "Monument Terrace Building", "OBJECTID": 2, "Facility": "Monument Terrace Building", "Notes": "Duplicate LS24", "Locality": "Lynchburg", "Parcel_ID": "02451003", "Address": "901 CHURCH ST", "Lucity_ID": "CT301"}},
{"geometry": {"type": "Point", "coordinates": [-79.1443026, 37.4133893]}, "type": "Feature", "properties": {"Name": "Public Safety Building", "OBJECTID": 3, "Facility": "Public Safety Building", "Notes": null, "Locality": "Lynchburg", "Parcel_ID": "02452001", "Address": "905 COURT ST", "Lucity_ID": "CT303"}},
{"geometry": {"type": "Point", "coordinates": [-79.1447918, 37.4140717]}, "type": "Feature", "properties": {"Name": "Police Department West Building", "OBJECTID": 4, "Facility": "Police Department West Building", "Notes": null, "Locality": "Lynchburg", "Parcel_ID": "02445003", "Address": "805 COURT ST", "Lucity_ID": "CT308"}},
{"geometry": {"type": "Point", "coordinates": [-79.1719929, 37.3639151]}, "type": "Feature", "properties": {"Name": "Emergency Services ", "OBJECTID": 5, "Facility": "Emergency Services", "Notes": null, "Locality": "Lynchburg", "Parcel_ID": "13001001", "Address": "3621 CANDLERS MOUNTAIN RD", "Lucity_ID": "CT318"}},
{"geometry": {"type": "Point", "coordinates": [-79.1676622, 37.3664477]}, "type": "Feature", "properties": {"Name": "Information Technology", "OBJECTID": 6, "Facility": "Information Technology", "Notes": null, "Locality": "Lynchburg", "Parcel_ID": "11801016", "Address": "3550 YOUNG PL", "Lucity_ID": "CT320"}},
{"geometry": {"type": "Point", "coordinates": [-79.1441213, 37.4131653]}, "type": "Feature", "properties": {"Name": "Juvenile and Domestic Court House", "OBJECTID": 7, "Facility": "Juvenile and Domestic Court House", "Notes": null, "Locality": "Lynchburg", "Parcel_ID": "02452001", "Address": "905 COURT ST", "Lucity_ID": "CT321"}},
{"geometry": {"type": "Point", "coordinates": [-79.1460174, 37.4136606]}, "type": "Feature", "properties": {"Name": "Fire Station 1", "OBJECTID": 8, "Facility": "Fire Station 1", "Notes": null, "Locality": "Lynchburg", "Parcel_ID": "02444001", "Address": "801 CLAY ST", "Lucity_ID": "FE101"}},
{"geometry": {"type": "Point", "coordinates": [-79.1461493, 37.4135939]}, "type": "Feature", "properties": {"Name": "Fire Adminstration", "OBJECTID": 9, "Facility": "Fire Administration", "Notes": null, "Locality": "Lynchburg", "Parcel_ID": "02444001", "Address": "801 CLAY ST", "Lucity_ID": "FE401"}},
{"geometry": {"type": "Point", "coordinates": [-79.1372819, 37.3940108]}, "type": "Feature", "properties": {"Name": "Juvenile Detention Center", "OBJECTID": 10, "Facility": "Juvenile Detention Center", "Notes": null, "Locality": "Lynchburg", "Parcel_ID": "10903008", "Address": "1400 FLORIDA AVE", "Lucity_ID": "HS604"}},
{"geometry": {"type": "Point", "coordinates": [-79.1414037, 37.415757]}, "type": "Feature", "properties": {"Name": "Human Services", "OBJECTID": 11, "Facility": "Human Services", "Notes": null, "Locality": "Lynchburg", "Parcel_ID": "04514012", "Address": "99 9TH ST", "Lucity_ID": "HS605A"}},
{"geometry": {"type": "Point", "coordinates": [-79.1322213, 37.4061157]}, "type": "Feature", "properties": {"Name": null, "OBJECTID": 12, "Facility": null, "Notes": null, "Locality": "Lynchburg", "Parcel_ID": "04720003", "Address": "1800 GARNET ST", "Lucity_ID": "LS01"}},
{"geometry": {"type": "Point", "coordinates": [-79.2224533, 37.400752]}, "type": "Feature", "properties": {"Name": null, "OBJECTID": 13, "Facility": null, "Notes": null, "Locality": "Lynchburg", "Parcel_ID": "22606004", "Address": "3813 OLD FOREST RD", "Lucity_ID": "LS02"}},
{"geometry": {"type": "Point", "coordinates": [-79.1571049, 37.4064489]}, "type": "Feature", "properties": {"Name": "Kemper Street Station", "OBJECTID": 14, "Facility": "Kemper Street Station", "Notes": "Duplicate LS08, LS17", "Locality": "Lynchburg", "Parcel_ID": "01055006", "Address": "825 KEMPER ST", "Lucity_ID": "MS921"}},
{"geometry": {"type": "Point", "coordinates": [-79.2208297, 37.3721379]}, "type": "Feature", "properties": {"Name": "Small Business Incubator Building", "OBJECTID": 15, "Facility": "Small Business Incubator Building", "Notes": null, "Locality": "Lynchburg", "Parcel_ID": "24308002", "Address": "147 MILL RIDGE RD", "Lucity_ID": "LS10"}},
{"geometry": {"type": "Point", "coordinates": [-79.1441217, 37.405687]}, "type": "Feature", "properties": {"Name": "OP House #2", "OBJECTID": 16, "Facility": null, "Notes": "Duplicate LS19", "Locality": "Lynchburg", "Parcel_ID": "02532005", "Address": "1517 JACKSON ST", "Lucity_ID": "HS603"}},
{"geometry": {"type": "Point", "coordinates": [-79.1439191, 37.4206225]}, "type": "Feature", "properties": {"Name": "Point of Honor", "OBJECTID": 17, "Facility": "Point of Honor", "Notes": "Not City Owned - Duplicate LS22", "Locality": "Lynchburg", "Parcel_ID": "04505006", "Address": "112 CABELL ST", "Lucity_ID": "PR802"}},
{"geometry": {"type": "Point", "coordinates": [-79.1451611, 37.4138744]}, "type": "Feature", "properties": {"Name": "Clay Street Parking Deck", "OBJECTID": 18, "Facility": "Clay Street Parking Deck", "Notes": "Not City Owned", "Locality": "Lynchburg", "Parcel_ID": "02445005", "Address": "808 CLAY ST", "Lucity_ID": "LS26"}},
{"geometry": {"type": "Point", "coordinates": [-79.1448268, 37.4128232]}, "type": "Feature", "properties": {"Name": "Sheriff and Magistrate Offices (BRRJ)", "OBJECTID": 19, "Facility": null, "Notes": "Not City Owned", "Locality": "Lynchburg", "Parcel_ID": "02453001", "Address": "510 9TH ST", "Lucity_ID": "LS27"}},
{"geometry": {"type": "Point", "coordinates": [-79.1675912, 37.4043446]}, "type": "Feature", "properties": {"Name": "Jones Memorial Library", "OBJECTID": 20, "Facility": "Lynchburg Public Library", "Notes": null, "Locality": "Lynchburg", "Parcel_ID": "00402003", "Address": "2315 MEMORIAL AVE", "Lucity_ID": "MS902"}},
{"geometry": {"type": "Point", "coordinates": [-79.1677442, 37.4041387]}, "type": "Feature", "properties": {"Name": "Lynchburg Public Library", "OBJECTID": 21, "Facility": "Lynchburg Public Library", "Notes": null, "Locality": "Lynchburg", "Parcel_ID": "00402003", "Address": "2315 MEMORIAL AVE", "Lucity_ID": "MS901"}},
{"geometry": {"type": "Point", "coordinates": [-79.142562, 37.4140796]}, "type": "Feature", "properties": {"Name": "City Hall", "OBJECTID": 22, "Facility": "City Hall", "Notes": null, "Locality": "Lynchburg", "Parcel_ID": "02450001", "Address": "900 CHURCH ST", "Lucity_ID": "MS910"}},
{"geometry": {"type": "Point", "coordinates": [-79.1406671, 37.411881]}, "type": "Feature", "properties": {"Name": "Visitor Center", "OBJECTID": 23, "Facility": "Visitor Center", "Notes": null, "Locality": "Lynchburg", "Parcel_ID": "04601009", "Address": "216 12TH ST", "Lucity_ID": "MS912"}},
{"geometry": {"type": "Point", "coordinates": [-79.1429945, 37.4136184]}, "type": "Feature", "properties": {"Name": "Public Elevator Bridge and Walkway", "OBJECTID": 24, "Facility": "Public Elevator Bridge and Walkway", "Notes": null, "Locality": "Lynchburg", "Parcel_ID": "02451004", "Address": "919 CHURCH ST", "Lucity_ID": "MS913"}},
{"geometry": {"type": "Point", "coordinates": [-79.1428288, 37.4135236]}, "type": "Feature", "properties": {"Name": null, "OBJECTID": 25, "Facility": null, "Notes": null, "Locality": "Lynchburg", "Parcel_ID": "02451005", "Address": "925 CHURCH ST", "Lucity_ID": "MS915"}},
{"geometry": {"type": "Point", "coordinates": [-79.1426795, 37.4135203]}, "type": "Feature", "properties": {"Name": null, "OBJECTID": 26, "Facility": null, "Notes": null, "Locality": "Lynchburg", "Parcel_ID": "02451013", "Address": "927 CHURCH ST", "Lucity_ID": "MS916"}},
{"geometry": {"type": "Point", "coordinates": [-79.1399727, 37.4025122]}, "type": "Feature", "properties": {"Name": "Fire Station 2", "OBJECTID": 27, "Facility": "Fire Station 2", "Notes": null, "Locality": "Lynchburg", "Parcel_ID": "04821007", "Address": "2006 GRACE ST", "Lucity_ID": "FE402"}},
{"geometry": {"type": "Point", "coordinates": [-79.1813426, 37.3821753]}, "type": "Feature", "properties": {"Name": "Fire Station 3", "OBJECTID": 28, "Facility": "Fire Station 3", "Notes": null, "Locality": "Lynchburg", "Parcel_ID": "05504001", "Address": "4701 FORT AVE", "Lucity_ID": "FE403"}},
{"geometry": {"type": "Point", "coordinates": [-79.1646674, 37.4342768]}, "type": "Feature", "properties": {"Name": "Fire Station 4", "OBJECTID": 29, "Facility": "Fire Station 4", "Notes": null, "Locality": "Lynchburg", "Parcel_ID": "02013001", "Address": "410 BIRCH ST", "Lucity_ID": "FE404"}},
{"geometry": {"type": "Point", "coordinates": [-79.2147532, 37.4461519]}, "type": "Feature", "properties": {"Name": "Fire Station 5", "OBJECTID": 30, "Facility": "Fire Station 5", "Notes": null, "Locality": "Lynchburg", "Parcel_ID": "18208030", "Address": "4800 BOONSBORO RD", "Lucity_ID": "FE405"}},
{"geometry": {"type": "Point", "coordinates": [-79.1589437, 37.4026529]}, "type": "Feature", "properties": {"Name": "Fire Station 6", "OBJECTID": 31, "Facility": "Fire Station 6", "Notes": null, "Locality": "Lynchburg", "Parcel_ID": "02708012", "Address": "2084 FORT AVE", "Lucity_ID": "FE406"}},
{"geometry": {"type": "Point", "coordinates": [-79.2283905, 37.3970213]}, "type": "Feature", "properties": {"Name": "Fire Station 7", "OBJECTID": 32, "Facility": "Fire Station 7", "Notes": null, "Locality": "Lynchburg", "Parcel_ID": "23111004", "Address": "2624 LAKESIDE DR", "Lucity_ID": "FE407"}},
{"geometry": {"type": "Point", "coordinates": [-79.2274595, 37.3559154]}, "type": "Feature", "properties": {"Name": "Fire Station 8", "OBJECTID": 33, "Facility": "Fire Station 8", "Notes": null, "Locality": "Lynchburg", "Parcel_ID": "24909008", "Address": "213 OLD GRAVES MILL RD", "Lucity_ID": "FE408"}},
{"geometry": {"type": "Point", "coordinates": [-79.1647951, 37.4028054]}, "type": "Feature", "properties": {"Name": "Miller Park Neighborhood Center", "OBJECTID": 34, "Facility": "Miller Park", "Notes": null, "Locality": "Lynchburg", "Parcel_ID": "01106007", "Address": "301 GROVE ST", "Lucity_ID": "PR807"}},
{"geometry": {"type": "Point", "coordinates": [-79.1493041, 37.4115163]}, "type": "Feature", "properties": {"Name": "College Hill Neighborhood Center", "OBJECTID": 35, "Facility": "College Hill Neighborhood Center", "Notes": null, "Locality": "Lynchburg", "Parcel_ID": "01004003", "Address": "813 JACKSON ST", "Lucity_ID": "PR836"}},
{"geometry": {"type": "Point", "coordinates": [-79.1451268, 37.4228398]}, "type": "Feature", "properties": {"Name": "Daniel's Hill Neighborhood Center", "OBJECTID": 36, "Facility": "Daniel's Hill Neighborhood Center", "Notes": "D", "Locality": "Lynchburg", "Parcel_ID": "04417001", "Address": "317 NORWOOD ST", "Lucity_ID": "PR803"}},
{"geometry": {"type": "Point", "coordinates": [-79.1446901, 37.4043499]}, "type": "Feature", "properties": {"Name": "Diamond Hill Neighborhood Center", "OBJECTID": 37, "Facility": "Diamond Hill Neighborhood Center", "Notes": null, "Locality": "Lynchburg", "Parcel_ID": "02534013", "Address": "1005 17TH ST", "Lucity_ID": "PR805"}},
{"geometry": {"type": "Point", "coordinates": [-79.1388551, 37.3817596]}, "type": "Feature", "properties": {"Name": "Fairview Heights Neighborhood Center", "OBJECTID": 38, "Facility": "Fairview Heights Neighborhood Center", "Notes": null, "Locality": "Lynchburg", "Parcel_ID": "11015001", "Address": "3621 CAMPBELL AVE", "Lucity_ID": "PR806"}},
{"geometry": {"type": "Point", "coordinates": [-79.1276132, 37.3867417]}, "type": "Feature", "properties": {"Name": "Jackson Heights Neighborhood Center", "OBJECTID": 39, "Facility": "Jackson Heights Neighborhood Center", "Notes": null, "Locality": "Lynchburg", "Parcel_ID": "10807006", "Address": "718 WINSTON RIDGE RD", "Lucity_ID": "PR826"}},
{"geometry": {"type": "Point", "coordinates": [-79.1639576, 37.416415]}, "type": "Feature", "properties": {"Name": "Jefferson Park Neighborhood Center", "OBJECTID": 40, "Facility": "Jefferson Park Neighborhood Center", "Notes": null, "Locality": "Lynchburg", "Parcel_ID": "00223001", "Address": "405 YORK ST", "Lucity_ID": "PR804"}},
{"geometry": {"type": "Point", "coordinates": [-79.2238748, 37.4087038]}, "type": "Feature", "properties": {"Name": "Templeton Senior Center", "OBJECTID": 41, "Facility": "Templeton Senior Center", "Notes": null, "Locality": "Lynchburg", "Parcel_ID": "22112001", "Address": "225 WIGGINGTON RD", "Lucity_ID": "PR838"}},
{"geometry": {"type": "Point", "coordinates": [-79.1542227, 37.4169431]}, "type": "Feature", "properties": {"Name": "Yoder Neighborhood Center", "OBJECTID": 42, "Facility": "Yoder Neighborhood Center", "Notes": null, "Locality": "Lynchburg", "Parcel_ID": "00914004", "Address": "109 JACKSON ST", "Lucity_ID": "PR825"}},
{"geometry": {"type": "Point", "coordinates": [-79.1622428, 37.4037558]}, "type": "Feature", "properties": {"Name": "Miller Park Pool House", "OBJECTID": 43, "Facility": "Miller Park", "Notes": null, "Locality": "Lynchburg", "Parcel_ID": "01103001", "Address": "2100 PARK AVE", "Lucity_ID": "PR808"}},
{"geometry": {"type": "Point", "coordinates": [-79.1626087, 37.4024102]}, "type": "Feature", "properties": {"Name": "Miller Park Aviary", "OBJECTID": 44, "Facility": "Miller Park", "Notes": null, "Locality": "Lynchburg", "Parcel_ID": "01103001", "Address": "2100 PARK AVE", "Lucity_ID": "PR811"}},
{"geometry": {"type": "Point", "coordinates": [-79.2221127, 37.4190192]}, "type": "Feature", "properties": {"Name": "Peaks View Park Barn", "OBJECTID": 45, "Facility": "Peaks View Park", "Notes": null, "Locality": "Lynchburg", "Parcel_ID": "21808001", "Address": "170 IVY CREEK LN", "Lucity_ID": "PR814"}},
{"geometry": {"type": "Point", "coordinates": [-79.1874704, 37.4184815]}, "type": "Feature", "properties": {"Name": "Ed Page Park Restrooms", "OBJECTID": 46, "Facility": "Ed Page Park", "Notes": null, "Locality": "Lynchburg", "Parcel_ID": "01602007", "Address": "1720 LANGHORNE RD", "Lucity_ID": "PR837"}},
{"geometry": {"type": "Point", "coordinates": [-79.1656767, 37.3941469]}, "type": "Feature", "properties": {"Name": "Lynchburg Municipal Employees Federal Credit Union", "OBJECTID": 47, "Facility": "Lynchburg Municipal Employees Federal Credit Union", "Notes": null, "Locality": "Lynchburg", "Parcel_ID": "01202001", "Address": "3180 FORT AVE", "Lucity_ID": "PR822"}},
{"geometry": {"type": "Point", "coordinates": [-79.1618078, 37.403249]}, "type": "Feature", "properties": {"Name": "Miller Park Pool", "OBJECTID": 48, "Facility": "Miller Park", "Notes": null, "Locality": "Lynchburg", "Parcel_ID": "01103001", "Address": "2100 PARK AVE", "Lucity_ID": "PR832"}},
{"geometry": {"type": "Point", "coordinates": [-79.1598262, 37.4096446]}, "type": "Feature", "properties": {"Name": "Public Works Administration Building #1", "OBJECTID": 49, "Facility": "Public Works", "Notes": null, "Locality": "Lynchburg", "Parcel_ID": "00334006", "Address": "1700 MEMORIAL AVE", "Lucity_ID": "PW501"}},
{"geometry": {"type": "Point", "coordinates": [-79.140379, 37.4114624]}, "type": "Feature", "properties": {"Name": "City Armory", "OBJECTID": 50, "Facility": "City Armory", "Notes": null, "Locality": "Lynchburg", "Parcel_ID": "04601001", "Address": "1219 MAIN ST", "Lucity_ID": "PW507"}},
{"geometry": {"type": "Point", "coordinates": [-79.1402082, 37.4115552]}, "type": "Feature", "properties": {"Name": "City Market", "OBJECTID": 51, "Facility": "City Market", "Notes": null, "Locality": "Lynchburg", "Parcel_ID": "04601001", "Address": "1219 MAIN ST", "Lucity_ID": "PW508"}},
{"geometry": {"type": "Point", "coordinates": [-79.1596807, 37.4104914]}, "type": "Feature", "properties": {"Name": "Fuel Facility", "OBJECTID": 52, "Facility": "Fuel Facility", "Notes": null, "Locality": "Lynchburg", "Parcel_ID": "00326001", "Address": "1601 MEMORIAL AVE", "Lucity_ID": "PW522"}},
{"geometry": {"type": "Point", "coordinates": [-79.1400271, 37.4182511]}, "type": "Feature", "properties": {"Name": "James River Pump Sation", "OBJECTID": 53, "Facility": "James River Pump Sation", "Notes": null, "Locality": "Lynchburg", "Parcel_ID": "04513004", "Address": "4 ADAMS ST", "Lucity_ID": "UT118"}},
{"geometry": {"type": "Point", "coordinates": [-79.2457612, 37.4494429]}, "type": "Feature", "properties": {"Name": "Mill Lane Pump Station", "OBJECTID": 54, "Facility": "Mill Lane Pump Station", "Notes": null, "Locality": "Bedford County", "Parcel_ID": null, "Address": "125 MILL LANE RD", "Lucity_ID": "UT125"}},
{"geometry": {"type": "Point", "coordinates": [-79.158414, 37.3882224]}, "type": "Feature", "properties": {"Name": "Carrol Avenue Pump Station", "OBJECTID": 55, "Facility": "Carrol Avenue Pump Station", "Notes": null, "Locality": "Lynchburg", "Parcel_ID": "05102007", "Address": "2820 CARROLL AVE", "Lucity_ID": "UT120"}},
{"geometry": {"type": "Point", "coordinates": [-79.1435995, 37.4136673]}, "type": "Feature", "properties": {"Name": "Circuit Court", "OBJECTID": 56, "Facility": "Circuit Court", "Notes": null, "Locality": "Lynchburg", "Parcel_ID": "02451001", "Address": "900 COURT ST", "Lucity_ID": "CT302"}},
{"geometry": {"type": "Point", "coordinates": [-79.1743535, 37.3863333]}, "type": "Feature", "properties": {"Name": "Fort Hill Community School", "OBJECTID": 57, "Facility": "Fort Hill Community School", "Notes": "Fort Hill Community School", "Locality": "Lynchburg", "Parcel_ID": "02910012", "Address": "1350 LIGGATES RD", "Lucity_ID": "MS903"}},
{"geometry": {"type": "Point", "coordinates": [-79.152236, 37.3935925]}, "type": "Feature", "properties": {"Name": "Bethune Nursery", "OBJECTID": 58, "Facility": "Mary Bethune Academy", "Notes": null, "Locality": "Lynchburg", "Parcel_ID": "05019004", "Address": "2249 HALIFAX AVE", "Lucity_ID": "MS904"}},
{"geometry": {"type": "Point", "coordinates": [-79.1338171, 37.4023798]}, "type": "Feature", "properties": {"Name": "Lyn-CAG Head Start", "OBJECTID": 59, "Facility": "White Rock School", "Notes": "", "Locality": "Lynchburg", "Parcel_ID": "04830001", "Address": "400 BUENA VISTA ST", "Lucity_ID": "MS905"}},
{"geometry": {"type": "Point", "coordinates": [-79.1648457, 37.3911933]}, "type": "Feature", "properties": {"Name": "Animal Shelter", "OBJECTID": 60, "Facility": "Animal Shelter", "Notes": null, "Locality": "Lynchburg", "Parcel_ID": "01202001", "Address": "3180 FORT AVE", "Lucity_ID": "MS911"}},
{"geometry": {"type": "Point", "coordinates": [-79.1628448, 37.4383838]}, "type": "Feature", "properties": {"Name": "Riverside Park Pump House and Spray Park", "OBJECTID": 61, "Facility": "Riverside Park", "Notes": null, "Locality": "Lynchburg", "Parcel_ID": "02001001", "Address": "2238 RIVERMONT AVE", "Lucity_ID": "PR841"}},
{"geometry": {"type": "Point", "coordinates": [-79.2333331, 37.4060287]}, "type": "Feature", "properties": {"Name": "Ivy Creek Park Cabin", "OBJECTID": 62, "Facility": "Ivy Creek Park", "Notes": null, "Locality": "Lynchburg", "Parcel_ID": "22501004", "Address": "118 CLEMMONS LAKE PL", "Lucity_ID": "PR842"}},
{"geometry": {"type": "Point", "coordinates": [-79.1642318, 37.4158127]}, "type": "Feature", "properties": {"Name": "Jefferson Park Picnic Shelter LG #1", "OBJECTID": 63, "Facility": "Jefferson Park", "Notes": null, "Locality": "Lynchburg", "Parcel_ID": "00223001", "Address": "405 YORK ST", "Lucity_ID": "PSJP1"}},
{"geometry": {"type": "Point", "coordinates": [-79.1611732, 37.4034401]}, "type": "Feature", "properties": {"Name": "Miller Park Restrooms", "OBJECTID": 64, "Facility": "Miller Park", "Notes": null, "Locality": "Lynchburg", "Parcel_ID": "01103001", "Address": "2100 PARK AVE", "Lucity_ID": "PR810"}},
{"geometry": {"type": "Point", "coordinates": [-79.1627994, 37.4029535]}, "type": "Feature", "properties": {"Name": "Miller Park Picnic Shelter SM #2", "OBJECTID": 65, "Facility": "Miller Park", "Notes": null, "Locality": "Lynchburg", "Parcel_ID": "01103001", "Address": "2100 PARK AVE", "Lucity_ID": "PSMP2"}},
{"geometry": {"type": "Point", "coordinates": [-79.1639664, 37.4034548]}, "type": "Feature", "properties": {"Name": "Miller Park Picnic Shelter LG #1", "OBJECTID": 66, "Facility": "Miller Park", "Notes": null, "Locality": "Lynchburg", "Parcel_ID": "01103001", "Address": "2100 PARK AVE", "Lucity_ID": "PSMP1"}},
{"geometry": {"type": "Point", "coordinates": [-79.226631, 37.4198834]}, "type": "Feature", "properties": {"Name": "Peaks View Park Picnic Shelter LG #1", "OBJECTID": 67, "Facility": "Peaks View Park", "Notes": null, "Locality": "Lynchburg", "Parcel_ID": "21808001", "Address": "170 IVY CREEK LN", "Lucity_ID": "PSPVP1"}},
{"geometry": {"type": "Point", "coordinates": [-79.2275811, 37.4196331]}, "type": "Feature", "properties": {"Name": "Peaks View Park Picnic Shelter SM #2", "OBJECTID": 68, "Facility": "Peaks View Park", "Notes": null, "Locality": "Lynchburg", "Parcel_ID": "21808001", "Address": "170 IVY CREEK LN", "Lucity_ID": "PSPVP2"}},
{"geometry": {"type": "Point", "coordinates": [-79.2283545, 37.4195087]}, "type": "Feature", "properties": {"Name": "Peaks View Park Restrooms", "OBJECTID": 69, "Facility": "Peaks View Park", "Notes": null, "Locality": "Lynchburg", "Parcel_ID": "21808001", "Address": "170 IVY CREEK LN", "Lucity_ID": "PR834"}},
{"geometry": {"type": "Point", "coordinates": [-79.2243554, 37.419928]}, "type": "Feature", "properties": {"Name": "Peaks View Park Restrooms and Concessions", "OBJECTID": 70, "Facility": "Peaks View Park", "Notes": null, "Locality": "Lynchburg", "Parcel_ID": "21808001", "Address": "170 IVY CREEK LN", "Lucity_ID": "PR813"}},
{"geometry": {"type": "Point", "coordinates": [-79.2227088, 37.4182789]}, "type": "Feature", "properties": {"Name": "Peaks View Park Office and Storage", "OBJECTID": 71, "Facility": "Peaks View Park", "Notes": null, "Locality": "Lynchburg", "Parcel_ID": "21805001", "Address": "1147 ARDMORE DR", "Lucity_ID": "PR815"}},
{"geometry": {"type": "Point", "coordinates": [-79.1635846, 37.4387417]}, "type": "Feature", "properties": {"Name": "Riverside Park Restrooms", "OBJECTID": 72, "Facility": "Riverside Park", "Notes": null, "Locality": "Lynchburg", "Parcel_ID": "02001001", "Address": "2238 RIVERMONT AVE", "Lucity_ID": "PR812"}},
{"geometry": {"type": "Point", "coordinates": [-79.1841161, 37.4055205]}, "type": "Feature", "properties": {"Name": "Restrooms", "OBJECTID": 73, "Facility": "Blackwater Creek Athletic Area", "Notes": null, "Locality": "Lynchburg", "Parcel_ID": "01502025", "Address": "535 MONTICELLO AVE", "Lucity_ID": "PR823"}},
{"geometry": {"type": "Point", "coordinates": [-79.1842289, 37.4047379]}, "type": "Feature", "properties": {"Name": "Picnic Shelter LG#1", "OBJECTID": 74, "Facility": "Blackwater Creek Athletic Area", "Notes": null, "Locality": "Lynchburg", "Parcel_ID": "01502025", "Address": "535 MONTICELLO AVE", "Lucity_ID": "PSBWCAA1"}},
{"geometry": {"type": "Point", "coordinates": [-79.1583739, 37.4159102]}, "type": "Feature", "properties": {"Name": "Old City Cemetery Office", "OBJECTID": 75, "Facility": "Old City Cemetery", "Notes": null, "Locality": "Lynchburg", "Parcel_ID": "00927001", "Address": "301 MONROE ST", "Lucity_ID": "PR835"}},
{"geometry": {"type": "Point", "coordinates": [-79.1579474, 37.4157027]}, "type": "Feature", "properties": {"Name": "Old City Cemetery Pest House", "OBJECTID": 76, "Facility": "Old City Cemetery", "Notes": null, "Locality": "Lynchburg", "Parcel_ID": "00927001", "Address": "301 MONROE ST", "Lucity_ID": "PR829"}},
{"geometry": {"type": "Point", "coordinates": [-79.1437342, 37.4207368]}, "type": "Feature", "properties": {"Name": "Point of Honor Kitchen House", "OBJECTID": 77, "Facility": "Point of Honor", "Notes": null, "Locality": "Lynchburg", "Parcel_ID": "04505006", "Address": "112 CABELL ST", "Lucity_ID": "PR839"}},
{"geometry": {"type": "Point", "coordinates": [-79.1434428, 37.4208209]}, "type": "Feature", "properties": {"Name": "Point of Honor Carriage House", "OBJECTID": 78, "Facility": "Point of Honor", "Notes": null, "Locality": "Lynchburg", "Parcel_ID": "04505006", "Address": "112 CABELL ST", "Lucity_ID": "PR840"}},
{"geometry": {"type": "Point", "coordinates": [-79.1170444, 37.3966251]}, "type": "Feature", "properties": {"Name": "New Maintenance Shop", "OBJECTID": 79, "Facility": "Wastewater Treatment", "Notes": null, "Locality": "Lynchburg", "Parcel_ID": "10706003", "Address": "2210 CONCORD TPKE", "Lucity_ID": null}},
{"geometry": {"type": "Point", "coordinates": [-79.1162174, 37.3965451]}, "type": "Feature", "properties": {"Name": "Warehouse", "OBJECTID": 80, "Facility": "Wastewater Treatment", "Notes": null, "Locality": "Lynchburg", "Parcel_ID": "10706003", "Address": "2210 CONCORD TPKE", "Lucity_ID": null}},
{"geometry": {"type": "Point", "coordinates": [-79.1151049, 37.3964976]}, "type": "Feature", "properties": {"Name": "Headworks Building", "OBJECTID": 81, "Facility": "Wastewater Treatment", "Notes": null, "Locality": "Lynchburg", "Parcel_ID": "10706008", "Address": "2304 CONCORD TPKE", "Lucity_ID": "WWTP02"}},
{"geometry": {"type": "Point", "coordinates": [-79.1152262, 37.3967672]}, "type": "Feature", "properties": {"Name": "Plant Influent Box and CSO 109 Overflow", "OBJECTID": 82, "Facility": "Wastewater Treatment", "Notes": null, "Locality": "Lynchburg", "Parcel_ID": "10706008", "Address": "2304 CONCORD TPKE", "Lucity_ID": "WWTP04"}},
{"geometry": {"type": "Point", "coordinates": [-79.1145681, 37.3969251]}, "type": "Feature", "properties": {"Name": "Influent Line to Primary Clarifiers", "OBJECTID": 83, "Facility": "Wastewater Treatment", "Notes": null, "Locality": "Lynchburg", "Parcel_ID": "10706002", "Address": "2310 CONCORD TPKE", "Lucity_ID": null}},
{"geometry": {"type": "Point", "coordinates": [-79.1144666, 37.3968379]}, "type": "Feature", "properties": {"Name": "Papermill Flow Meter Vaut", "OBJECTID": 84, "Facility": "Wastewater Treatment", "Notes": null, "Locality": "Lynchburg", "Parcel_ID": "10706002", "Address": "2310 CONCORD TPKE", "Lucity_ID": "WWTP03"}},
{"geometry": {"type": "Point", "coordinates": [-79.1144106, 37.3967138]}, "type": "Feature", "properties": {"Name": "Papermill Grit Removal", "OBJECTID": 85, "Facility": "Wastewater Treatment", "Notes": null, "Locality": "Lynchburg", "Parcel_ID": "10706002", "Address": "2310 CONCORD TPKE", "Lucity_ID": "WWTP03"}},
{"geometry": {"type": "Point", "coordinates": [-79.1145237, 37.396534]}, "type": "Feature", "properties": {"Name": "Papermill Clarifier", "OBJECTID": 86, "Facility": "Wastewater Treatment", "Notes": null, "Locality": "Lynchburg", "Parcel_ID": "10706002", "Address": "2310 CONCORD TPKE", "Lucity_ID": "WWTP03"}},
{"geometry": {"type": "Point", "coordinates": [-79.1143734, 37.3963336]}, "type": "Feature", "properties": {"Name": "Papermill Electrical Building", "OBJECTID": 87, "Facility": "Wastewater Treatment", "Notes": null, "Locality": "Lynchburg", "Parcel_ID": "10706002", "Address": "2310 CONCORD TPKE", "Lucity_ID": "WWTP03"}},
{"geometry": {"type": "Point", "coordinates": [-79.1144385, 37.396402]}, "type": "Feature", "properties": {"Name": "Papermill Pump Vault", "OBJECTID": 88, "Facility": "Wastewater Treatment", "Notes": null, "Locality": "Lynchburg", "Parcel_ID": "10706002", "Address": "2310 CONCORD TPKE", "Lucity_ID": "WWTP03"}},
{"geometry": {"type": "Point", "coordinates": [-79.1141587, 37.3966065]}, "type": "Feature", "properties": {"Name": "Old Screening Building", "OBJECTID": 89, "Facility": "Wastewater Treatment", "Notes": null, "Locality": "Lynchburg", "Parcel_ID": "10706002", "Address": "2310 CONCORD TPKE", "Lucity_ID": null}},
{"geometry": {"type": "Point", "coordinates": [-79.1141836, 37.396811]}, "type": "Feature", "properties": {"Name": "Sodium Bisulfite Feed Box", "OBJECTID": 90, "Facility": "Wastewater Treatment", "Notes": null, "Locality": "Lynchburg", "Parcel_ID": "10706002", "Address": "2310 CONCORD TPKE", "Lucity_ID": null}},
{"geometry": {"type": "Point", "coordinates": [-79.1141777, 37.3969569]}, "type": "Feature", "properties": {"Name": "Effluent Flow Meter/Flume", "OBJECTID": 91, "Facility": "Wastewater Treatment", "Notes": null, "Locality": "Lynchburg", "Parcel_ID": "10706002", "Address": "2310 CONCORD TPKE", "Lucity_ID": "WWTP15"}},
{"geometry": {"type": "Point", "coordinates": [-79.1143651, 37.3970732]}, "type": "Feature", "properties": {"Name": "CSO 109 Outfall Structure", "OBJECTID": 92, "Facility": "Wastewater Treatment", "Notes": null, "Locality": "Lynchburg", "Parcel_ID": "10706002", "Address": "2310 CONCORD TPKE", "Lucity_ID": "WWTP04"}},
{"geometry": {"type": "Point", "coordinates": [-79.1140631, 37.3969832]}, "type": "Feature", "properties": {"Name": "Sodium Bisulfite Building", "OBJECTID": 93, "Facility": "Wastewater Treatment", "Notes": null, "Locality": "Lynchburg", "Parcel_ID": "10706002", "Address": "2310 CONCORD TPKE", "Lucity_ID": null}},
{"geometry": {"type": "Point", "coordinates": [-79.1140301, 37.396673]}, "type": "Feature", "properties": {"Name": "Septage Receiving Pits", "OBJECTID": 94, "Facility": "Wastewater Treatment", "Notes": null, "Locality": "Lynchburg", "Parcel_ID": "10706002", "Address": "2310 CONCORD TPKE", "Lucity_ID": null}},
{"geometry": {"type": "Point", "coordinates": [-79.1137752, 37.3966314]}, "type": "Feature", "properties": {"Name": "Chlorine Contact Tank No. 1 (South)", "OBJECTID": 95, "Facility": "Wastewater Treatment", "Notes": null, "Locality": "Lynchburg", "Parcel_ID": "10706002", "Address": "2310 CONCORD TPKE", "Lucity_ID": "WWTP13"}},
{"geometry": {"type": "Point", "coordinates": [-79.1139973, 37.3968234]}, "type": "Feature", "properties": {"Name": "Chlorine Contact Tank No. 2 (North)", "OBJECTID": 96, "Facility": "Wastewater Treatment", "Notes": null, "Locality": "Lynchburg", "Parcel_ID": "10706002", "Address": "2310 CONCORD TPKE", "Lucity_ID": "WWTP14"}},
{"geometry": {"type": "Point", "coordinates": [-79.1137987, 37.3968745]}, "type": "Feature", "properties": {"Name": "Non-potable Water Pump Building", "OBJECTID": 97, "Facility": "Wastewater Treatment", "Notes": null, "Locality": "Lynchburg", "Parcel_ID": "10706002", "Address": "2310 CONCORD TPKE", "Lucity_ID": "WWTP20"}},
{"geometry": {"type": "Point", "coordinates": [-79.1137101, 37.3967934]}, "type": "Feature", "properties": {"Name": "Chlorine Contact Tank Splitter Box", "OBJECTID": 98, "Facility": "Wastewater Treatment", "Notes": null, "Locality": "Lynchburg", "Parcel_ID": "10706002", "Address": "2310 CONCORD TPKE", "Lucity_ID": "WWTP12"}},
{"geometry": {"type": "Point", "coordinates": [-79.1133041, 37.3969157]}, "type": "Feature", "properties": {"Name": "Primary Clarifier No. 1 (West)", "OBJECTID": 99, "Facility": "Wastewater Treatment", "Notes": null, "Locality": "Lynchburg", "Parcel_ID": "10706002", "Address": "2310 CONCORD TPKE", "Lucity_ID": "WWTP05"}},
{"geometry": {"type": "Point", "coordinates": [-79.1127621, 37.3970672]}, "type": "Feature", "properties": {"Name": "Primary Clarifier No. 2 (East)", "OBJECTID": 100, "Facility": "Wastewater Treatment", "Notes": null, "Locality": "Lynchburg", "Parcel_ID": "10706002", "Address": "2310 CONCORD TPKE", "Lucity_ID": "WWTP06"}},
{"geometry": {"type": "Point", "coordinates": [-79.1130889, 37.3971228]}, "type": "Feature", "properties": {"Name": "Primary Influent Splitter Box", "OBJECTID": 101, "Facility": "Wastewater Treatment", "Notes": null, "Locality": "Lynchburg", "Parcel_ID": "10706002", "Address": "2310 CONCORD TPKE", "Lucity_ID": null}},
{"geometry": {"type": "Point", "coordinates": [-79.1130605, 37.3967252]}, "type": "Feature", "properties": {"Name": "Primary Clarifier Electrical Building", "OBJECTID": 102, "Facility": "Wastewater Treatment", "Notes": null, "Locality": "Lynchburg", "Parcel_ID": "10706002", "Address": "2310 CONCORD TPKE", "Lucity_ID": null}},
{"geometry": {"type": "Point", "coordinates": [-79.1131075, 37.3967636]}, "type": "Feature", "properties": {"Name": "Primary Clarifier Pump Vault", "OBJECTID": 103, "Facility": "Wastewater Treatment", "Notes": null, "Locality": "Lynchburg", "Parcel_ID": "10706002", "Address": "2310 CONCORD TPKE", "Lucity_ID": "WWTP07"}},
{"geometry": {"type": "Point", "coordinates": [-79.1124865, 37.3969127]}, "type": "Feature", "properties": {"Name": "Primary Clarifier Effluent Sample Station", "OBJECTID": 104, "Facility": "Wastewater Treatment", "Notes": null, "Locality": "Lynchburg", "Parcel_ID": "10706002", "Address": "2310 CONCORD TPKE", "Lucity_ID": null}},
{"geometry": {"type": "Point", "coordinates": [-79.1124243, 37.3969731]}, "type": "Feature", "properties": {"Name": "Old Maintenance Storage Building", "OBJECTID": 105, "Facility": "Wastewater Treatment", "Notes": null, "Locality": "Lynchburg", "Parcel_ID": "10706002", "Address": "2310 CONCORD TPKE", "Lucity_ID": null}},
{"geometry": {"type": "Point", "coordinates": [-79.1122062, 37.3970316]}, "type": "Feature", "properties": {"Name": "OldMaintenance Building", "OBJECTID": 106, "Facility": "Wastewater Treatment", "Notes": null, "Locality": "Lynchburg", "Parcel_ID": "10706002", "Address": "2310 CONCORD TPKE", "Lucity_ID": null}},
{"geometry": {"type": "Point", "coordinates": [-79.1120264, 37.3967749]}, "type": "Feature", "properties": {"Name": "Blower Building", "OBJECTID": 107, "Facility": "Wastewater Treatment", "Notes": null, "Locality": "Lynchburg", "Parcel_ID": "28001002", "Address": "2309 CONCORD TPKE", "Lucity_ID": "WWTP08"}},
{"geometry": {"type": "Point", "coordinates": [-79.1123431, 37.3966903]}, "type": "Feature", "properties": {"Name": "Aeration Storage Building", "OBJECTID": 108, "Facility": "Wastewater Treatment", "Notes": null, "Locality": "Lynchburg", "Parcel_ID": "28001002", "Address": "2309 CONCORD TPKE", "Lucity_ID": null}},
{"geometry": {"type": "Point", "coordinates": [-79.1125721, 37.3966348]}, "type": "Feature", "properties": {"Name": "Aeration Electrical Building", "OBJECTID": 109, "Facility": "Wastewater Treatment", "Notes": null, "Locality": "Lynchburg", "Parcel_ID": "28001002", "Address": "2309 CONCORD TPKE", "Lucity_ID": null}},
{"geometry": {"type": "Point", "coordinates": [-79.1121907, 37.3966925]}, "type": "Feature", "properties": {"Name": "Aeration Basin Splitter Box", "OBJECTID": 110, "Facility": "Wastewater Treatment", "Notes": null, "Locality": "Lynchburg", "Parcel_ID": "28001002", "Address": "2309 CONCORD TPKE", "Lucity_ID": null}},
{"geometry": {"type": "Point", "coordinates": [-79.1120865, 37.3964499]}, "type": "Feature", "properties": {"Name": "Aeration Basins (East and West)", "OBJECTID": 111, "Facility": "Wastewater Treatment", "Notes": null, "Locality": "Lynchburg", "Parcel_ID": "28001002", "Address": "2309 CONCORD TPKE", "Lucity_ID": "WWTP01"}},
{"geometry": {"type": "Point", "coordinates": [-79.1127435, 37.3963192]}, "type": "Feature", "properties": {"Name": "Secondary Clarifier Electrical Building", "OBJECTID": 112, "Facility": "Wastewater Treatment", "Notes": null, "Locality": "Lynchburg", "Parcel_ID": "28001002", "Address": "2309 CONCORD TPKE", "Lucity_ID": null}},
{"geometry": {"type": "Point", "coordinates": [-79.1128042, 37.396286]}, "type": "Feature", "properties": {"Name": "RAS Pump Station", "OBJECTID": 113, "Facility": "Wastewater Treatment", "Notes": null, "Locality": "Lynchburg", "Parcel_ID": "28001002", "Address": "2309 CONCORD TPKE", "Lucity_ID": "WWTP09"}},
{"geometry": {"type": "Point", "coordinates": [-79.1128188, 37.3960971]}, "type": "Feature", "properties": {"Name": "Secondary Clarifier No. 1 (SE)", "OBJECTID": 114, "Facility": "Wastewater Treatment", "Notes": null, "Locality": "Lynchburg", "Parcel_ID": "28001002", "Address": "2309 CONCORD TPKE", "Lucity_ID": "WWTP10"}},
{"geometry": {"type": "Point", "coordinates": [-79.1129558, 37.3964154]}, "type": "Feature", "properties": {"Name": "Secondary Clarifier No.2 (NE)", "OBJECTID": 115, "Facility": "Wastewater Treatment", "Notes": null, "Locality": "Lynchburg", "Parcel_ID": "28001002", "Address": "2309 CONCORD TPKE", "Lucity_ID": "WWTP10"}},
{"geometry": {"type": "Point", "coordinates": [-79.1132141, 37.3959877]}, "type": "Feature", "properties": {"Name": "Secondary Clarifier No. 3 (SW)", "OBJECTID": 116, "Facility": "Wastewater Treatment", "Notes": null, "Locality": "Lynchburg", "Parcel_ID": "28001002", "Address": "2309 CONCORD TPKE", "Lucity_ID": "WWTP10"}},
{"geometry": {"type": "Point", "coordinates": [-79.1133476, 37.3963046]}, "type": "Feature", "properties": {"Name": "Secondary Clarifier No. 4 (NW)", "OBJECTID": 117, "Facility": "Wastewater Treatment", "Notes": null, "Locality": "Lynchburg", "Parcel_ID": "28001002", "Address": "2309 CONCORD TPKE", "Lucity_ID": "WWTP10"}},
{"geometry": {"type": "Point", "coordinates": [-79.1130241, 37.3962162]}, "type": "Feature", "properties": {"Name": "Secondary Clarifier Splitter Box", "OBJECTID": 118, "Facility": "Wastewater Treatment", "Notes": null, "Locality": "Lynchburg", "Parcel_ID": "28001002", "Address": "2309 CONCORD TPKE", "Lucity_ID": null}},
{"geometry": {"type": "Point", "coordinates": [-79.113441, 37.3961039]}, "type": "Feature", "properties": {"Name": "Main Electrical Building", "OBJECTID": 119, "Facility": "Wastewater Treatment", "Notes": null, "Locality": "Lynchburg", "Parcel_ID": "10706001", "Address": "2301 CONCORD TPKE", "Lucity_ID": "WWTP22"}},
{"geometry": {"type": "Point", "coordinates": [-79.1137808, 37.3960564]}, "type": "Feature", "properties": {"Name": "Control Building (Houses Lab)", "OBJECTID": 120, "Facility": "Wastewater Treatment", "Notes": null, "Locality": "Lynchburg", "Parcel_ID": "10706001", "Address": "2301 CONCORD TPKE", "Lucity_ID": "WWTP21"}},
{"geometry": {"type": "Point", "coordinates": [-79.1136089, 37.3958155]}, "type": "Feature", "properties": {"Name": "Gravity Thickener", "OBJECTID": 121, "Facility": "Wastewater Treatment", "Notes": null, "Locality": "Lynchburg", "Parcel_ID": "10706001", "Address": "2301 CONCORD TPKE", "Lucity_ID": "WWTP16"}},
{"geometry": {"type": "Point", "coordinates": [-79.1139771, 37.3956734]}, "type": "Feature", "properties": {"Name": "Sodium Hypochlorite Building", "OBJECTID": 122, "Facility": "Wastewater Treatment", "Notes": null, "Locality": "Lynchburg", "Parcel_ID": "10706001", "Address": "2301 CONCORD TPKE", "Lucity_ID": "WWTP11"}},
{"geometry": {"type": "Point", "coordinates": [-79.1134426, 37.3956418]}, "type": "Feature", "properties": {"Name": "Sludge Holding Tank", "OBJECTID": 123, "Facility": "Wastewater Treatment", "Notes": null, "Locality": "Lynchburg", "Parcel_ID": "10706001", "Address": "2301 CONCORD TPKE", "Lucity_ID": null}},
{"geometry": {"type": "Point", "coordinates": [-79.1134773, 37.3955014]}, "type": "Feature", "properties": {"Name": "Sludge Holding Tank Pump Vault", "OBJECTID": 124, "Facility": "Wastewater Treatment", "Notes": null, "Locality": "Lynchburg", "Parcel_ID": "10706001", "Address": "2301 CONCORD TPKE", "Lucity_ID": null}},
{"geometry": {"type": "Point", "coordinates": [-79.113292, 37.3956483]}, "type": "Feature", "properties": {"Name": "Grease Dump Station", "OBJECTID": 125, "Facility": "Wastewater Treatment", "Notes": null, "Locality": "Lynchburg", "Parcel_ID": "10706001", "Address": "2301 CONCORD TPKE", "Lucity_ID": null}},
{"geometry": {"type": "Point", "coordinates": [-79.1137724, 37.3954112]}, "type": "Feature", "properties": {"Name": "Odor Control Building", "OBJECTID": 126, "Facility": "Wastewater Treatment", "Notes": null, "Locality": "Lynchburg", "Parcel_ID": "10706001", "Address": "2301 CONCORD TPKE", "Lucity_ID": "WWTP19"}},
{"geometry": {"type": "Point", "coordinates": [-79.1137064, 37.3952285]}, "type": "Feature", "properties": {"Name": "Lime Silos", "OBJECTID": 127, "Facility": "Wastewater Treatment", "Notes": null, "Locality": "Lynchburg", "Parcel_ID": "10706001", "Address": "2301 CONCORD TPKE", "Lucity_ID": null}},
{"geometry": {"type": "Point", "coordinates": [-79.1135119, 37.3951265]}, "type": "Feature", "properties": {"Name": "Centrifuge Building", "OBJECTID": 128, "Facility": "Wastewater Treatment", "Notes": null, "Locality": "Lynchburg", "Parcel_ID": "10706001", "Address": "2301 CONCORD TPKE", "Lucity_ID": "WWTP18"}},
{"geometry": {"type": "Point", "coordinates": [-79.1132415, 37.3953839]}, "type": "Feature", "properties": {"Name": "GBT Building", "OBJECTID": 129, "Facility": "Wastewater Treatment", "Notes": null, "Locality": "Lynchburg", "Parcel_ID": "10706001", "Address": "2301 CONCORD TPKE", "Lucity_ID": "WWTP17"}},
{"geometry": {"type": "Point", "coordinates": [-79.2289382, 37.3976343]}, "type": "Feature", "properties": {"Name": "Fire Maintenance Shop", "OBJECTID": 130, "Facility": "Fire Maintenance Shop", "Notes": null, "Locality": "Lynchburg", "Parcel_ID": "23111004", "Address": "2624 LAKESIDE DR", "Lucity_ID": "FE409"}},
{"geometry": {"type": "Point", "coordinates": [-79.1466777, 37.4227468]}, "type": "Feature", "properties": {"Name": "OP HOUSE #1", "OBJECTID": 131, "Facility": null, "Notes": null, "Locality": "Lynchburg", "Parcel_ID": "02323002", "Address": "405 CABELL ST", "Lucity_ID": "HS602"}},
{"geometry": {"type": "Point", "coordinates": [-79.1728219, 37.4172789]}, "type": "Feature", "properties": {"Name": "Public Health Center", "OBJECTID": 132, "Facility": "Public Health Center", "Notes": null, "Locality": "Lynchburg", "Parcel_ID": "00101006", "Address": "1900 THOMSON DR", "Lucity_ID": "HS610"}},
{"geometry": {"type": "Point", "coordinates": [-79.1031624, 37.3927743]}, "type": "Feature", "properties": {"Name": "Landfill Administration Building", "OBJECTID": 133, "Facility": "Landfill Administration", "Notes": null, "Locality": "Lynchburg", "Parcel_ID": "28101013", "Address": "2704 CONCORD TPKE", "Lucity_ID": "PW517"}},
{"geometry": {"type": "Point", "coordinates": [-79.1137808, 37.3960564]}, "type": "Feature", "properties": {"Name": "Waste Water Treatment Plant", "OBJECTID": 134, "Facility": "Waste Water Treatment Plant", "Notes": null, "Locality": "Lynchburg", "Parcel_ID": "10706001", "Address": "2301 CONCORD TPKE", "Lucity_ID": "UT110"}},
{"geometry": {"type": "Point", "coordinates": [-79.1443416, 37.4136822]}, "type": "Feature", "properties": {"Name": "City Museum", "OBJECTID": 135, "Facility": "City Museum", "Notes": null, "Locality": "Lynchburg", "Parcel_ID": "02452016", "Address": "901 COURT ST", "Lucity_ID": "PR801"}},
{"geometry": {"type": "Point", "coordinates": [-79.167822, 37.388914]}, "type": "Feature", "properties": {"Name": "Stadium Park Metal Storage Building", "OBJECTID": 136, "Facility": "Stadium Park", "Notes": null, "Locality": "Lynchburg", "Parcel_ID": "02902019", "Address": "329 RUTHERFORD ST", "Lucity_ID": "PR827"}},
{"geometry": {"type": "Point", "coordinates": [-79.164289, 37.438412]}, "type": "Feature", "properties": {"Name": "Riverside Park Picnic Shelter SM 1", "OBJECTID": 137, "Facility": "Riverside Park", "Notes": null, "Locality": "Lynchburg", "Parcel_ID": "02001001", "Address": "2238 RIVERMONT AVE", "Lucity_ID": "PSRSP1"}},
{"geometry": {"type": "Point", "coordinates": [-79.1646348, 37.4384351]}, "type": "Feature", "properties": {"Name": "Riverside Park Picnic Shelter SM 2", "OBJECTID": 138, "Facility": "Riverside Park", "Notes": null, "Locality": "Lynchburg", "Parcel_ID": "02001001", "Address": "2238 RIVERMONT AVE", "Lucity_ID": "PSRSP2"}},
{"geometry": {"type": "Point", "coordinates": [-79.2216516, 37.3776286]}, "type": "Feature", "properties": {"Name": "Salt Barn", "OBJECTID": 139, "Facility": null, "Notes": null, "Locality": "Lynchburg", "Parcel_ID": "", "Address": "900 GRAVES MILL RD", "Lucity_ID": "PW525"}},
{"geometry": {"type": "Point", "coordinates": [-79.1586151, 37.4067432]}, "type": "Feature", "properties": {"Name": "Buildings and Grounds Equipment Storage Sheds", "OBJECTID": 140, "Facility": "Public Works", "Notes": null, "Locality": "Lynchburg", "Parcel_ID": "00338020", "Address": "1900 8TH ST", "Lucity_ID": "PW528"}},
{"geometry": {"type": "Point", "coordinates": [-79.154101, 37.4121667]}, "type": "Feature", "properties": {"Name": "College Hill Filtration Plant", "OBJECTID": 141, "Facility": "College Hill Filtration Plant", "Notes": null, "Locality": "Lynchburg", "Parcel_ID": "01029003", "Address": "525 TAYLOR ST", "Lucity_ID": "UT101"}},
{"geometry": {"type": "Point", "coordinates": [-79.1718216, 37.3957989]}, "type": "Feature", "properties": {"Name": "Fort Avenue Pump Station", "OBJECTID": 142, "Facility": "Fort Avenue Pump Station", "Notes": null, "Locality": "Lynchburg", "Parcel_ID": "03007011", "Address": "3117 MEMORIAL AVE", "Lucity_ID": "UT121"}},
{"geometry": {"type": "Point", "coordinates": [-79.2014164, 37.3308475]}, "type": "Feature", "properties": {"Name": "Building/Hangar Virginia Aviation", "OBJECTID": 143, "Facility": null, "Notes": null, "Locality": "Campbell County", "Parcel_ID": null, "Address": null, "Lucity_ID": "LS18"}},
{"geometry": {"type": "Point", "coordinates": [-79.2110434, 37.3224257]}, "type": "Feature", "properties": {"Name": "K9 Kennels", "OBJECTID": 144, "Facility": "Firing Range", "Notes": null, "Locality": "Campbell County", "Parcel_ID": null, "Address": "497 TRAINING CENTER RD", "Lucity_ID": null}},
{"geometry": {"type": "Point", "coordinates": [-79.2102765, 37.3253639]}, "type": "Feature", "properties": {"Name": "Classroom Facilities", "OBJECTID": 145, "Facility": "Fire Training Center", "Notes": null, "Locality": "Campbell County", "Parcel_ID": null, "Address": "613 TRAINING CENTER RD", "Lucity_ID": "FE413"}},
{"geometry": {"type": "Point", "coordinates": [-79.1657635, 37.392281]}, "type": "Feature", "properties": {"Name": "City Stadium Baseball Office", "OBJECTID": 146, "Facility": "City Stadium", "Notes": null, "Locality": "Lynchburg", "Parcel_ID": "01202001", "Address": "3180 FORT AVE", "Lucity_ID": "PR819"}},
{"geometry": {"type": "Point", "coordinates": [-79.1662761, 37.3928838]}, "type": "Feature", "properties": {"Name": "City Stadium Clubhouse", "OBJECTID": 147, "Facility": "City Stadium", "Notes": null, "Locality": "Lynchburg", "Parcel_ID": "01202001", "Address": "3180 FORT AVE", "Lucity_ID": "PR820"}},
{"geometry": {"type": "Point", "coordinates": [-79.168498, 37.393468]}, "type": "Feature", "properties": {"Name": "City Stadium Ticket Stand", "OBJECTID": 148, "Facility": "City Stadium", "Notes": null, "Locality": "Lynchburg", "Parcel_ID": "01202001", "Address": "3180 FORT AVE", "Lucity_ID": "PR816"}},
{"geometry": {"type": "Point", "coordinates": [-79.1675919, 37.3910525]}, "type": "Feature", "properties": {"Name": "Allen Morrison Brick Building", "OBJECTID": 149, "Facility": "Stadium Park", "Notes": null, "Locality": "Lynchburg", "Parcel_ID": "02807018", "Address": "300 RUTHERFORD ST", "Lucity_ID": "PR828"}},
{"geometry": {"type": "Point", "coordinates": [-79.1685388, 37.3551235]}, "type": "Feature", "properties": {"Name": "Wingate Pump Station", "OBJECTID": 150, "Facility": "Wingate Pump Station", "Notes": "Location?", "Locality": "Lynchburg", "Parcel_ID": "25802001", "Address": "3770 CANDLERS MOUNTAIN RD", "Lucity_ID": "UT136"}},
{"geometry": {"type": "Point", "coordinates": [-79.1820895, 37.3817328]}, "type": "Feature", "properties": {"Name": "Storage Tank", "OBJECTID": 151, "Facility": null, "Notes": null, "Locality": "Lynchburg", "Parcel_ID": "05505003", "Address": "4821 FORT AVE", "Lucity_ID": null}},
{"geometry": {"type": "Point", "coordinates": [-79.1819542, 37.3818865]}, "type": "Feature", "properties": {"Name": "Storage Tank", "OBJECTID": 152, "Facility": null, "Notes": null, "Locality": "Lynchburg", "Parcel_ID": "05505001", "Address": "4801 FORT AVE", "Lucity_ID": null}},
{"geometry": {"type": "Point", "coordinates": [-79.1675218, 37.4089615]}, "type": "Feature", "properties": {"Name": null, "OBJECTID": 153, "Facility": "E.C. Glass High School", "Notes": null, "Locality": "Lynchburg", "Parcel_ID": "00402002", "Address": "2111 MEMORIAL AVE", "Lucity_ID": null}},
{"geometry": {"type": "Point", "coordinates": [-79.1680144, 37.4089081]}, "type": "Feature", "properties": {"Name": null, "OBJECTID": 154, "Facility": "E.C. Glass High School", "Notes": null, "Locality": "Lynchburg", "Parcel_ID": "00402002", "Address": "2111 MEMORIAL AVE", "Lucity_ID": null}},
{"geometry": {"type": "Point", "coordinates": [-79.168094, 37.4077752]}, "type": "Feature", "properties": {"Name": null, "OBJECTID": 155, "Facility": "E.C. Glass High School", "Notes": null, "Locality": "Lynchburg", "Parcel_ID": "00402002", "Address": "2111 MEMORIAL AVE", "Lucity_ID": null}},
{"geometry": {"type": "Point", "coordinates": [-79.1686617, 37.4052741]}, "type": "Feature", "properties": {"Name": null, "OBJECTID": 156, "Facility": "E.C. Glass High School", "Notes": null, "Locality": "Lynchburg", "Parcel_ID": "00402002", "Address": "2111 MEMORIAL AVE", "Lucity_ID": null}},
{"geometry": {"type": "Point", "coordinates": [-79.1682244, 37.4053511]}, "type": "Feature", "properties": {"Name": null, "OBJECTID": 157, "Facility": "E.C. Glass High School", "Notes": null, "Locality": "Lynchburg", "Parcel_ID": "00402002", "Address": "2111 MEMORIAL AVE", "Lucity_ID": null}},
{"geometry": {"type": "Point", "coordinates": [-79.167835, 37.4056604]}, "type": "Feature", "properties": {"Name": null, "OBJECTID": 158, "Facility": "E.C. Glass High School", "Notes": null, "Locality": "Lynchburg", "Parcel_ID": "00402002", "Address": "2111 MEMORIAL AVE", "Lucity_ID": null}},
{"geometry": {"type": "Point", "coordinates": [-79.1673491, 37.4055983]}, "type": "Feature", "properties": {"Name": null, "OBJECTID": 159, "Facility": "E.C. Glass High School", "Notes": null, "Locality": "Lynchburg", "Parcel_ID": "00402002", "Address": "2111 MEMORIAL AVE", "Lucity_ID": null}},
{"geometry": {"type": "Point", "coordinates": [-79.1675928, 37.4055759]}, "type": "Feature", "properties": {"Name": null, "OBJECTID": 160, "Facility": "E.C. Glass High School", "Notes": null, "Locality": "Lynchburg", "Parcel_ID": "00402002", "Address": "2111 MEMORIAL AVE", "Lucity_ID": null}},
{"geometry": {"type": "Point", "coordinates": [-79.16796, 37.4066806]}, "type": "Feature", "properties": {"Name": null, "OBJECTID": 161, "Facility": "E.C. Glass High School", "Notes": null, "Locality": "Lynchburg", "Parcel_ID": "00402002", "Address": "2111 MEMORIAL AVE", "Lucity_ID": null}},
{"geometry": {"type": "Point", "coordinates": [-79.1033586, 37.3933449]}, "type": "Feature", "properties": {"Name": null, "OBJECTID": 162, "Facility": "Landfill Administration", "Notes": null, "Locality": "Lynchburg", "Parcel_ID": "28101008", "Address": "2600 CONCORD TPKE", "Lucity_ID": null}},
{"geometry": {"type": "Point", "coordinates": [-79.1036397, 37.3937512]}, "type": "Feature", "properties": {"Name": null, "OBJECTID": 163, "Facility": "Landfill Administration", "Notes": null, "Locality": "Lynchburg", "Parcel_ID": "28101008", "Address": "2600 CONCORD TPKE", "Lucity_ID": null}},
{"geometry": {"type": "Point", "coordinates": [-79.1028451, 37.3979611]}, "type": "Feature", "properties": {"Name": null, "OBJECTID": 164, "Facility": null, "Notes": null, "Locality": "Lynchburg", "Parcel_ID": "28101032", "Address": "128 MEADHILL LN", "Lucity_ID": null}},
{"geometry": {"type": "Point", "coordinates": [-79.1669806, 37.3977875]}, "type": "Feature", "properties": {"Name": "T.C. Miller Elementary School", "OBJECTID": 165, "Facility": "T.C. Miller Elementary School", "Notes": null, "Locality": "Lynchburg", "Parcel_ID": "01206023", "Address": "600 MANSFIELD AVE", "Lucity_ID": null}},
{"geometry": {"type": "Point", "coordinates": [-79.134354, 37.3998862]}, "type": "Feature", "properties": {"Name": "Carl B. Hutcherson Early Learning Center", "OBJECTID": 166, "Facility": "Carl B. Hutcherson Early Learning Center", "Notes": null, "Locality": "Lynchburg", "Parcel_ID": "04804001", "Address": "2401 HIGH ST", "Lucity_ID": null}},
{"geometry": {"type": "Point", "coordinates": [-79.151176, 37.4056065]}, "type": "Feature", "properties": {"Name": "R.S. Payne Elementary School", "OBJECTID": 167, "Facility": "R.S. Payne Elementary School", "Notes": null, "Locality": "Lynchburg", "Parcel_ID": "02604001", "Address": "1201 FLOYD ST", "Lucity_ID": null}},
{"geometry": {"type": "Point", "coordinates": [-79.1468094, 37.4075308]}, "type": "Feature", "properties": {"Name": "P.L. Dunbar Middle School", "OBJECTID": 168, "Facility": "P.L. Dunbar Middle School", "Notes": null, "Locality": "Lynchburg", "Parcel_ID": "02501001", "Address": "1200 POLK ST", "Lucity_ID": null}},
{"geometry": {"type": "Point", "coordinates": [-79.1461854, 37.4086346]}, "type": "Feature", "properties": {"Name": "Amelia Pride Center", "OBJECTID": 169, "Facility": "Amelia Pride Center", "Notes": null, "Locality": "Lynchburg", "Parcel_ID": "02503001", "Address": "800 12TH ST", "Lucity_ID": null}},
{"geometry": {"type": "Point", "coordinates": [-79.158203, 37.4069644]}, "type": "Feature", "properties": {"Name": null, "OBJECTID": 170, "Facility": "Public Works", "Notes": null, "Locality": "Lynchburg", "Parcel_ID": "00338002", "Address": "1900 A 8TH ST", "Lucity_ID": null}},
{"geometry": {"type": "Point", "coordinates": [-79.1585656, 37.4077491]}, "type": "Feature", "properties": {"Name": null, "OBJECTID": 171, "Facility": "Public Works", "Notes": null, "Locality": "Lynchburg", "Parcel_ID": "00334007", "Address": "1916 ROSE LN", "Lucity_ID": null}},
{"geometry": {"type": "Point", "coordinates": [-79.159069, 37.4082375]}, "type": "Feature", "properties": {"Name": null, "OBJECTID": 172, "Facility": "Public Works", "Notes": null, "Locality": "Lynchburg", "Parcel_ID": "00334006", "Address": "1700 MEMORIAL AVE", "Lucity_ID": null}},
{"geometry": {"type": "Point", "coordinates": [-79.1588474, 37.4085319]}, "type": "Feature", "properties": {"Name": null, "OBJECTID": 173, "Facility": "Public Works", "Notes": null, "Locality": "Lynchburg", "Parcel_ID": "00334006", "Address": "1700 MEMORIAL AVE", "Lucity_ID": null}},
{"geometry": {"type": "Point", "coordinates": [-79.1595932, 37.4080295]}, "type": "Feature", "properties": {"Name": null, "OBJECTID": 174, "Facility": "Public Works", "Notes": null, "Locality": "Lynchburg", "Parcel_ID": "00334056", "Address": "1920 ROSE LN", "Lucity_ID": null}},
{"geometry": {"type": "Point", "coordinates": [-79.1585706, 37.4093489]}, "type": "Feature", "properties": {"Name": null, "OBJECTID": 175, "Facility": "Public Works", "Notes": null, "Locality": "Lynchburg", "Parcel_ID": "01055008", "Address": "1761 PARK AVE", "Lucity_ID": null}},
{"geometry": {"type": "Point", "coordinates": [-79.1591942, 37.4088924]}, "type": "Feature", "properties": {"Name": null, "OBJECTID": 176, "Facility": "Public Works", "Notes": null, "Locality": "Lynchburg", "Parcel_ID": "00334006", "Address": "1700 MEMORIAL AVE", "Lucity_ID": null}},
{"geometry": {"type": "Point", "coordinates": [-79.1593776, 37.4090082]}, "type": "Feature", "properties": {"Name": null, "OBJECTID": 177, "Facility": "Public Works", "Notes": null, "Locality": "Lynchburg", "Parcel_ID": "00334006", "Address": "1700 MEMORIAL AVE", "Lucity_ID": null}},
{"geometry": {"type": "Point", "coordinates": [-79.1594979, 37.4088531]}, "type": "Feature", "properties": {"Name": null, "OBJECTID": 178, "Facility": "Public Works", "Notes": null, "Locality": "Lynchburg", "Parcel_ID": "00334006", "Address": "1700 MEMORIAL AVE", "Lucity_ID": null}},
{"geometry": {"type": "Point", "coordinates": [-79.1597109, 37.4091875]}, "type": "Feature", "properties": {"Name": null, "OBJECTID": 179, "Facility": "Public Works", "Notes": null, "Locality": "Lynchburg", "Parcel_ID": "00334006", "Address": "1700 MEMORIAL AVE", "Lucity_ID": null}},
{"geometry": {"type": "Point", "coordinates": [-79.1586086, 37.4102761]}, "type": "Feature", "properties": {"Name": null, "OBJECTID": 180, "Facility": "Public Works", "Notes": null, "Locality": "Lynchburg", "Parcel_ID": "01055008", "Address": "1761 PARK AVE", "Lucity_ID": null}},
{"geometry": {"type": "Point", "coordinates": [-79.1586419, 37.4110102]}, "type": "Feature", "properties": {"Name": null, "OBJECTID": 181, "Facility": "Public Works", "Notes": null, "Locality": "Lynchburg", "Parcel_ID": "00902001", "Address": "1517 5TH ST", "Lucity_ID": null}},
{"geometry": {"type": "Point", "coordinates": [-79.1590739, 37.4108481]}, "type": "Feature", "properties": {"Name": null, "OBJECTID": 182, "Facility": "Public Works", "Notes": null, "Locality": "Lynchburg", "Parcel_ID": "00325001", "Address": "1521 5TH ST", "Lucity_ID": null}},
{"geometry": {"type": "Point", "coordinates": [-79.1401443, 37.411916]}, "type": "Feature", "properties": {"Name": null, "OBJECTID": 183, "Facility": "City Market", "Notes": null, "Locality": "Lynchburg", "Parcel_ID": "04601005", "Address": "1211 MAIN ST", "Lucity_ID": null}},
{"geometry": {"type": "Point", "coordinates": [-79.1550781, 37.4117899]}, "type": "Feature", "properties": {"Name": null, "OBJECTID": 184, "Facility": "College Hill Filtration Plant", "Notes": null, "Locality": "Lynchburg", "Parcel_ID": "01030004", "Address": "517 WISE ST", "Lucity_ID": null}},
{"geometry": {"type": "Point", "coordinates": [-79.1538065, 37.4119124]}, "type": "Feature", "properties": {"Name": null, "OBJECTID": 185, "Facility": "College Hill Filtration Plant", "Notes": null, "Locality": "Lynchburg", "Parcel_ID": "01028001", "Address": "601 TAYLOR ST", "Lucity_ID": null}},
{"geometry": {"type": "Point", "coordinates": [-79.1541146, 37.411772]}, "type": "Feature", "properties": {"Name": null, "OBJECTID": 186, "Facility": "College Hill Filtration Plant", "Notes": null, "Locality": "Lynchburg", "Parcel_ID": "01028001", "Address": "601 TAYLOR ST", "Lucity_ID": null}},
{"geometry": {"type": "Point", "coordinates": [-79.1543952, 37.4119092]}, "type": "Feature", "properties": {"Name": "Storage Tank", "OBJECTID": 187, "Facility": "College Hill Filtration Plant", "Notes": null, "Locality": "Lynchburg", "Parcel_ID": "01029003", "Address": "525 TAYLOR ST", "Lucity_ID": null}},
{"geometry": {"type": "Point", "coordinates": [-79.1545856, 37.4121843]}, "type": "Feature", "properties": {"Name": "Storage Tank", "OBJECTID": 188, "Facility": "College Hill Filtration Plant", "Notes": null, "Locality": "Lynchburg", "Parcel_ID": "01029003", "Address": "525 TAYLOR ST", "Lucity_ID": null}},
{"geometry": {"type": "Point", "coordinates": [-79.1541032, 37.4112702]}, "type": "Feature", "properties": {"Name": "Storage Tank", "OBJECTID": 189, "Facility": "College Hill Filtration Plant", "Notes": null, "Locality": "Lynchburg", "Parcel_ID": "01028001", "Address": "601 TAYLOR ST", "Lucity_ID": null}},
{"geometry": {"type": "Point", "coordinates": [-79.1548402, 37.4113573]}, "type": "Feature", "properties": {"Name": "Storage Tank", "OBJECTID": 190, "Facility": "College Hill Filtration Plant", "Notes": null, "Locality": "Lynchburg", "Parcel_ID": "01028001", "Address": "601 TAYLOR ST", "Lucity_ID": null}},
{"geometry": {"type": "Point", "coordinates": [-79.1547715, 37.4107283]}, "type": "Feature", "properties": {"Name": "Storage Tank", "OBJECTID": 191, "Facility": "College Hill Filtration Plant", "Notes": null, "Locality": "Lynchburg", "Parcel_ID": "01028001", "Address": "601 TAYLOR ST", "Lucity_ID": null}},
{"geometry": {"type": "Point", "coordinates": [-79.1550668, 37.4108152]}, "type": "Feature", "properties": {"Name": "Pump Station", "OBJECTID": 192, "Facility": "College Hill Filtration Plant", "Notes": null, "Locality": "Lynchburg", "Parcel_ID": "01028001", "Address": "601 TAYLOR ST", "Lucity_ID": null}},
{"geometry": {"type": "Point", "coordinates": [-79.1542528, 37.4123393]}, "type": "Feature", "properties": {"Name": null, "OBJECTID": 193, "Facility": "College Hill Filtration Plant", "Notes": null, "Locality": "Lynchburg", "Parcel_ID": "01029003", "Address": "525 TAYLOR ST", "Lucity_ID": null}},
{"geometry": {"type": "Point", "coordinates": [-79.1543057, 37.4125882]}, "type": "Feature", "properties": {"Name": null, "OBJECTID": 194, "Facility": "College Hill Filtration Plant", "Notes": null, "Locality": "Lynchburg", "Parcel_ID": "01029003", "Address": "525 TAYLOR ST", "Lucity_ID": null}},
{"geometry": {"type": "Point", "coordinates": [-79.1633353, 37.4135072]}, "type": "Feature", "properties": {"Name": "Dearington Elementary School", "OBJECTID": 195, "Facility": "Dearington Elementary School", "Notes": null, "Locality": "Lynchburg", "Parcel_ID": "00235002", "Address": "1740 CAROLINE ST", "Lucity_ID": null}},
{"geometry": {"type": "Point", "coordinates": [-79.1629055, 37.4160173]}, "type": "Feature", "properties": {"Name": null, "OBJECTID": 196, "Facility": "Jefferson Park", "Notes": null, "Locality": "Lynchburg", "Parcel_ID": "00227001", "Address": "300 CHAMBERS ST", "Lucity_ID": null}},
{"geometry": {"type": "Point", "coordinates": [-79.1407349, 37.4158677]}, "type": "Feature", "properties": {"Name": null, "OBJECTID": 197, "Facility": "Social Services", "Notes": null, "Locality": "Lynchburg", "Parcel_ID": "04514012", "Address": "99 9TH ST", "Lucity_ID": null}},
{"geometry": {"type": "Point", "coordinates": [-79.1452293, 37.4174393]}, "type": "Feature", "properties": {"Name": "Holiday Inn Parking Deck", "OBJECTID": 198, "Facility": "Holiday Inn Parking Deck", "Notes": null, "Locality": "Lynchburg", "Parcel_ID": "02418001", "Address": "501 MAIN ST", "Lucity_ID": null}},
{"geometry": {"type": "Point", "coordinates": [-79.1952763, 37.4186557]}, "type": "Feature", "properties": {"Name": "Linkhorne Elementary School", "OBJECTID": 199, "Facility": "Linkhorne Elementary School", "Notes": null, "Locality": "Lynchburg", "Parcel_ID": "16702002", "Address": "2501 LINKHORNE DR", "Lucity_ID": null}},
{"geometry": {"type": "Point", "coordinates": [-79.192905, 37.417327]}, "type": "Feature", "properties": {"Name": "Linkhorne Middle School", "OBJECTID": 200, "Facility": "Linkhorne Middle School", "Notes": null, "Locality": "Lynchburg", "Parcel_ID": "16702002", "Address": "2501 LINKHORNE DR", "Lucity_ID": null}},
{"geometry": {"type": "Point", "coordinates": [-79.1930615, 37.4166284]}, "type": "Feature", "properties": {"Name": "Linkhorne Middle School", "OBJECTID": 201, "Facility": "Linkhorne Middle School", "Notes": null, "Locality": "Lynchburg", "Parcel_ID": "16702002", "Address": "2501 LINKHORNE DR", "Lucity_ID": null}},
{"geometry": {"type": "Point", "coordinates": [-79.1465963, 37.4225895]}, "type": "Feature", "properties": {"Name": null, "OBJECTID": 202, "Facility": null, "Notes": null, "Locality": "Lynchburg", "Parcel_ID": "02323002", "Address": "405 CABELL ST", "Lucity_ID": null}},
{"geometry": {"type": "Point", "coordinates": [-79.2069727, 37.4514591]}, "type": "Feature", "properties": {"Name": "Paul Munro Elementary School", "OBJECTID": 203, "Facility": "Paul Munro Elementary School", "Notes": null, "Locality": "Lynchburg", "Parcel_ID": "18501001", "Address": "4641 LOCKSVIEW RD", "Lucity_ID": null}},
{"geometry": {"type": "Point", "coordinates": [-79.2049728, 37.3583193]}, "type": "Feature", "properties": {"Name": null, "OBJECTID": 204, "Facility": null, "Notes": null, "Locality": "Lynchburg", "Parcel_ID": "24807001", "Address": "3020 WARDS FERRY RD", "Lucity_ID": null}},
{"geometry": {"type": "Point", "coordinates": [-79.2059105, 37.3609386]}, "type": "Feature", "properties": {"Name": "Heritage High Shcool", "OBJECTID": 205, "Facility": "Heritage High Shcool", "Notes": null, "Locality": "Lynchburg", "Parcel_ID": "24807001", "Address": "3020 WARDS FERRY RD", "Lucity_ID": null}},
{"geometry": {"type": "Point", "coordinates": [-79.2071483, 37.3607435]}, "type": "Feature", "properties": {"Name": "", "OBJECTID": 206, "Facility": "Heritage High Shcool", "Notes": null, "Locality": "Lynchburg", "Parcel_ID": "24807001", "Address": "3020 WARDS FERRY RD", "Lucity_ID": null}},
{"geometry": {"type": "Point", "coordinates": [-79.2082297, 37.3621943]}, "type": "Feature", "properties": {"Name": "Heritage Elementary School", "OBJECTID": 207, "Facility": "Heritage Elementary School", "Notes": null, "Locality": "Lynchburg", "Parcel_ID": "24807001", "Address": "3020 WARDS FERRY RD", "Lucity_ID": null}},
{"geometry": {"type": "Point", "coordinates": [-79.2067524, 37.3623283]}, "type": "Feature", "properties": {"Name": "<Null>", "OBJECTID": 208, "Facility": "Heritage High Shcool", "Notes": null, "Locality": "Lynchburg", "Parcel_ID": "24807001", "Address": "3020 WARDS FERRY RD", "Lucity_ID": null}},
{"geometry": {"type": "Point", "coordinates": [-79.2055151, 37.3625712]}, "type": "Feature", "properties": {"Name": "<Null>", "OBJECTID": 209, "Facility": "Heritage High Shcool", "Notes": null, "Locality": "Lynchburg", "Parcel_ID": "24807001", "Address": "3020 WARDS FERRY RD", "Lucity_ID": null}},
{"geometry": {"type": "Point", "coordinates": [-79.2061697, 37.3630918]}, "type": "Feature", "properties": {"Name": "<Null>", "OBJECTID": 210, "Facility": "Heritage High Shcool", "Notes": null, "Locality": "Lynchburg", "Parcel_ID": "24807001", "Address": "3020 WARDS FERRY RD", "Lucity_ID": null}},
{"geometry": {"type": "Point", "coordinates": [-79.2058603, 37.3623516]}, "type": "Feature", "properties": {"Name": "<Null", "OBJECTID": 211, "Facility": "Heritage High Shcool", "Notes": null, "Locality": "Lynchburg", "Parcel_ID": "24807001", "Address": "3020 WARDS FERRY RD", "Lucity_ID": null}},
{"geometry": {"type": "Point", "coordinates": [-79.2042898, 37.3629003]}, "type": "Feature", "properties": {"Name": null, "OBJECTID": 212, "Facility": null, "Notes": null, "Locality": "Lynchburg", "Parcel_ID": "24807001", "Address": "3020 WARDS FERRY RD", "Lucity_ID": null}},
{"geometry": {"type": "Point", "coordinates": [-79.2061713, 37.3632676]}, "type": "Feature", "properties": {"Name": null, "OBJECTID": 213, "Facility": "Heritage High Shcool", "Notes": null, "Locality": "Lynchburg", "Parcel_ID": "24807001", "Address": "3020 WARDS FERRY RD", "Lucity_ID": null}},
{"geometry": {"type": "Point", "coordinates": [-79.2055844, 37.3631877]}, "type": "Feature", "properties": {"Name": null, "OBJECTID": 214, "Facility": "Heritage High Shcool", "Notes": null, "Locality": "Lynchburg", "Parcel_ID": "24807001", "Address": "3020 WARDS FERRY RD", "Lucity_ID": null}},
{"geometry": {"type": "Point", "coordinates": [-79.2198999, 37.3982882]}, "type": "Feature", "properties": {"Name": null, "OBJECTID": 215, "Facility": null, "Notes": null, "Locality": "Lynchburg", "Parcel_ID": "23101001", "Address": "2348 LAKESIDE DR", "Lucity_ID": null}},
{"geometry": {"type": "Point", "coordinates": [-79.1897258, 37.3661455]}, "type": "Feature", "properties": {"Name": "Sheffield Elementary School", "OBJECTID": 216, "Facility": "Sheffield Elementary School", "Notes": null, "Locality": "Lynchburg", "Parcel_ID": "16107033", "Address": "115 KENWOOD PL", "Lucity_ID": null}},
{"geometry": {"type": "Point", "coordinates": [-79.1899087, 37.3668278]}, "type": "Feature", "properties": {"Name": "Sheffield Elementary School", "OBJECTID": 217, "Facility": "Sheffield Elementary School", "Notes": null, "Locality": "Lynchburg", "Parcel_ID": "16107033", "Address": "115 KENWOOD PL", "Lucity_ID": null}},
{"geometry": {"type": "Point", "coordinates": [-79.179758, 37.4046061]}, "type": "Feature", "properties": {"Name": "LAUREL Regional Program", "OBJECTID": 218, "Facility": "LAUREL Regional Program", "Notes": null, "Locality": "Lynchburg", "Parcel_ID": "01410001", "Address": "401 MONTICELLO AVE", "Lucity_ID": null}},
{"geometry": {"type": "Point", "coordinates": [-79.1801196, 37.4044501]}, "type": "Feature", "properties": {"Name": null, "OBJECTID": 219, "Facility": "LAUREL Regional Program", "Notes": null, "Locality": "Lynchburg", "Parcel_ID": "01410001", "Address": "401 MONTICELLO AVE", "Lucity_ID": null}},
{"geometry": {"type": "Point", "coordinates": [-79.1798368, 37.4047275]}, "type": "Feature", "properties": {"Name": null, "OBJECTID": 220, "Facility": "LAUREL Regional Program", "Notes": null, "Locality": "Lynchburg", "Parcel_ID": "01410001", "Address": "401 MONTICELLO AVE", "Lucity_ID": null}},
{"geometry": {"type": "Point", "coordinates": [-79.1797397, 37.4048154]}, "type": "Feature", "properties": {"Name": null, "OBJECTID": 221, "Facility": "LAUREL Regional Program", "Notes": null, "Locality": "Lynchburg", "Parcel_ID": "01410001", "Address": "401 MONTICELLO AVE", "Lucity_ID": null}},
{"geometry": {"type": "Point", "coordinates": [-79.1664063, 37.3924322]}, "type": "Feature", "properties": {"Name": null, "OBJECTID": 222, "Facility": "City Stadium", "Notes": null, "Locality": "Lynchburg", "Parcel_ID": "01202001", "Address": "3180 FORT AVE", "Lucity_ID": null}},
{"geometry": {"type": "Point", "coordinates": [-79.1667987, 37.3924777]}, "type": "Feature", "properties": {"Name": null, "OBJECTID": 223, "Facility": "City Stadium", "Notes": null, "Locality": "Lynchburg", "Parcel_ID": "01202001", "Address": "3180 FORT AVE", "Lucity_ID": null}},
{"geometry": {"type": "Point", "coordinates": [-79.1676745, 37.3931155]}, "type": "Feature", "properties": {"Name": null, "OBJECTID": 224, "Facility": "City Stadium", "Notes": null, "Locality": "Lynchburg", "Parcel_ID": "01202001", "Address": "3180 FORT AVE", "Lucity_ID": null}},
{"geometry": {"type": "Point", "coordinates": [-79.168137, 37.3935172]}, "type": "Feature", "properties": {"Name": null, "OBJECTID": 225, "Facility": "City Stadium", "Notes": null, "Locality": "Lynchburg", "Parcel_ID": "01202001", "Address": "3180 FORT AVE", "Lucity_ID": null}},
{"geometry": {"type": "Point", "coordinates": [-79.1679943, 37.3930508]}, "type": "Feature", "properties": {"Name": null, "OBJECTID": 226, "Facility": "City Stadium", "Notes": null, "Locality": "Lynchburg", "Parcel_ID": "01202001", "Address": "3180 FORT AVE", "Lucity_ID": null}},
{"geometry": {"type": "Point", "coordinates": [-79.1666956, 37.3940594]}, "type": "Feature", "properties": {"Name": null, "OBJECTID": 227, "Facility": "City Stadium", "Notes": null, "Locality": "Lynchburg", "Parcel_ID": "01202001", "Address": "3180 FORT AVE", "Lucity_ID": null}},
{"geometry": {"type": "Point", "coordinates": [-79.1666279, 37.393438]}, "type": "Feature", "properties": {"Name": null, "OBJECTID": 228, "Facility": "City Stadium", "Notes": null, "Locality": "Lynchburg", "Parcel_ID": "01202001", "Address": "3180 FORT AVE", "Lucity_ID": null}},
{"geometry": {"type": "Point", "coordinates": [-79.1664461, 37.3936908]}, "type": "Feature", "properties": {"Name": null, "OBJECTID": 229, "Facility": "City Stadium", "Notes": null, "Locality": "Lynchburg", "Parcel_ID": "01202001", "Address": "3180 FORT AVE", "Lucity_ID": null}},
{"geometry": {"type": "Point", "coordinates": [-79.1412767, 37.4147843]}, "type": "Feature", "properties": {"Name": "Midtown Parking Deck", "OBJECTID": 230, "Facility": "Midtown Parking Deck", "Notes": null, "Locality": "Lynchburg", "Parcel_ID": "02449002", "Address": "914 MAIN ST", "Lucity_ID": null}},
{"geometry": {"type": "Point", "coordinates": [-79.2330752, 37.4056086]}, "type": "Feature", "properties": {"Name": null, "OBJECTID": 231, "Facility": "Ivy Creek Park", "Notes": null, "Locality": "Lynchburg", "Parcel_ID": "22501004", "Address": "118 CLEMMONS LAKE PL", "Lucity_ID": null}},
{"geometry": {"type": "Point", "coordinates": [-79.15961, 37.403738]}, "type": "Feature", "properties": {"Name": null, "OBJECTID": 232, "Facility": "Miller Park", "Notes": null, "Locality": "Lynchburg", "Parcel_ID": "01103001", "Address": "2100 PARK AVE", "Lucity_ID": null}},
{"geometry": {"type": "Point", "coordinates": [-79.1582968, 37.4048589]}, "type": "Feature", "properties": {"Name": null, "OBJECTID": 233, "Facility": null, "Notes": null, "Locality": "Lynchburg", "Parcel_ID": "01058006", "Address": "1824 PARK AVE", "Lucity_ID": null}},
{"geometry": {"type": "Point", "coordinates": [-79.2037652, 37.3806695]}, "type": "Feature", "properties": {"Name": "Sandusky Elementary School", "OBJECTID": 234, "Facility": "Sandusky Elementary School", "Notes": null, "Locality": "Lynchburg", "Parcel_ID": "15609005", "Address": "5828 APACHE LN", "Lucity_ID": null}},
{"geometry": {"type": "Point", "coordinates": [-79.2024534, 37.3795863]}, "type": "Feature", "properties": {"Name": "Sandusky Middle School", "OBJECTID": 235, "Facility": "Sandusky Middle School", "Notes": null, "Locality": "Lynchburg", "Parcel_ID": "15609005", "Address": "5828 APACHE LN", "Lucity_ID": null}},
{"geometry": {"type": "Point", "coordinates": [-79.2030349, 37.3788097]}, "type": "Feature", "properties": {"Name": null, "OBJECTID": 236, "Facility": "Sandusky Middle School", "Notes": null, "Locality": "Lynchburg", "Parcel_ID": "15609005", "Address": "5828 APACHE LN", "Lucity_ID": null}},
{"geometry": {"type": "Point", "coordinates": [-79.1438477, 37.4129622]}, "type": "Feature", "properties": {"Name": "School Administration Building", "OBJECTID": 237, "Facility": "School Administration Building", "Notes": null, "Locality": "Lynchburg", "Parcel_ID": "02452001", "Address": "905 COURT ST", "Lucity_ID": null}},
{"geometry": {"type": "Point", "coordinates": [-79.2111727, 37.4385328]}, "type": "Feature", "properties": {"Name": "Beford Hills Elementary School", "OBJECTID": 238, "Facility": "Beford Hills Elementary School", "Notes": null, "Locality": "Lynchburg", "Parcel_ID": "18005001", "Address": "4330 MORNINGSIDE DR", "Lucity_ID": null}},
{"geometry": {"type": "Point", "coordinates": [-79.1313491, 37.4061611]}, "type": "Feature", "properties": {"Name": null, "OBJECTID": 239, "Facility": null, "Notes": null, "Locality": "Lynchburg", "Parcel_ID": "04720005", "Address": "1651 CONCORD TPKE", "Lucity_ID": null}},
{"geometry": {"type": "Point", "coordinates": [-79.140896, 37.3918707]}, "type": "Feature", "properties": {"Name": "W.M. Bass Elementary School", "OBJECTID": 240, "Facility": "W.M. Bass Elementary School", "Notes": null, "Locality": "Lynchburg", "Parcel_ID": "04917003", "Address": "1730 SEABURY AVE", "Lucity_ID": null}},
{"geometry": {"type": "Point", "coordinates": [-79.1101874, 37.3949255]}, "type": "Feature", "properties": {"Name": null, "OBJECTID": 241, "Facility": "Regional Landfill", "Notes": null, "Locality": "Lynchburg", "Parcel_ID": "28001003", "Address": "2505 CONCORD TPKE", "Lucity_ID": null}},
{"geometry": {"type": "Point", "coordinates": [-79.1634404, 37.4383003]}, "type": "Feature", "properties": {"Name": null, "OBJECTID": 242, "Facility": "Riverside Park", "Notes": null, "Locality": "Lynchburg", "Parcel_ID": "02001001", "Address": "2238 RIVERMONT AVE", "Lucity_ID": null}},
{"geometry": {"type": "Point", "coordinates": [-79.1629162, 37.439356]}, "type": "Feature", "properties": {"Name": "Riverside Park Packet Boat House", "OBJECTID": 243, "Facility": "Riverside Park", "Notes": null, "Locality": "Lynchburg", "Parcel_ID": "02001001", "Address": "2238 RIVERMONT AVE", "Lucity_ID": null}},
{"geometry": {"type": "Point", "coordinates": [-79.1579494, 37.3726652]}, "type": "Feature", "properties": {"Name": null, "OBJECTID": 244, "Facility": null, "Notes": null, "Locality": "Lynchburg", "Parcel_ID": "11501003", "Address": "3525 JOHN CAPRON RD", "Lucity_ID": null}},
{"geometry": {"type": "Point", "coordinates": [-79.1576794, 37.3735484]}, "type": "Feature", "properties": {"Name": null, "OBJECTID": 245, "Facility": null, "Notes": null, "Locality": "Lynchburg", "Parcel_ID": "11501003", "Address": "3525 JOHN CAPRON RD", "Lucity_ID": null}},
{"geometry": {"type": "Point", "coordinates": [-79.157782, 37.3724084]}, "type": "Feature", "properties": {"Name": null, "OBJECTID": 246, "Facility": null, "Notes": null, "Locality": "Lynchburg", "Parcel_ID": "11501003", "Address": "3525 JOHN CAPRON RD", "Lucity_ID": null}},
{"geometry": {"type": "Point", "coordinates": [-79.1574336, 37.4140653]}, "type": "Feature", "properties": {"Name": null, "OBJECTID": 247, "Facility": "Old City Cemetery", "Notes": null, "Locality": "Lynchburg", "Parcel_ID": "00927001", "Address": "301 MONROE ST", "Lucity_ID": null}},
{"geometry": {"type": "Point", "coordinates": [-79.1579356, 37.4135345]}, "type": "Feature", "properties": {"Name": null, "OBJECTID": 248, "Facility": "Old City Cemetery", "Notes": null, "Locality": "Lynchburg", "Parcel_ID": "00927001", "Address": "301 MONROE ST", "Lucity_ID": null}},
{"geometry": {"type": "Point", "coordinates": [-79.1581638, 37.4143355]}, "type": "Feature", "properties": {"Name": null, "OBJECTID": 249, "Facility": "Old City Cemetery", "Notes": null, "Locality": "Lynchburg", "Parcel_ID": "00927001", "Address": "301 MONROE ST", "Lucity_ID": null}},
{"geometry": {"type": "Point", "coordinates": [-79.1584618, 37.4154245]}, "type": "Feature", "properties": {"Name": null, "OBJECTID": 250, "Facility": "Old City Cemetery", "Notes": null, "Locality": "Lynchburg", "Parcel_ID": "00927001", "Address": "301 MONROE ST", "Lucity_ID": null}},
{"geometry": {"type": "Point", "coordinates": [-79.1585425, 37.4154336]}, "type": "Feature", "properties": {"Name": null, "OBJECTID": 251, "Facility": "Old City Cemetery", "Notes": null, "Locality": "Lynchburg", "Parcel_ID": "00927001", "Address": "301 MONROE ST", "Lucity_ID": null}},
{"geometry": {"type": "Point", "coordinates": [-79.1882354, 37.389423]}, "type": "Feature", "properties": {"Name": "Perrymont Elementary School", "OBJECTID": 252, "Facility": "Perrymont Elementary School", "Notes": null, "Locality": "Lynchburg", "Parcel_ID": "05613002", "Address": "409 PERRYMONT AVE", "Lucity_ID": null}},
{"geometry": {"type": "Point", "coordinates": [-79.1340356, 37.40229]}, "type": "Feature", "properties": {"Name": "Lyn-CAG Head Start", "OBJECTID": 253, "Facility": "White Rock School", "Notes": null, "Locality": "Lynchburg", "Parcel_ID": "04830001", "Address": "400 BUENA VISTA ST", "Lucity_ID": null}},
{"geometry": {"type": "Point", "coordinates": [-79.1665733, 37.4076687]}, "type": "Feature", "properties": {"Name": "E.C. Glass High School", "OBJECTID": 254, "Facility": "E.C. Glass High School", "Notes": null, "Locality": "Lynchburg", "Parcel_ID": "00402002", "Address": "2111 MEMORIAL AVE", "Lucity_ID": null}},
{"geometry": {"type": "Point", "coordinates": [-79.1460435, 37.4077739]}, "type": "Feature", "properties": {"Name": null, "OBJECTID": 255, "Facility": "P.L. Dunbar Middle School", "Notes": null, "Locality": "Lynchburg", "Parcel_ID": "02515001", "Address": "901 14TH ST", "Lucity_ID": null}},
{"geometry": {"type": "Point", "coordinates": [-79.1544367, 37.4122987]}, "type": "Feature", "properties": {"Name": null, "OBJECTID": 256, "Facility": "College Hill Filtration Plant", "Notes": null, "Locality": "Lynchburg", "Parcel_ID": "01029003", "Address": "525 TAYLOR ST", "Lucity_ID": null}},
{"geometry": {"type": "Point", "coordinates": [-79.1543971, 37.4122496]}, "type": "Feature", "properties": {"Name": null, "OBJECTID": 257, "Facility": "College Hill Filtration Plant", "Notes": null, "Locality": "Lynchburg", "Parcel_ID": "01029003", "Address": "525 TAYLOR ST", "Lucity_ID": null}},
{"geometry": {"type": "Point", "coordinates": [-79.1543615, 37.4121938]}, "type": "Feature", "properties": {"Name": null, "OBJECTID": 258, "Facility": "College Hill Filtration Plant", "Notes": null, "Locality": "Lynchburg", "Parcel_ID": "01029003", "Address": "525 TAYLOR ST", "Lucity_ID": null}},
{"geometry": {"type": "Point", "coordinates": [-79.1557916, 37.4103412]}, "type": "Feature", "properties": {"Name": null, "OBJECTID": 259, "Facility": "College Hill Filtration Plant", "Notes": null, "Locality": "Lynchburg", "Parcel_ID": "01028001", "Address": "601 TAYLOR ST", "Lucity_ID": null}},
{"geometry": {"type": "Point", "coordinates": [-79.1557953, 37.4107628]}, "type": "Feature", "properties": {"Name": null, "OBJECTID": 260, "Facility": "College Hill Filtration Plant", "Notes": null, "Locality": "Lynchburg", "Parcel_ID": "01028001", "Address": "601 TAYLOR ST", "Lucity_ID": null}},
{"geometry": {"type": "Point", "coordinates": [-79.1630211, 37.4130861]}, "type": "Feature", "properties": {"Name": null, "OBJECTID": 261, "Facility": "Dearington Elementary School", "Notes": null, "Locality": "Lynchburg", "Parcel_ID": "00235005", "Address": "1702 1ST ST", "Lucity_ID": null}},
{"geometry": {"type": "Point", "coordinates": [-79.1106877, 37.395054]}, "type": "Feature", "properties": {"Name": null, "OBJECTID": 262, "Facility": "Regional Landfill", "Notes": null, "Locality": "Lynchburg", "Parcel_ID": "28001003", "Address": "2505 CONCORD TPKE", "Lucity_ID": null}},
{"geometry": {"type": "Point", "coordinates": [-79.1101338, 37.3944056]}, "type": "Feature", "properties": {"Name": "Scale House", "OBJECTID": 263, "Facility": "Regional Landfill", "Notes": null, "Locality": "Lynchburg", "Parcel_ID": "28001006", "Address": "2501 CONCORD TPKE", "Lucity_ID": null}},
{"geometry": {"type": "Point", "coordinates": [-79.2108954, 37.3256717]}, "type": "Feature", "properties": {"Name": "Training Tower", "OBJECTID": 264, "Facility": "Fire Training Center", "Notes": null, "Locality": "Campbell County", "Parcel_ID": null, "Address": "607 TRANING CENTER RD", "Lucity_ID": null}},
{"geometry": {"type": "Point", "coordinates": [-79.2095853, 37.324857]}, "type": "Feature", "properties": {"Name": "Storage Building", "OBJECTID": 265, "Facility": "Fire Training Center", "Notes": null, "Locality": "Campbell County", "Parcel_ID": null, "Address": "675 TRANING CENTER RD", "Lucity_ID": null}},
{"geometry": {"type": "Point", "coordinates": [-79.2093197, 37.324793]}, "type": "Feature", "properties": {"Name": "Burn Building", "OBJECTID": 266, "Facility": "Fire Training Center", "Notes": null, "Locality": "Campbell County", "Parcel_ID": null, "Address": "679 TRANING CENTER RD", "Lucity_ID": null}},
{"geometry": {"type": "Point", "coordinates": [-79.2081845, 37.3243975]}, "type": "Feature", "properties": {"Name": "Confined Space Simulator", "OBJECTID": 267, "Facility": "Fire Training Center", "Notes": null, "Locality": "Campbell County", "Parcel_ID": null, "Address": "683 TRAINING CENTER RD", "Lucity_ID": null}},
{"geometry": {"type": "Point", "coordinates": [-79.2081836, 37.325802]}, "type": "Feature", "properties": {"Name": "Pavilion", "OBJECTID": 268, "Facility": "Fire Training Center", "Notes": null, "Locality": "Campbell County", "Parcel_ID": null, "Address": "728 TRANING CENTER RD", "Lucity_ID": null}},
{"geometry": {"type": "Point", "coordinates": [-79.2080017, 37.3242438]}, "type": "Feature", "properties": {"Name": "Mayday Simulator ", "OBJECTID": 269, "Facility": "Fire Training Center", "Notes": null, "Locality": "Campbell County", "Parcel_ID": null, "Address": "683 TRAINING CENTER RD", "Lucity_ID": null}},
{"geometry": {"type": "Point", "coordinates": [-79.2078814, 37.3260518]}, "type": "Feature", "properties": {"Name": "Trench Simulator", "OBJECTID": 270, "Facility": "Fire Trianing Center", "Notes": null, "Locality": "Campbell County", "Parcel_ID": null, "Address": "728 TRANING CENTER RD", "Lucity_ID": null}},
{"geometry": {"type": "Point", "coordinates": [-79.2089313, 37.3253111]}, "type": "Feature", "properties": {"Name": "Pond", "OBJECTID": 271, "Facility": "Fire Training Center", "Notes": null, "Locality": "Campbell County", "Parcel_ID": null, "Address": "728 TRANING CENTER RD", "Lucity_ID": null}},
{"geometry": {"type": "Point", "coordinates": [-79.1734367, 37.3440694]}, "type": "Feature", "properties": {"Name": "Candlers Mountain .5 Storage Tank", "OBJECTID": 272, "Facility": null, "Notes": null, "Locality": "Campbell County", "Parcel_ID": null, "Address": "4520 CANDLERS MOUNTAIN RD", "Lucity_ID": null}},
{"geometry": {"type": "Point", "coordinates": [-79.1946342, 37.3305288]}, "type": "Feature", "properties": {"Name": "Parking Booth", "OBJECTID": 273, "Facility": "Lynchburg Regional Airport", "Notes": null, "Locality": "Campbell County", "Parcel_ID": null, "Address": "350 TERMINAL DR", "Lucity_ID": null}},
{"geometry": {"type": "Point", "coordinates": [-79.1923794, 37.3317958]}, "type": "Feature", "properties": {"Name": null, "OBJECTID": 274, "Facility": "Lynchburg Regional Airport", "Notes": null, "Locality": "Campbell County", "Parcel_ID": null, "Address": "350 TERMINAL DR", "Lucity_ID": null}},
{"geometry": {"type": "Point", "coordinates": [-79.2109508, 37.3227393]}, "type": "Feature", "properties": {"Name": "Classroom", "OBJECTID": 275, "Facility": "Firing Range", "Notes": null, "Locality": "Campbell County", "Parcel_ID": null, "Address": "493 TRAINING CENTER RD", "Lucity_ID": null}},
{"geometry": {"type": "Point", "coordinates": [-79.2110161, 37.3225651]}, "type": "Feature", "properties": {"Name": "Cleaning Shed", "OBJECTID": 276, "Facility": "Firing Range", "Notes": null, "Locality": "Campbell County", "Parcel_ID": null, "Address": "497 TRAINING CENTER RD", "Lucity_ID": null}},
{"geometry": {"type": "Point", "coordinates": [-79.211466, 37.321974]}, "type": "Feature", "properties": {"Name": "Firing Line", "OBJECTID": 277, "Facility": "Firing Range", "Notes": null, "Locality": "Campbell County", "Parcel_ID": null, "Address": "497 TRAINING CENTER RD", "Lucity_ID": null}},
{"geometry": {"type": "Point", "coordinates": [-79.2118625, 37.3221133]}, "type": "Feature", "properties": {"Name": "Shoot House", "OBJECTID": 278, "Facility": "Firing Range", "Notes": null, "Locality": "Campbell County", "Parcel_ID": null, "Address": "497 TRAINING CENTER RD", "Lucity_ID": null}},
{"geometry": {"type": "Point", "coordinates": [-79.2110926, 37.3225058]}, "type": "Feature", "properties": {"Name": "Armorer Shed", "OBJECTID": 279, "Facility": "Firing Range", "Notes": null, "Locality": "Campbell County", "Parcel_ID": null, "Address": "497 TRAINING CENTER RD", "Lucity_ID": null}},
{"geometry": {"type": "Point", "coordinates": [-79.2116981, 37.3220876]}, "type": "Feature", "properties": {"Name": "Target and Supply Storage", "OBJECTID": 280, "Facility": "Firing Range", "Notes": null, "Locality": "Campbell County", "Parcel_ID": null, "Address": "497 TRAINING CENTER RD", "Lucity_ID": null}},
{"geometry": {"type": "Point", "coordinates": [-79.2061376, 37.3254183]}, "type": "Feature", "properties": {"Name": "T-Hangers", "OBJECTID": 281, "Facility": "Lynchburg Regional Airport", "Notes": null, "Locality": "Campbell County", "Parcel_ID": null, "Address": "350 TERMINAL DR", "Lucity_ID": null}},
{"geometry": {"type": "Point", "coordinates": [-79.2064742, 37.3247314]}, "type": "Feature", "properties": {"Name": "Airfield Maintenance Building", "OBJECTID": 282, "Facility": "Lynchburg Regional Airport", "Notes": null, "Locality": "Campbell County", "Parcel_ID": null, "Address": "350 TERMINAL DR", "Lucity_ID": null}},
{"geometry": {"type": "Point", "coordinates": [-79.2034595, 37.3288311]}, "type": "Feature", "properties": {"Name": "Grounds Maintenance Building", "OBJECTID": 283, "Facility": "Lynchburg Regional Airport", "Notes": null, "Locality": "Campbell County", "Parcel_ID": null, "Address": "350 TERMINAL DR", "Lucity_ID": null}},
{"geometry": {"type": "Point", "coordinates": [-79.1929741, 37.328263]}, "type": "Feature", "properties": {"Name": "Car Wash Building", "OBJECTID": 284, "Facility": "Lynchburg Regional Airport", "Notes": null, "Locality": "Campbell County", "Parcel_ID": null, "Address": "350 TERMINAL DR", "Lucity_ID": null}},
{"geometry": {"type": "Point", "coordinates": [-79.2023814, 37.3293302]}, "type": "Feature", "properties": {"Name": "Airport Tower", "OBJECTID": 285, "Facility": "Lynchburg Regional Airport", "Notes": null, "Locality": "Campbell County", "Parcel_ID": null, "Address": "350 TERMINAL DR", "Lucity_ID": null}}
]}