{"type":"FeatureCollection","features":[
{"geometry": {"type": "Point", "coordinates": [-79.2090341, 37.3596632]}, "type": "Feature", "properties": {"Flasher_ID": "FL-022", "GlobalID": "{8B24A1D2-3660-4391-914A-EBAFE676468E}", "OBJECTID": 22, "Creator": null, "Color": "Yellow Flasher", "Number": null, "DateCreated": null, "Location": "Leesville inbound near Timberlake", "Power_Source": null, "Type": "School Zone Flasher"}},
{"geometry": {"type": "Point", "coordinates": [-79.2064229, 37.3645005]}, "type": "Feature", "properties": {"Flasher_ID": "FL-023", "GlobalID": "{3C73FBFA-5F8B-4325-8397-4EE126B718FD}", "OBJECTID": 23, "Creator": null, "Color": "Yellow Flasher", "Number": null, "DateCreated": null, "Location": "Timberlake outbound near Logans", "Power_Source": null, "Type": "School Zone Flasher"}},
{"geometry": {"type": "Point", "coordinates": [-79.2106061, 37.3615787]}, "type": "Feature", "properties": {"Flasher_ID": "FL-024", "GlobalID": "{25C331B1-828E-4B3C-A0AF-ABE0BD66E1AD}", "OBJECTID": 24, "Creator": null, "Color": "Yellow Flasher", "Number": null, "DateCreated": null, "Location": "Timberlake inbound near Middleview", "Power_Source": null, "Type": "School Zone Flasher"}},
{"geometry": {"type": "Point", "coordinates": [-79.1790304, 37.413504]}, "type": "Feature", "properties": {"Flasher_ID": "FL-025", "GlobalID": "{2D13A762-898E-4C83-86E6-0C7F4FA46F24}", "OBJECTID": 25, "Creator": null, "Color": "Yellow Flasher", "Number": null, "DateCreated": null, "Location": "Langhorne inbound at Tatesprings", "Power_Source": null, "Type": "School Zone Flasher"}},
{"geometry": {"type": "Point", "coordinates": [-79.1750621, 37.4135032]}, "type": "Feature", "properties": {"Flasher_ID": "FL-026", "GlobalID": "{7B3792F0-BDDF-464F-AD1B-59373AD88AD6}", "OBJECTID": 26, "Creator": null, "Color": "Yellow Flasher", "Number": null, "DateCreated": null, "Location": "Langhorne outbound near Tatesprings", "Power_Source": null, "Type": "School Zone Flasher"}},
{"geometry": {"type": "Point", "coordinates": [-79.2308239, 37.4433447]}, "type": "Feature", "properties": {"Flasher_ID": "FL-027", "GlobalID": "{30435F49-1AF3-44C8-975E-DE458D8E0976}", "OBJECTID": 27, "Creator": null, "Color": "Yellow Flasher", "Number": null, "DateCreated": null, "Location": "Boonsboro inbound near Irvington Springs", "Power_Source": null, "Type": "School Zone Flasher"}},
{"geometry": {"type": "Point", "coordinates": [-79.2253845, 37.4459935]}, "type": "Feature", "properties": {"Flasher_ID": "FL-028", "GlobalID": "{44E2A653-9325-4D49-BE36-382AF861101C}", "OBJECTID": 28, "Creator": null, "Color": "Yellow Flasher", "Number": null, "DateCreated": null, "Location": "Boonsboro outbound near Meriweather", "Power_Source": null, "Type": "School Zone Flasher"}},
{"geometry": {"type": "Point", "coordinates": [-79.1929734, 37.4188953]}, "type": "Feature", "properties": {"Flasher_ID": "FL-029", "GlobalID": "{D6A8B1B6-D019-4033-9B07-CD8E0F8FE98B}", "OBJECTID": 29, "Creator": null, "Color": "Yellow Flasher", "Number": null, "DateCreated": null, "Location": "Cranehill near Oriole", "Power_Source": "Battery/Solar", "Type": "School Zone Flasher"}},
{"geometry": {"type": "Point", "coordinates": [-79.1979167, 37.4200894]}, "type": "Feature", "properties": {"Flasher_ID": "FL-030", "GlobalID": "{E30101FD-99D2-425E-B92E-E49B00EF032D}", "OBJECTID": 30, "Creator": null, "Color": "Yellow Flasher", "Number": null, "DateCreated": null, "Location": "Cranehill near Interlink", "Power_Source": null, "Type": "School Zone Flasher"}},
{"geometry": {"type": "Point", "coordinates": [-79.1985771, 37.4171069]}, "type": "Feature", "properties": {"Flasher_ID": "FL-031", "GlobalID": "{312F7C74-30B6-40F0-8CDF-F68682681988}", "OBJECTID": 31, "Creator": null, "Color": "Yellow Flasher", "Number": null, "DateCreated": null, "Location": "Linkhorne near Ravenwood", "Power_Source": "Battery/Solar", "Type": "School Zone Flasher"}},
{"geometry": {"type": "Point", "coordinates": [-79.189042, 37.3916316]}, "type": "Feature", "properties": {"Flasher_ID": "FL-032", "GlobalID": "{909D4830-C0FA-4162-B4BA-B99F66F473E2}", "OBJECTID": 32, "Creator": null, "Color": "Yellow Flasher", "Number": null, "DateCreated": null, "Location": "Perrymont near Oakdale", "Power_Source": "Battery/Solar", "Type": "School Zone Flasher"}},
{"geometry": {"type": "Point", "coordinates": [-79.1848596, 37.3879809]}, "type": "Feature", "properties": {"Flasher_ID": "FL-033", "GlobalID": "{8EA9C6C0-64DD-4F4B-99E4-F7AF7830FFFC}", "OBJECTID": 33, "Creator": null, "Color": "Yellow Flasher", "Number": null, "DateCreated": null, "Location": "Perrymont near Alexander", "Power_Source": "Battery/Solar", "Type": "School Zone Flasher"}},
{"geometry": {"type": "Point", "coordinates": [-79.1523865, 37.4054454]}, "type": "Feature", "properties": {"Flasher_ID": "FL-034", "GlobalID": "{B6CF9F78-21E3-4B9E-99C7-D594606BC809}", "OBJECTID": 34, "Creator": null, "Color": "Yellow Flasher", "Number": null, "DateCreated": null, "Location": "12th between Filmore and Pierce", "Power_Source": "Battery/Solar", "Type": "School Zone Flasher"}},
{"geometry": {"type": "Point", "coordinates": [-79.1469392, 37.4086379]}, "type": "Feature", "properties": {"Flasher_ID": "FL-035", "GlobalID": "{41E0FC2C-A7A8-467A-A1A0-65B89C47B90E}", "OBJECTID": 35, "Creator": null, "Color": "Yellow Flasher", "Number": null, "DateCreated": null, "Location": "12th near Polk", "Power_Source": null, "Type": "School Zone Flasher"}},
{"geometry": {"type": "Point", "coordinates": [-79.1715575, 37.3627562]}, "type": "Feature", "properties": {"Flasher_ID": "FL-036", "GlobalID": "{B422896A-05B6-4910-A395-276DB6CDA24D}", "OBJECTID": 36, "Creator": null, "Color": "Yellow Flasher", "Number": null, "DateCreated": null, "Location": "Candlers Mt near Mountain View", "Power_Source": "Battery/Solar", "Type": "School Zone Flasher"}},
{"geometry": {"type": "Point", "coordinates": [-79.1718328, 37.3595232]}, "type": "Feature", "properties": {"Flasher_ID": "FL-037", "GlobalID": "{FA198E8D-1DDA-47C9-8BE3-3BD137821AA2}", "OBJECTID": 37, "Creator": null, "Color": "Yellow Flasher", "Number": null, "DateCreated": null, "Location": "Candlers Mt near Montview Forest", "Power_Source": "Battery/Solar", "Type": "School Zone Flasher"}},
{"geometry": {"type": "Point", "coordinates": [-79.1900046, 37.4506115]}, "type": "Feature", "properties": {"Flasher_ID": "FL-038", "GlobalID": "{7B4805D8-D4B3-4EAC-9123-06CC2E2A4689}", "OBJECTID": 38, "Creator": null, "Color": "Yellow Flasher", "Number": null, "DateCreated": null, "Location": "VES near Williams", "Power_Source": null, "Type": "School Zone Flasher"}},
{"geometry": {"type": "Point", "coordinates": [-79.1876975, 37.4531483]}, "type": "Feature", "properties": {"Flasher_ID": "FL-039", "GlobalID": "{C5332654-C0E9-4DFA-AEF3-6AB01A4FEF47}", "OBJECTID": 39, "Creator": null, "Color": "Yellow Flasher", "Number": null, "DateCreated": null, "Location": "VES between Williams and Oriskany", "Power_Source": null, "Type": "School Zone Flasher"}}
]}