{"type":"FeatureCollection","features":[
{"geometry": {"type": "Point", "coordinates": [-77.4105963, 38.0033371]}, "type": "Feature", "properties": {"Status": "Closed", "PHYSZIP": "22514", "EAC_NAME": "Caroline Middle", "OBJECTID": 16, "POWERPLANT": "North Anna Power Station", "FACILITYOWNER": "Caroline County Public Schools", "PHYSCITY": "Milford", "WEBSITEURL": "http://www.caroline.k12.va.us/education/school/school.php?sectionid=4&", "STATE": "VA", "PHYSADDRESS": "13325 Devils Three Jump Road", "OFFICEPHONE": "(804) 633-6561"}},
{"geometry": {"type": "Point", "coordinates": [-77.5330472, 37.7808716]}, "type": "Feature", "properties": {"Status": "Closed", "PHYSZIP": "23005", "EAC_NAME": "Liberty Middle", "OBJECTID": 17, "POWERPLANT": "North Anna Power Station", "FACILITYOWNER": "Hanover County Public Schools", "PHYSCITY": "Ashland", "WEBSITEURL": "http://hcps.us/lms/", "STATE": "VA", "PHYSADDRESS": "13496 Liberty School Road", "OFFICEPHONE": "(804) 365-8060"}},
{"geometry": {"type": "Point", "coordinates": [-77.4146856, 38.0004043]}, "type": "Feature", "properties": {"Status": "Closed", "PHYSZIP": "22514", "EAC_NAME": "Caroline High", "OBJECTID": 18, "POWERPLANT": "North Anna Power Station", "FACILITYOWNER": "Caroline County Public Schools", "PHYSCITY": "Milford", "WEBSITEURL": "http://www.caroline.k12.va.us/education/school/school.php?sectionid=5&", "STATE": "VA", "PHYSADDRESS": "19155 Rodgers Clark Blvd", "OFFICEPHONE": "(804) 633-9886"}},
{"geometry": {"type": "Point", "coordinates": [-78.1166799, 38.2395415]}, "type": "Feature", "properties": {"Status": "Closed", "PHYSZIP": "22960", "EAC_NAME": "Prospect Heights Middle", "OBJECTID": 20, "POWERPLANT": "North Anna Power Station", "FACILITYOWNER": "Orange County Public Schools", "PHYSCITY": "Orange", "WEBSITEURL": "http://www.ocss-va.info/phms/", "STATE": "VA", "PHYSADDRESS": "202 Dailey Drive", "OFFICEPHONE": "(540) 661-4400"}},
{"geometry": {"type": "Point", "coordinates": [-77.5517874, 38.2322718]}, "type": "Feature", "properties": {"Status": "Closed", "PHYSZIP": "22553", "EAC_NAME": "Courtland High", "OBJECTID": 23, "POWERPLANT": "North Anna Power Station", "FACILITYOWNER": "Spotsylvania County Public Schools", "PHYSCITY": "Spotsylvania", "WEBSITEURL": "http://www.spotsylvania.k12.va.us/chs/", "STATE": "VA", "PHYSADDRESS": "6701 Smith Station Rd", "OFFICEPHONE": "(540) 898-4445"}},
{"geometry": {"type": "Point", "coordinates": [-77.511468, 38.1824058]}, "type": "Feature", "properties": {"Status": "Closed", "PHYSZIP": "22407", "EAC_NAME": "Massaponax High", "OBJECTID": 24, "POWERPLANT": "North Anna Power Station", "FACILITYOWNER": "Spotsylvania County Public Schools", "PHYSCITY": "Fredericksburg", "WEBSITEURL": "http://www.spotsylvania.k12.va.us/mhs/default2.asp", "STATE": "VA", "PHYSADDRESS": "8201 Jefferson Davis Hwy", "OFFICEPHONE": "(540) 710-0419"}},
{"geometry": {"type": "Point", "coordinates": [-78.0891418, 37.9560794]}, "type": "Feature", "properties": {"Status": "Closed", "PHYSZIP": "23093", "EAC_NAME": "Moss-Nuckols Elementary School", "OBJECTID": 27, "POWERPLANT": "North Anna Power Station", "FACILITYOWNER": "Louisa County Public Schools", "PHYSCITY": "Louisa", "WEBSITEURL": "http://www.lcps.k12.va.us/education/school/school.php?sectionid=2263", "STATE": "VA", "PHYSADDRESS": "2055 Courthouse Road", "OFFICEPHONE": "(540) 967-1347"}}
]}