{"type":"FeatureCollection","features":[
{"geometry": {"type": "Point", "coordinates": [-77.710939, 37.5086667]}, "type": "Feature", "properties": {"PoiNum": 4, "PoiName": "Hallsborough Tavern", "GlobalID": "ba2b4c5a-52b2-4f27-99bf-8f15068e9af9", "OBJECTID": 1}},
{"geometry": {"type": "Point", "coordinates": [-77.642622, 37.4943928]}, "type": "Feature", "properties": {"PoiNum": 3, "PoiName": "Midlothian Mines", "GlobalID": "6ecaad31-6b2c-4607-8e47-4d21cae1b4e1", "OBJECTID": 2}},
{"geometry": {"type": "Point", "coordinates": [-77.6213217, 37.5117158]}, "type": "Feature", "properties": {"PoiNum": 2, "PoiName": "Pleasant View (Trabues Tavern)", "GlobalID": "f15eace0-ef81-49fa-9c69-5437cf700387", "OBJECTID": 3}},
{"geometry": {"type": "Point", "coordinates": [-77.634421, 37.4537782]}, "type": "Feature", "properties": {"PoiNum": 5, "PoiName": "River City Sportsplex", "GlobalID": "d37eba3f-1555-4d08-9413-a76adf70f136", "OBJECTID": 4}},
{"geometry": {"type": "Point", "coordinates": [-77.6355443, 37.422929]}, "type": "Feature", "properties": {"PoiNum": 6, "PoiName": "Tomahawk Church", "GlobalID": "b98ce32f-1e5d-4b8f-8603-afb5d8185b4a", "OBJECTID": 5}},
{"geometry": {"type": "Point", "coordinates": [-77.7115395, 37.3547623]}, "type": "Feature", "properties": {"PoiNum": 8, "PoiName": "Clover Hill Plantation House", "GlobalID": "1c2ca4f2-5b01-411a-a28d-2450175ff9a9", "OBJECTID": 6}},
{"geometry": {"type": "Point", "coordinates": [-77.6798812, 37.3610626]}, "type": "Feature", "properties": {"PoiNum": 7, "PoiName": "Bethia (Heritage) Church", "GlobalID": "0692510d-85d9-49fd-9291-d889431afd7c", "OBJECTID": 7}},
{"geometry": {"type": "Point", "coordinates": [-77.7349232, 37.2957937]}, "type": "Feature", "properties": {"PoiNum": 9, "PoiName": "Eppington Plantation", "GlobalID": "b4708bbb-0646-40d2-8a7b-3edde8a25cd5", "OBJECTID": 8}},
{"geometry": {"type": "Point", "coordinates": [-77.4436608, 37.3552104]}, "type": "Feature", "properties": {"PoiNum": 16, "PoiName": "Chester Collegiate Institute", "GlobalID": "95068578-b886-4856-a76d-99b45b0d5855", "OBJECTID": 9}},
{"geometry": {"type": "Point", "coordinates": [-77.5068748, 37.3764904]}, "type": "Feature", "properties": {"PoiNum": 15, "PoiName": "Courthouse Historic Complex", "GlobalID": "7cba8489-59b4-4c94-a6fd-2114937f3790", "OBJECTID": 10}},
{"geometry": {"type": "Point", "coordinates": [-77.4883311, 37.3766445]}, "type": "Feature", "properties": {"PoiNum": 14, "PoiName": "Salem Baptist Church", "GlobalID": "23ebad1f-7796-49be-9b84-4ce5676d4877", "OBJECTID": 11}},
{"geometry": {"type": "Point", "coordinates": [-77.4305186, 37.3593706]}, "type": "Feature", "properties": {"PoiNum": 17, "PoiName": "Chester Presbyterian Chapel", "GlobalID": "2a9f7d0c-52a8-4ab7-9b81-2d5cbbf8e528", "OBJECTID": 12}},
{"geometry": {"type": "Point", "coordinates": [-77.4243763, 37.3855777]}, "type": "Feature", "properties": {"PoiNum": 13, "PoiName": "Halfway House Tavern", "GlobalID": "3b31ac92-bc03-4c4d-bc20-a518e589e7e4", "OBJECTID": 13}},
{"geometry": {"type": "Point", "coordinates": [-77.3372529, 37.3199076]}, "type": "Feature", "properties": {"PoiNum": 20, "PoiName": "Historic Point of Rocks", "GlobalID": "6d2cc945-92cf-4825-89ce-7e3a5ece5fd3", "OBJECTID": 14}},
{"geometry": {"type": "Point", "coordinates": [-77.4925509, 37.4496245]}, "type": "Feature", "properties": {"PoiNum": 10, "PoiName": "Collegiate School Aquatics Center", "GlobalID": "56b8d78e-0489-4975-85ed-06b5df27db99", "OBJECTID": 15}},
{"geometry": {"type": "Point", "coordinates": [-77.438153, 37.4377091]}, "type": "Feature", "properties": {"PoiNum": 11, "PoiName": "Falling Creek Ironworks", "GlobalID": "cae7576f-3f77-486c-a199-25a1897d5c86", "OBJECTID": 16}},
{"geometry": {"type": "Point", "coordinates": [-77.3900185, 37.3441906]}, "type": "Feature", "properties": {"PoiNum": 18, "PoiName": "Ware Bottom Church Battlefield", "GlobalID": "4f25fe93-e370-4bff-9ed5-64a22596a9d7", "OBJECTID": 17}},
{"geometry": {"type": "Point", "coordinates": [-77.411467, 37.2832997]}, "type": "Feature", "properties": {"PoiNum": 21, "PoiName": "Swift Creek Mill Theater", "GlobalID": "55097bfd-0ef2-425e-99ff-9e2e006f0c35", "OBJECTID": 18}},
{"geometry": {"type": "Point", "coordinates": [-77.4197007, 37.2338123]}, "type": "Feature", "properties": {"PoiNum": 22, "PoiName": "Virginia State University", "GlobalID": "26d268ea-4003-4867-bfc5-f43e5fbecbc7", "OBJECTID": 19}},
{"geometry": {"type": "Point", "coordinates": [-77.5619572, 37.5340083]}, "type": "Feature", "properties": {"PoiNum": 1, "PoiName": "Old Bon Air Village", "GlobalID": "47424941-c4e6-4e49-abc0-aa7dd18d14e5", "OBJECTID": 20}},
{"geometry": {"type": "Point", "coordinates": [-77.3609749, 37.3743206]}, "type": "Feature", "properties": {"PoiNum": 19, "PoiName": "City of Henricus Historical Park", "GlobalID": "5c1efd57-1355-4c59-a9a8-56c542189356", "OBJECTID": 21}},
{"geometry": {"type": "Point", "coordinates": [-77.4233246, 37.4212756]}, "type": "Feature", "properties": {"PoiNum": 12, "PoiName": "Fort Darling Historical Park", "GlobalID": "459fc73f-9262-4559-a8bb-1d012253f2ab", "OBJECTID": 22}}
]}