{"type":"FeatureCollection","features":[
{"geometry": {"type": "Point", "coordinates": [-77.4702863, 37.4592311]}, "type": "Feature", "properties": {"SchoolLevel": 2, "GlobalID": "aa30d826-61c4-490d-a296-daab88be2813", "OBJECTID": 1, "SchoolName": "FALLING CREEK MS"}},
{"geometry": {"type": "Point", "coordinates": [-77.6134443, 37.5291007]}, "type": "Feature", "properties": {"SchoolLevel": 2, "GlobalID": "8107bdf3-55f6-44f8-a8ef-440b6c45c6b9", "OBJECTID": 2, "SchoolName": "ROBIOUS MS"}},
{"geometry": {"type": "Point", "coordinates": [-77.6463104, 37.4398122]}, "type": "Feature", "properties": {"SchoolLevel": 2, "GlobalID": "80dc53ad-66fe-4992-910a-6240b105c69c", "OBJECTID": 3, "SchoolName": "SWIFT CREEK MS"}},
{"geometry": {"type": "Point", "coordinates": [-77.5295829, 37.4693644]}, "type": "Feature", "properties": {"SchoolLevel": 2, "GlobalID": "2c1f68b7-510b-4bc1-b288-b3530439d442", "OBJECTID": 4, "SchoolName": "MANCHESTER MS"}},
{"geometry": {"type": "Point", "coordinates": [-77.4874831, 37.3830672]}, "type": "Feature", "properties": {"SchoolLevel": 2, "GlobalID": "44155198-a5f4-4c6b-ae1e-081024c1a6d5", "OBJECTID": 5, "SchoolName": "SALEM CHURCH MS"}},
{"geometry": {"type": "Point", "coordinates": [-77.6490831, 37.5023447]}, "type": "Feature", "properties": {"SchoolLevel": 2, "GlobalID": "03e25b2e-13b9-4889-b75f-8fe00d47af18", "OBJECTID": 6, "SchoolName": "MIDLOTHIAN MS"}},
{"geometry": {"type": "Point", "coordinates": [-77.5426018, 37.4885379]}, "type": "Feature", "properties": {"SchoolLevel": 2, "GlobalID": "aec7ad79-7711-4ca2-bfc9-aa75805ba20a", "OBJECTID": 7, "SchoolName": "PROVIDENCE MS"}},
{"geometry": {"type": "Point", "coordinates": [-77.622841, 37.4079736]}, "type": "Feature", "properties": {"SchoolLevel": 2, "GlobalID": "93613ee1-48fb-45b8-8b4c-c38750f2f09a", "OBJECTID": 8, "SchoolName": "BAILEY BRIDGE MS"}},
{"geometry": {"type": "Point", "coordinates": [-77.4310506, 37.3024331]}, "type": "Feature", "properties": {"SchoolLevel": 2, "GlobalID": "66374979-1987-4874-8e61-2c64dc567a89", "OBJECTID": 9, "SchoolName": "CARVER MS"}},
{"geometry": {"type": "Point", "coordinates": [-77.4762659, 37.2450041]}, "type": "Feature", "properties": {"SchoolLevel": 2, "GlobalID": "c1a81e50-761e-4862-a6f9-9fb3d560d69a", "OBJECTID": 10, "SchoolName": "MATOACA MS WEST"}},
{"geometry": {"type": "Point", "coordinates": [-77.6697328, 37.4646812]}, "type": "Feature", "properties": {"SchoolLevel": 2, "GlobalID": "5a60278f-48a9-4463-8ff7-38efce5381e3", "OBJECTID": 11, "SchoolName": "TOMAHAWK CREEK MS"}},
{"geometry": {"type": "Point", "coordinates": [-77.3415634, 37.337361]}, "type": "Feature", "properties": {"SchoolLevel": 2, "GlobalID": "de612481-589c-4ec8-aa4d-7aa7006fcbe4", "OBJECTID": 12, "SchoolName": "ELIZABETH DAVIS MS"}},
{"geometry": {"type": "Point", "coordinates": [-77.436306, 37.4051219]}, "type": "Feature", "properties": {"SchoolLevel": 2, "GlobalID": "4fbff715-8fac-444d-a464-124653707115", "OBJECTID": 13, "SchoolName": "PERRYMONT MS"}},
{"geometry": {"type": "Point", "coordinates": [-77.4714681, 37.2524143]}, "type": "Feature", "properties": {"SchoolLevel": 2, "GlobalID": "625f5f25-8119-4d61-94c5-e54ca54af135", "OBJECTID": 14, "SchoolName": "MATOACA MS EAST"}},
{"geometry": {"type": "Point", "coordinates": [-77.5619227, 37.5276921]}, "type": "Feature", "properties": {"SchoolLevel": 1, "GlobalID": "7c430a25-bc17-419f-a10b-8d1101f2251b", "OBJECTID": 15, "SchoolName": "BON AIR ES"}},
{"geometry": {"type": "Point", "coordinates": [-77.5370555, 37.5261713]}, "type": "Feature", "properties": {"SchoolLevel": 1, "GlobalID": "97045b88-17b5-4561-8ddf-3cb57aec5736", "OBJECTID": 16, "SchoolName": "CRESTWOOD ES"}},
{"geometry": {"type": "Point", "coordinates": [-77.659007, 37.4510398]}, "type": "Feature", "properties": {"SchoolLevel": 1, "GlobalID": "41c784c9-f268-4563-9d7b-491b3f68d37c", "OBJECTID": 17, "SchoolName": "SWIFT CREEK ES"}},
{"geometry": {"type": "Point", "coordinates": [-77.6019719, 37.4588704]}, "type": "Feature", "properties": {"SchoolLevel": 1, "GlobalID": "5a1b7398-448b-4307-bc09-11f9039d0f12", "OBJECTID": 18, "SchoolName": "PROVIDENCE ES"}},
{"geometry": {"type": "Point", "coordinates": [-77.5866236, 37.4878976]}, "type": "Feature", "properties": {"SchoolLevel": 1, "GlobalID": "cc4e6d8b-8af1-426e-96d0-bd7079ffddde", "OBJECTID": 19, "SchoolName": "REAMS ES"}},
{"geometry": {"type": "Point", "coordinates": [-77.5456622, 37.4916253]}, "type": "Feature", "properties": {"SchoolLevel": 1, "GlobalID": "4493d653-0fb1-4f69-b868-a123047836ec", "OBJECTID": 20, "SchoolName": "DAVIS ES"}},
{"geometry": {"type": "Point", "coordinates": [-77.4698474, 37.4550778]}, "type": "Feature", "properties": {"SchoolLevel": 1, "GlobalID": "bbafba58-7f32-44a7-b68d-6e2fe9f5d3d2", "OBJECTID": 21, "SchoolName": "FALLING CREEK ES"}},
{"geometry": {"type": "Point", "coordinates": [-77.7660139, 37.3891098]}, "type": "Feature", "properties": {"SchoolLevel": 1, "GlobalID": "b86de619-75aa-41fa-b4f3-2d53e4db64e2", "OBJECTID": 22, "SchoolName": "GRANGE HALL ES"}},
{"geometry": {"type": "Point", "coordinates": [-77.673914, 37.420143]}, "type": "Feature", "properties": {"SchoolLevel": 1, "GlobalID": "64ac9dd1-f96e-445c-a4fe-f53c77de2f1b", "OBJECTID": 23, "SchoolName": "CLOVER HILL ES"}},
{"geometry": {"type": "Point", "coordinates": [-77.6898737, 37.4263916]}, "type": "Feature", "properties": {"SchoolLevel": 1, "GlobalID": "a85476e9-6ad8-4240-b1e2-2935909e3226", "OBJECTID": 24, "SchoolName": "WOOLRIDGE ES"}},
{"geometry": {"type": "Point", "coordinates": [-77.5028811, 37.3880707]}, "type": "Feature", "properties": {"SchoolLevel": 1, "GlobalID": "9be5d9ae-d7dc-48cf-b9cb-ef9821511a52", "OBJECTID": 25, "SchoolName": "O. B. GATES ES"}},
{"geometry": {"type": "Point", "coordinates": [-77.4853234, 37.3844409]}, "type": "Feature", "properties": {"SchoolLevel": 1, "GlobalID": "84fe1758-c2c6-4859-a04b-eebecd961f16", "OBJECTID": 26, "SchoolName": "SALEM CHURCH ES"}},
{"geometry": {"type": "Point", "coordinates": [-77.4526309, 37.4371232]}, "type": "Feature", "properties": {"SchoolLevel": 1, "GlobalID": "4b11ea62-626e-46d9-9413-f56daedc2c7e", "OBJECTID": 27, "SchoolName": "BENSLEY ES"}},
{"geometry": {"type": "Point", "coordinates": [-77.4620778, 37.3609376]}, "type": "Feature", "properties": {"SchoolLevel": 1, "GlobalID": "d41d505c-4435-4b49-86e9-09971ec9f9ab", "OBJECTID": 28, "SchoolName": "ECOFF ES"}},
{"geometry": {"type": "Point", "coordinates": [-77.4331084, 37.3606185]}, "type": "Feature", "properties": {"SchoolLevel": 1, "GlobalID": "d4210c16-d25f-4d7a-b46a-84af4b65de27", "OBJECTID": 29, "SchoolName": "CURTIS ES"}},
{"geometry": {"type": "Point", "coordinates": [-77.4252336, 37.3061209]}, "type": "Feature", "properties": {"SchoolLevel": 1, "GlobalID": "659a6af7-e679-44b6-a21a-ce7752303ffc", "OBJECTID": 30, "SchoolName": "HARROWGATE ES"}},
{"geometry": {"type": "Point", "coordinates": [-77.4821492, 37.2301939]}, "type": "Feature", "properties": {"SchoolLevel": 1, "GlobalID": "dc1c0b03-89f8-46ec-9562-7a93accf94cb", "OBJECTID": 31, "SchoolName": "MATOACA ES"}},
{"geometry": {"type": "Point", "coordinates": [-77.4267002, 37.2379885]}, "type": "Feature", "properties": {"SchoolLevel": 1, "GlobalID": "1ad32479-ba48-4ebc-a05c-4e0313ef5534", "OBJECTID": 32, "SchoolName": "ETTRICK ES"}},
{"geometry": {"type": "Point", "coordinates": [-77.6419169, 37.3955147]}, "type": "Feature", "properties": {"SchoolLevel": 1, "GlobalID": "4559b948-851d-4f59-8186-c016ecd3ae2b", "OBJECTID": 33, "SchoolName": "ALBERTA SMITH ES"}},
{"geometry": {"type": "Point", "coordinates": [-77.6524347, 37.4954505]}, "type": "Feature", "properties": {"SchoolLevel": 1, "GlobalID": "99b1b636-5dec-4e09-81fe-9d38c93b10a0", "OBJECTID": 34, "SchoolName": "WATKINS ES"}},
{"geometry": {"type": "Point", "coordinates": [-77.5191073, 37.4647335]}, "type": "Feature", "properties": {"SchoolLevel": 1, "GlobalID": "c4c397aa-b24c-40a2-849b-3b58ec3e0628", "OBJECTID": 35, "SchoolName": "CHALKLEY ES"}},
{"geometry": {"type": "Point", "coordinates": [-77.610196, 37.4173714]}, "type": "Feature", "properties": {"SchoolLevel": 1, "GlobalID": "9d70e222-e2ad-4036-9c97-970d794c967a", "OBJECTID": 36, "SchoolName": "THELMA CRENSHAW ES"}},
{"geometry": {"type": "Point", "coordinates": [-77.4414857, 37.391619]}, "type": "Feature", "properties": {"SchoolLevel": 1, "GlobalID": "32fc0f8a-b857-4bc1-bd6c-00794cd4c8a8", "OBJECTID": 37, "SchoolName": "BELLWOOD ES"}},
{"geometry": {"type": "Point", "coordinates": [-77.4312842, 37.2523852]}, "type": "Feature", "properties": {"SchoolLevel": 1, "GlobalID": "0fb07c02-549d-45e5-ace3-084441316d97", "OBJECTID": 38, "SchoolName": "ETTRICK ES ANNEX"}},
{"geometry": {"type": "Point", "coordinates": [-77.6130662, 37.5312345]}, "type": "Feature", "properties": {"SchoolLevel": 1, "GlobalID": "5c1e5a69-4c77-4882-a902-c6ab85401abd", "OBJECTID": 39, "SchoolName": "ROBIOUS ES"}},
{"geometry": {"type": "Point", "coordinates": [-77.3920109, 37.3211469]}, "type": "Feature", "properties": {"SchoolLevel": 1, "GlobalID": "68cf6d94-2343-4715-b9c8-0bc1877fb088", "OBJECTID": 40, "SchoolName": "MARGUERITE CHRISTIAN ES"}},
{"geometry": {"type": "Point", "coordinates": [-77.5536153, 37.4341087]}, "type": "Feature", "properties": {"SchoolLevel": 1, "GlobalID": "edde3038-91ae-4436-96e1-c931a77d0c08", "OBJECTID": 41, "SchoolName": "JACOBS RD ES"}},
{"geometry": {"type": "Point", "coordinates": [-77.4912795, 37.4465684]}, "type": "Feature", "properties": {"SchoolLevel": 1, "GlobalID": "b117d25f-8d56-43b9-b113-53cc682c6010", "OBJECTID": 42, "SchoolName": "HENING ES"}},
{"geometry": {"type": "Point", "coordinates": [-77.6519918, 37.3834734]}, "type": "Feature", "properties": {"SchoolLevel": 1, "GlobalID": "834deaf5-7419-4819-bc9f-99ef6455bd3f", "OBJECTID": 43, "SchoolName": "SPRING RUN ES"}},
{"geometry": {"type": "Point", "coordinates": [-77.4698802, 37.425708]}, "type": "Feature", "properties": {"SchoolLevel": 1, "GlobalID": "e2000207-d504-4427-8f74-4eb3ff8563e7", "OBJECTID": 44, "SchoolName": "BEULAH ES"}},
{"geometry": {"type": "Point", "coordinates": [-77.6490899, 37.5520127]}, "type": "Feature", "properties": {"SchoolLevel": 1, "GlobalID": "379bc3b9-d3e8-4a86-ab60-d460c05e9ba7", "OBJECTID": 45, "SchoolName": "WEAVER ES"}},
{"geometry": {"type": "Point", "coordinates": [-77.615831, 37.4780629]}, "type": "Feature", "properties": {"SchoolLevel": 1, "GlobalID": "4fa165ad-6aee-48d0-a7cf-59322ad4f9f4", "OBJECTID": 46, "SchoolName": "GORDON ES"}},
{"geometry": {"type": "Point", "coordinates": [-77.6318086, 37.4634067]}, "type": "Feature", "properties": {"SchoolLevel": 1, "GlobalID": "8971e009-fd54-4623-b0a0-ebb38644adc0", "OBJECTID": 47, "SchoolName": "EVERGREEN ES"}},
{"geometry": {"type": "Point", "coordinates": [-77.4396384, 37.3362256]}, "type": "Feature", "properties": {"SchoolLevel": 1, "GlobalID": "56c5f388-1519-4191-a917-0b365c22166b", "OBJECTID": 48, "SchoolName": "C. C. WELLS ES"}},
{"geometry": {"type": "Point", "coordinates": [-77.5909838, 37.518597]}, "type": "Feature", "properties": {"SchoolLevel": 1, "GlobalID": "435a27b6-2610-4273-ab61-8d8460392dc5", "OBJECTID": 49, "SchoolName": "GREENFIELD ES"}},
{"geometry": {"type": "Point", "coordinates": [-77.6542443, 37.5069886]}, "type": "Feature", "properties": {"SchoolLevel": 1, "GlobalID": "e742edab-4c33-4160-bdcd-ae5b747d099d", "OBJECTID": 50, "SchoolName": "WATKINS ES ANNEX"}},
{"geometry": {"type": "Point", "coordinates": [-77.3841949, 37.335884]}, "type": "Feature", "properties": {"SchoolLevel": 1, "GlobalID": "306bc5d6-78aa-4231-b99c-713116a6c543", "OBJECTID": 51, "SchoolName": "ENON ES ANNEX"}},
{"geometry": {"type": "Point", "coordinates": [-77.4741122, 37.4362807]}, "type": "Feature", "properties": {"SchoolLevel": 1, "GlobalID": "8e602cec-8453-4316-b3bf-905162d46e33", "OBJECTID": 52, "SchoolName": "HOPKINS ES"}},
{"geometry": {"type": "Point", "coordinates": [-77.3238595, 37.3295127]}, "type": "Feature", "properties": {"SchoolLevel": 1, "GlobalID": "fb0ae023-3ddb-4713-bf88-cb14c1bdb2f0", "OBJECTID": 53, "SchoolName": "ENON ES"}},
{"geometry": {"type": "Point", "coordinates": [-77.3402109, 37.3408623]}, "type": "Feature", "properties": {"SchoolLevel": 1, "GlobalID": "500f9859-4f10-4b8c-936d-0155ee7e965e", "OBJECTID": 54, "SchoolName": "ELIZABETH N. SCOTT ES"}},
{"geometry": {"type": "Point", "coordinates": [-77.7119218, 37.3798513]}, "type": "Feature", "properties": {"SchoolLevel": 1, "GlobalID": "32722069-66e4-4f1e-81bb-e4f94ec6a54a", "OBJECTID": 55, "SchoolName": "WINTERPOCK ES"}},
{"geometry": {"type": "Point", "coordinates": [-77.6608361, 37.4989986]}, "type": "Feature", "properties": {"SchoolLevel": 3, "GlobalID": "b41e7f4b-6141-4a39-afa6-b041ed4468d5", "OBJECTID": 56, "SchoolName": "MIDLOTHIAN HS"}},
{"geometry": {"type": "Point", "coordinates": [-77.4992341, 37.3879766]}, "type": "Feature", "properties": {"SchoolLevel": 3, "GlobalID": "44694a93-23f3-4410-95e1-a79cf23ffb24", "OBJECTID": 57, "SchoolName": "CAREER & TECHNICAL CENTER AT COURTHOUSE"}},
{"geometry": {"type": "Point", "coordinates": [-77.4362469, 37.3615056]}, "type": "Feature", "properties": {"SchoolLevel": 3, "GlobalID": "ed1e6302-19ae-4ab3-8688-f18d5ce747f2", "OBJECTID": 58, "SchoolName": "THOMAS DALE HS"}},
{"geometry": {"type": "Point", "coordinates": [-77.4959481, 37.3881121]}, "type": "Feature", "properties": {"SchoolLevel": 3, "GlobalID": "9c2b71d3-00f9-4cfb-b689-992603eb9fc4", "OBJECTID": 59, "SchoolName": "LLOYD C BIRD HS"}},
{"geometry": {"type": "Point", "coordinates": [-77.6245259, 37.4063408]}, "type": "Feature", "properties": {"SchoolLevel": 3, "GlobalID": "e0be14af-5793-4cff-8a7f-3e7f3fff8ab6", "OBJECTID": 60, "SchoolName": "MANCHESTER HS"}},
{"geometry": {"type": "Point", "coordinates": [-77.4839707, 37.4362746]}, "type": "Feature", "properties": {"SchoolLevel": 3, "GlobalID": "6ee9a289-ffa6-40d7-b5e8-00c02489b184", "OBJECTID": 61, "SchoolName": "MEADOWBROOK HS"}},
{"geometry": {"type": "Point", "coordinates": [-77.6489825, 37.5540725]}, "type": "Feature", "properties": {"SchoolLevel": 3, "GlobalID": "239217f5-1d95-4d57-9f0c-a280a7a25f85", "OBJECTID": 62, "SchoolName": "JAMES RIVER HS"}},
{"geometry": {"type": "Point", "coordinates": [-77.6127262, 37.4796554]}, "type": "Feature", "properties": {"SchoolLevel": 3, "GlobalID": "1e9f8b83-be46-4b6a-b7df-1ed5bf634f7e", "OBJECTID": 63, "SchoolName": "MONACAN HS"}},
{"geometry": {"type": "Point", "coordinates": [-77.436306, 37.4051219]}, "type": "Feature", "properties": {"SchoolLevel": 3, "GlobalID": "39cf24fc-5459-420d-8d40-6bb47d9de309", "OBJECTID": 64, "SchoolName": "SCHOOL BOARD ANNEX"}},
{"geometry": {"type": "Point", "coordinates": [-77.4732327, 37.3490285]}, "type": "Feature", "properties": {"SchoolLevel": 3, "GlobalID": "418e5786-fdc3-4e20-9048-71ed0e9597bd", "OBJECTID": 65, "SchoolName": "CARVER COLLEGE & CAREER ACADEMY"}},
{"geometry": {"type": "Point", "coordinates": [-77.466911, 37.2792584]}, "type": "Feature", "properties": {"SchoolLevel": 3, "GlobalID": "8f379d50-6998-466f-bf18-71b61a337134", "OBJECTID": 66, "SchoolName": "MATOACA HS"}},
{"geometry": {"type": "Point", "coordinates": [-77.7025862, 37.4053853]}, "type": "Feature", "properties": {"SchoolLevel": 3, "GlobalID": "577d52bf-e214-4671-acb6-38d21cce7f3d", "OBJECTID": 67, "SchoolName": "COSBY HS"}},
{"geometry": {"type": "Point", "coordinates": [-77.4400494, 37.3589019]}, "type": "Feature", "properties": {"SchoolLevel": 3, "GlobalID": "4f908c87-54dc-40ea-9e76-39c940ed287f", "OBJECTID": 68, "SchoolName": "THOMAS DALE NINTH GRADE CAMPUS"}},
{"geometry": {"type": "Point", "coordinates": [-77.6401656, 37.4485319]}, "type": "Feature", "properties": {"SchoolLevel": 3, "GlobalID": "0774c461-74e0-49fd-a6d3-ebf9ef031b71", "OBJECTID": 69, "SchoolName": "CLOVER HILL HS"}},
{"geometry": {"type": "Point", "coordinates": [-77.6601751, 37.4070738]}, "type": "Feature", "properties": {"SchoolLevel": 3, "GlobalID": "7425b80d-7342-40ef-9a0d-245a19ec9ab0", "OBJECTID": 70, "SchoolName": "CAREER & TECHNICAL CENTER AT HULL"}}
]}