{"type":"FeatureCollection","features":[
{"geometry": {"type": "Point", "coordinates": [-77.0831481, 38.8734475]}, "type": "Feature", "properties": {"City": "Arlington", "OBJECTID_1": 1, "Name": "Arlington Employment Center", "OBJECTID": 23, "Zip": 22204, "AddressPhy": "2100 Washington Blvd., 1st fl.", "Phone": "703-228-1400\u00a0", "WIAID": 12, "FacilityTy": "Comprehensive Center", "ID": 103}},
{"geometry": {"type": "Point", "coordinates": [-77.4996569, 37.3878477]}, "type": "Feature", "properties": {"City": "Chesterfield", "OBJECTID_1": 2, "Name": "Chesterfield Courthouse Career & Technical Center", "OBJECTID": 46, "Zip": 23832, "AddressPhy": "10101 Courthouse Rd.", "Phone": "804-768-6160", "WIAID": 5, "FacilityTy": "Career and Technical Center", "ID": 51}},
{"geometry": {"type": "Point", "coordinates": [-82.3552218, 37.1657374]}, "type": "Feature", "properties": {"City": "Clinchco", "OBJECTID_1": 3, "Name": "Dickenson County Career Center", "OBJECTID": 69, "Zip": 24226, "AddressPhy": "335 Vocational St.", "Phone": "276-835-8049", "WIAID": 1, "FacilityTy": "Career and Technical Center", "ID": 5}},
{"geometry": {"type": "Point", "coordinates": [-80.8108609, 37.3315194]}, "type": "Feature", "properties": {"City": "Narrows", "OBJECTID_1": 4, "Name": "Goodwill Industries of the Valleys-Giles", "OBJECTID": 132, "Zip": 24124, "AddressPhy": "211 Main Street", "Phone": "540-276-8201", "WIAID": 2, "FacilityTy": "Satellite Center", "ID": 17}},
{"geometry": {"type": "Point", "coordinates": [-79.905291, 37.4359396]}, "type": "Feature", "properties": {"City": "Daleville", "OBJECTID_1": 5, "Name": "Greenfield Education and Training Center", "OBJECTID": 109, "Zip": 24083, "AddressPhy": "57 S. Center Dr.", "Phone": "966-3984", "WIAID": 3, "FacilityTy": "Career and Technical Center", "ID": 35}},
{"geometry": {"type": "Point", "coordinates": [-80.7045169, 37.3265104]}, "type": "Feature", "properties": {"City": "Pearisburg", "OBJECTID_1": 6, "Name": "Giles County Technology Center", "OBJECTID": 89, "Zip": 24134, "AddressPhy": "1827 Wenonah Ave.", "Phone": "540-921-1166", "WIAID": 2, "FacilityTy": "Career and Technical Center", "ID": 16}},
{"geometry": {"type": "Point", "coordinates": [-80.4122256, 37.1339502]}, "type": "Feature", "properties": {"City": "Christiansburg", "OBJECTID_1": 7, "Name": "Goodwill Workforce Services-Christiansburg/Floyd", "OBJECTID": 3, "Zip": 24073, "AddressPhy": "400 New River Rd.", "Phone": "540-639-9027", "WIAID": 2, "FacilityTy": "Satellite Center", "ID": 18}},
{"geometry": {"type": "Point", "coordinates": [-77.323638, 37.5398585]}, "type": "Feature", "properties": {"City": "Highland Springs", "OBJECTID_1": 8, "Name": "Highland Springs Technical Center", "OBJECTID": 146, "Zip": 23075, "AddressPhy": "100 Tech Dr.", "Phone": "804-328-4075", "WIAID": 5, "FacilityTy": "Career and Technical Center", "ID": 57}},
{"geometry": {"type": "Point", "coordinates": [-81.1004749, 36.9406004]}, "type": "Feature", "properties": {"City": "Wytheville", "OBJECTID_1": 9, "Name": "Wythe County Technology Center", "OBJECTID": 66, "Zip": 24832, "AddressPhy": "1505 W. Spiller St.", "Phone": "276-228-5481", "WIAID": 2, "FacilityTy": "Career and Technical Center", "ID": 30}},
{"geometry": {"type": "Point", "coordinates": [-77.3650384, 37.5477688]}, "type": "Feature", "properties": {"City": "Richmond", "OBJECTID_1": 10, "Name": "Cedar Fork Resource Workforce Center", "OBJECTID": 126, "Zip": 23223, "AddressPhy": "121 Cedar Fork Rd.", "Phone": "804-952-6116", "WIAID": 5, "FacilityTy": "Comprehensive Center", "ID": 50}},
{"geometry": {"type": "Point", "coordinates": [-76.7346321, 37.5490672]}, "type": "Feature", "properties": {"City": "Shacklefords", "OBJECTID_1": 11, "Name": "Job Assistance Center", "OBJECTID": 26, "Zip": 23156, "AddressPhy": "1399 Centerville Rd.", "Phone": "804-785-2470", "WIAID": 13, "FacilityTy": "Satellite Center", "ID": 111}},
{"geometry": {"type": "Point", "coordinates": [-82.4582168, 37.1503291]}, "type": "Feature", "properties": {"City": "Clintwood", "OBJECTID_1": 12, "Name": "Dickenson Center for Education and Research", "OBJECTID": 129, "Zip": 24228, "AddressPhy": "818 Happy Hill Dr.", "Phone": "276-926-9011", "WIAID": 1, "FacilityTy": "Satellite Center", "ID": 4}},
{"geometry": {"type": "Point", "coordinates": [-78.2672075, 39.0358309]}, "type": "Feature", "properties": {"City": "Middletown", "OBJECTID_1": 13, "Name": "Lord Fairfax Community  College Workforce Solutions", "OBJECTID": 106, "Zip": 22645, "AddressPhy": "173 Skirmisher Lane", "Phone": "540-868-7000", "WIAID": 4, "FacilityTy": "Career and Technical Center", "ID": 39}},
{"geometry": {"type": "Point", "coordinates": [-81.3633734, 37.206803]}, "type": "Feature", "properties": {"City": "Bluefield", "OBJECTID_1": 14, "Name": "Bluestone Workforce Training Center", "OBJECTID": 86, "Zip": 24605, "AddressPhy": "578 Camp Joy Rd.", "Phone": "276-322-2023", "WIAID": 1, "FacilityTy": "Satellite Center", "ID": 2}},
{"geometry": {"type": "Point", "coordinates": [-81.9506083, 36.7193754]}, "type": "Feature", "properties": {"City": "Abingdon", "OBJECTID_1": 15, "Name": "Washington County Skill Center", "OBJECTID": 63, "Zip": 24210, "AddressPhy": "848 Thompson Dr.", "Phone": "276-676-1948", "WIAID": 2, "FacilityTy": "Career and Technical Center", "ID": 27}},
{"geometry": {"type": "Point", "coordinates": [-79.9948867, 37.7895283]}, "type": "Feature", "properties": {"City": "Covington", "OBJECTID_1": 16, "Name": "Workforce Center-Covington", "OBJECTID": 6, "Zip": 24426, "AddressPhy": "106 N. Maple Avenue", "Phone": "540-962-0983", "WIAID": 3, "FacilityTy": "Satellite Center", "ID": 38}},
{"geometry": {"type": "Point", "coordinates": [-79.1823792, 37.2518708]}, "type": "Feature", "properties": {"City": "Rustburg", "OBJECTID_1": 17, "Name": "Campbell County Technical Center", "OBJECTID": 43, "Zip": 24588, "AddressPhy": "194 Dennis Riddle Rd.", "Phone": "804-821-6213", "WIAID": 8, "FacilityTy": "Career and Technical Center", "ID": 76}},
{"geometry": {"type": "Point", "coordinates": [-78.9028105, 38.4010101]}, "type": "Feature", "properties": {"City": "Harrisonburg", "OBJECTID_1": 18, "Name": "Massanutten Technical Center", "OBJECTID": 49, "Zip": 22801, "AddressPhy": "325 Pleasant Valley Rd.", "Phone": "540-434-5961", "WIAID": 4, "FacilityTy": "Career and Technical Center", "ID": 40}},
{"geometry": {"type": "Point", "coordinates": [-78.879814, 37.7502783]}, "type": "Feature", "properties": {"City": "Lovingston", "OBJECTID_1": 19, "Name": "Nelson Career Resource Center", "OBJECTID": 92, "Zip": 22949, "AddressPhy": "8445 Thomas Nelson Highway", "Phone": "434-263-8074", "WIAID": 7, "FacilityTy": "Informational Center", "ID": 70}},
{"geometry": {"type": "Point", "coordinates": [-76.7401211, 37.2753609]}, "type": "Feature", "properties": {"City": "Williamsburg", "OBJECTID_1": 20, "Name": "Thomas Nelson Workforce Center", "OBJECTID": 115, "Zip": 23188, "AddressPhy": "4135 Ironbound Rd.", "Phone": "757-345-2855", "WIAID": 14, "FacilityTy": "Career and Technical Center", "ID": 123}},
{"geometry": {"type": "Point", "coordinates": [-78.9183887, 36.6985524]}, "type": "Feature", "properties": {"City": "South Boston", "OBJECTID_1": 21, "Name": "Southern Virginia Center Of Manufacturing Excellence", "OBJECTID": 138, "Zip": 24592, "AddressPhy": "820 Bruce St.", "Phone": "434-572-5473", "WIAID": 9, "FacilityTy": "Center of Excellence", "ID": 85}},
{"geometry": {"type": "Point", "coordinates": [-76.7406194, 37.2589488]}, "type": "Feature", "properties": {"City": "Williamsburg", "OBJECTID_1": 22, "Name": "Peninsula Worklink One-Stop Center-Williamsburg", "OBJECTID": 29, "Zip": 23185, "AddressPhy": "5235 John Tyler Highway", "Phone": "757-253-4738", "WIAID": 14, "FacilityTy": "Satellite Center", "ID": 121}},
{"geometry": {"type": "Point", "coordinates": [-82.5682995, 36.9824655]}, "type": "Feature", "properties": {"City": "Wise", "OBJECTID_1": 23, "Name": "Wise County Career-Technical Center", "OBJECTID": 75, "Zip": 24293, "AddressPhy": "621 Lake St., N.E.", "Phone": "276-328-8017", "WIAID": 1, "FacilityTy": "Career and Technical Center", "ID": 13}},
{"geometry": {"type": "Point", "coordinates": [-78.865632, 38.4505958]}, "type": "Feature", "properties": {"City": "Harrisonburg", "OBJECTID_1": 24, "Name": "Valley Workforce Center - Harrisonburg", "OBJECTID": 9, "Zip": 22802, "AddressPhy": "160 N. Mason St.", "Phone": "540-433-4864", "WIAID": 4, "FacilityTy": "Comprehensive Center", "ID": 45}},
{"geometry": {"type": "Point", "coordinates": [-78.6330243, 37.0642121]}, "type": "Feature", "properties": {"City": "Charlotte C.H.", "OBJECTID_1": 25, "Name": "Virginia Workforce Center-Charlotte Courthouse", "OBJECTID": 15, "Zip": 23923, "AddressPhy": "400 Thomas Jefferson Ave.", "Phone": "434-542-5605\u00a0", "WIAID": 9, "FacilityTy": "Satellite Center", "ID": 87}},
{"geometry": {"type": "Point", "coordinates": [-76.5268875, 37.1714643]}, "type": "Feature", "properties": {"City": "Newport News", "OBJECTID_1": 26, "Name": "New Horizons Regional Education Center-Woodside Lane", "OBJECTID": 52, "Zip": 23608, "AddressPhy": "13400 Woodside Lane", "Phone": "757-874-4444", "WIAID": 14, "FacilityTy": "Career and Technical Center", "ID": 119}},
{"geometry": {"type": "Point", "coordinates": [-78.8916517, 36.7165125]}, "type": "Feature", "properties": {"City": "South Boston", "OBJECTID_1": 27, "Name": "Virginia Workforce Center-South Boston", "OBJECTID": 95, "Zip": 24592, "AddressPhy": "2506 Houghton Ave.", "Phone": "434-572-8064", "WIAID": 9, "FacilityTy": "Satellite Center", "ID": 89}},
{"geometry": {"type": "Point", "coordinates": [-81.5101458, 37.1258953]}, "type": "Feature", "properties": {"City": "Tazewell", "OBJECTID_1": 28, "Name": "Tazewell County Career & Technical Center", "OBJECTID": 72, "Zip": 24651, "AddressPhy": "100 Advantage Dr.", "Phone": "276-988-2529", "WIAID": 1, "FacilityTy": "Career and Technical Center", "ID": 11}},
{"geometry": {"type": "Point", "coordinates": [-77.4448018, 38.3860182]}, "type": "Feature", "properties": {"City": "Fredericksburg", "OBJECTID_1": 29, "Name": "Automotive Technology Center", "OBJECTID": 118, "Zip": 22405, "AddressPhy": "42 BlackJack Road", "Phone": "540-834-1978", "WIAID": 13, "FacilityTy": "Career and Technical Center", "ID": 104}},
{"geometry": {"type": "Point", "coordinates": [-78.4595611, 36.8008831]}, "type": "Feature", "properties": {"City": "Chase City", "OBJECTID_1": 30, "Name": "Estes Community Center", "OBJECTID": 78, "Zip": 23924, "AddressPhy": "316 N. Main St.", "Phone": "434-372-0194", "WIAID": 9, "FacilityTy": "Career and Technical Center", "ID": 83}},
{"geometry": {"type": "Point", "coordinates": [-77.405807, 37.2292579]}, "type": "Feature", "properties": {"City": "Petersburg", "OBJECTID_1": 31, "Name": "Virginia Workforce Center\u00a0- Petersburg", "OBJECTID": 32, "Zip": 23803, "AddressPhy": "114 North Union Street, Suite A", "Phone": "804-862-6155", "WIAID": 15, "FacilityTy": "Satellite Center", "ID": 125}},
{"geometry": {"type": "Point", "coordinates": [-78.2578492, 38.3796971]}, "type": "Feature", "properties": {"City": "Madison", "OBJECTID_1": 32, "Name": "Madison Department of Social Services", "OBJECTID": 12, "Zip": 22727, "AddressPhy": "101 S. Main St", "Phone": "540-948-5521", "WIAID": 7, "FacilityTy": "Informational Center", "ID": 69}},
{"geometry": {"type": "Point", "coordinates": [-76.2674202, 36.9138357]}, "type": "Feature", "properties": {"City": "Norfolk", "OBJECTID_1": 33, "Name": "Norfolk Workforce Development Center", "OBJECTID": 35, "Zip": 23505, "AddressPhy": "201 E. Little Creek Rd.\u00a0", "Phone": "757-664-6000", "WIAID": 16, "FacilityTy": "Career and Technical Center", "ID": 132}},
{"geometry": {"type": "Point", "coordinates": [-80.779575, 37.0495689]}, "type": "Feature", "properties": {"City": "Pulaski", "OBJECTID_1": 34, "Name": "Pulaski Workforce Center", "OBJECTID": 135, "Zip": 24301, "AddressPhy": "336 N. Washington Hwy.", "Phone": "540-980-1323", "WIAID": 2, "FacilityTy": "Satellite Center", "ID": 20}},
{"geometry": {"type": "Point", "coordinates": [-76.1024653, 36.7847276]}, "type": "Feature", "properties": {"City": "Virginia Beach", "OBJECTID_1": 35, "Name": "TCC Center For Military and Veterans Education", "OBJECTID": 112, "Zip": 23453, "AddressPhy": "1700 College Crescent", "Phone": "757-822-7777", "WIAID": 16, "FacilityTy": "Career and Technical Center", "ID": 136}},
{"geometry": {"type": "Point", "coordinates": [-79.3976976, 36.8276816]}, "type": "Feature", "properties": {"City": "Chatham", "OBJECTID_1": 36, "Name": "Virginia Workforce  Center-Chatham", "OBJECTID": 55, "Zip": 24531, "AddressPhy": "61 N. Main St.", "Phone": "434-433-2266", "WIAID": 17, "FacilityTy": "Satellite Center", "ID": 144}},
{"geometry": {"type": "Point", "coordinates": [-78.1175686, 37.1672914]}, "type": "Feature", "properties": {"City": "Crewe", "OBJECTID_1": 37, "Name": "Workforce Information Center - Crewe", "OBJECTID": 98, "Zip": 23930, "AddressPhy": "706 East Virginia Avenue", "Phone": "434-645-7049", "WIAID": 9, "FacilityTy": "Informational Center", "ID": 92}},
{"geometry": {"type": "Point", "coordinates": [-79.0527258, 38.1682891]}, "type": "Feature", "properties": {"City": "Staunton", "OBJECTID_1": 38, "Name": "Valley Workforce Center - Staunton", "OBJECTID": 144, "Zip": 24401, "AddressPhy": "1600 N. Coalter St.", "Phone": "540-887-9895", "WIAID": 4, "FacilityTy": "Satellite Center", "ID": 48}},
{"geometry": {"type": "Point", "coordinates": [-77.3029068, 38.6581223]}, "type": "Feature", "properties": {"City": "Woodbridge", "OBJECTID_1": 39, "Name": "Prince William SkillSource Center", "OBJECTID": 21, "Zip": 22192, "AddressPhy": "13370 Minnieville Road\u00a0", "Phone": "703-586-6800", "WIAID": 11, "FacilityTy": "Comprehensive Center", "ID": 100}},
{"geometry": {"type": "Point", "coordinates": [-77.1297979, 37.7423784]}, "type": "Feature", "properties": {"City": "King William", "OBJECTID_1": 40, "Name": "RCC King William Site", "OBJECTID": 121, "Zip": 23086, "AddressPhy": "80 Cavalier Dr.", "Phone": "804-769-3434", "WIAID": 13, "FacilityTy": "Career and Technical Center", "ID": 114}},
{"geometry": {"type": "Point", "coordinates": [-77.4088354, 37.343973]}, "type": "Feature", "properties": {"City": "Chester", "OBJECTID_1": 41, "Name": "Community College Workforce Alliance - Chester", "OBJECTID": 127, "Zip": 23832, "AddressPhy": "13101 Jefferson Davis Hwy.", "Phone": "804-706-5175", "WIAID": 5, "FacilityTy": "Career and Technical Center", "ID": 53}},
{"geometry": {"type": "Point", "coordinates": [-77.3797309, 37.0356152]}, "type": "Feature", "properties": {"City": "Carson", "OBJECTID_1": 42, "Name": "Rowanty Technical Center", "OBJECTID": 58, "Zip": 23832, "AddressPhy": "20000 Rowanty Road", "Phone": "804-246-5741", "WIAID": 15, "FacilityTy": "Career and Technical Center", "ID": 124}},
{"geometry": {"type": "Point", "coordinates": [-78.9191634, 38.2963074]}, "type": "Feature", "properties": {"City": "Weyers Cave", "OBJECTID_1": 43, "Name": "Plecker Workforce Center", "OBJECTID": 81, "Zip": 24486, "AddressPhy": "One College Lane", "Phone": "540-453-2215", "WIAID": 4, "FacilityTy": "Career and Technical Center", "ID": 42}},
{"geometry": {"type": "Point", "coordinates": [-81.9505344, 36.7193945]}, "type": "Feature", "properties": {"City": "Abingdon", "OBJECTID_1": 44, "Name": "Washington County Technical School", "OBJECTID": 64, "Zip": 24210, "AddressPhy": "850 Thompson Dr.", "Phone": "276-739-3140", "WIAID": 2, "FacilityTy": "Career and Technical Center", "ID": 28}},
{"geometry": {"type": "Point", "coordinates": [-80.269964, 36.6426813]}, "type": "Feature", "properties": {"City": "Stuart", "OBJECTID_1": 45, "Name": "Virginia Workforce Career Center - Patrick County", "OBJECTID": 38, "Zip": 24171, "AddressPhy": "108W.  Blue Ridge Street", "Phone": "276-694-6542", "WIAID": 17, "FacilityTy": "Satellite Center", "ID": 145}},
{"geometry": {"type": "Point", "coordinates": [-75.5501692, 37.9253022]}, "type": "Feature", "properties": {"City": "Oak Hall", "OBJECTID_1": 46, "Name": "Badger Technical Center North", "OBJECTID": 101, "Zip": 23146, "AddressPhy": "8210 Lankford Highway", "Phone": "757-824-6386", "WIAID": 13, "FacilityTy": "Career and Technical Center", "ID": 105}},
{"geometry": {"type": "Point", "coordinates": [-78.508382, 38.0847692]}, "type": "Feature", "properties": {"City": "Charlottesville", "OBJECTID_1": 47, "Name": "Charlottesville Albemarle Technical Education Center", "OBJECTID": 44, "Zip": 22901, "AddressPhy": "1000 East Rio Road", "Phone": "434-973-4461", "WIAID": 7, "FacilityTy": "Career and Technical Center", "ID": 64}},
{"geometry": {"type": "Point", "coordinates": [-82.0150619, 36.6968537]}, "type": "Feature", "properties": {"City": "Abingdon", "OBJECTID_1": 48, "Name": "People Inc. of Virginia - Abingdon", "OBJECTID": 1, "Zip": 23210, "AddressPhy": "1217 W. Main St.", "Phone": "276-619-2291", "WIAID": 2, "FacilityTy": "Satellite Center", "ID": 19}},
{"geometry": {"type": "Point", "coordinates": [-81.5201635, 36.83418]}, "type": "Feature", "properties": {"City": "Marion", "OBJECTID_1": 49, "Name": "The Summit Center", "OBJECTID": 141, "Zip": 24354, "AddressPhy": "203 N. Church St.", "Phone": "276-783-1777", "WIAID": 2, "FacilityTy": "Career and Technical Center", "ID": 24}},
{"geometry": {"type": "Point", "coordinates": [-77.1041204, 38.7315049]}, "type": "Feature", "properties": {"City": "Alexandria", "OBJECTID_1": 50, "Name": "Fairfax SkillSource Center - Alexandria", "OBJECTID": 18, "Zip": 22309, "AddressPhy": "8350 Richmond Highway, Suite 327\u00a0", "Phone": "703-704-6286\u00a0", "WIAID": 11, "FacilityTy": "Comprehensive Center", "ID": 95}},
{"geometry": {"type": "Point", "coordinates": [-81.9947841, 36.7007823]}, "type": "Feature", "properties": {"City": "Abingdon", "OBJECTID_1": 51, "Name": "Southwest Virginia Alliance for Manufacturing Center of Excellence", "OBJECTID": 124, "Zip": 24210, "AddressPhy": "851 French Moore Jr. Blvd", "Phone": "276-492-2100", "WIAID": 2, "FacilityTy": "Center of Excellence", "ID": 22}},
{"geometry": {"type": "Point", "coordinates": [-77.9719337, 38.0131338]}, "type": "Feature", "properties": {"City": "Louisa", "OBJECTID_1": 52, "Name": "Louisa Employment Center", "OBJECTID": 84, "Zip": 23093, "AddressPhy": "522 Industrial Dr.", "Phone": "540-967-6095", "WIAID": 7, "FacilityTy": "Satellite Center", "ID": 68}},
{"geometry": {"type": "Point", "coordinates": [-78.6457789, 38.7346181]}, "type": "Feature", "properties": {"City": "Mt. Jackson", "OBJECTID_1": 53, "Name": "Triplett Tech", "OBJECTID": 61, "Zip": 22842, "AddressPhy": "6375 S. Main St.", "Phone": "540-477-3161", "WIAID": 4, "FacilityTy": "Career and Technical Center", "ID": 43}},
{"geometry": {"type": "Point", "coordinates": [-79.5250968, 37.3271851]}, "type": "Feature", "properties": {"City": "Bedford", "OBJECTID_1": 54, "Name": "Bedford Science & Technology Center", "OBJECTID": 41, "Zip": 24523, "AddressPhy": "600 Edmund St.", "Phone": "540-586-3933", "WIAID": 8, "FacilityTy": "Career and Technical Center", "ID": 75}},
{"geometry": {"type": "Point", "coordinates": [-77.4929955, 38.2316727]}, "type": "Feature", "properties": {"City": "Fredericksburg", "OBJECTID_1": 55, "Name": "GSC Center for Workforce and Community Education", "OBJECTID": 104, "Zip": 22408, "AddressPhy": "10000 Germanna Point Drive", "Phone": "540-891-3012", "WIAID": 13, "FacilityTy": "Career and Technical Center", "ID": 110}},
{"geometry": {"type": "Point", "coordinates": [-79.8724768, 36.6916415]}, "type": "Feature", "properties": {"City": "Martinsville", "OBJECTID_1": 56, "Name": "Center for Advanced Film Manufacturing", "OBJECTID": 147, "Zip": 24592, "AddressPhy": "30 Franklin St.", "Phone": "276-403-5942", "WIAID": 17, "FacilityTy": "Center of Excellence", "ID": 143}},
{"geometry": {"type": "Point", "coordinates": [-76.1024653, 36.7847276]}, "type": "Feature", "properties": {"City": "Virginia Beach", "OBJECTID_1": 57, "Name": "TCC Regional Health Professions Center", "OBJECTID": 113, "Zip": 23453, "AddressPhy": "1700 College Crescent", "Phone": "757-822-7329", "WIAID": 16, "FacilityTy": "Career and Technical Center", "ID": 139}},
{"geometry": {"type": "Point", "coordinates": [-75.6965568, 37.6787419]}, "type": "Feature", "properties": {"City": "Onley", "OBJECTID_1": 58, "Name": "Badger Technical Center South", "OBJECTID": 67, "Zip": 23418, "AddressPhy": "26350 Lankford Highway", "Phone": "757-787-4522", "WIAID": 13, "FacilityTy": "Career and Technical Center", "ID": 106}},
{"geometry": {"type": "Point", "coordinates": [-76.7499048, 37.9493792]}, "type": "Feature", "properties": {"City": "Warsaw", "OBJECTID_1": 59, "Name": "Warsaw Workforce Center", "OBJECTID": 27, "Zip": 22572, "AddressPhy": "14243 History Land Highway", "Phone": "804-333-3675", "WIAID": 13, "FacilityTy": "Satellite Center", "ID": 116}},
{"geometry": {"type": "Point", "coordinates": [-77.9525675, 37.0651861]}, "type": "Feature", "properties": {"City": "Blackstone", "OBJECTID_1": 60, "Name": "Occupational Technical Center/Pickett Park", "OBJECTID": 107, "Zip": 23824, "AddressPhy": "1041 W. 10th St.", "Phone": "434-292-3101", "WIAID": 8, "FacilityTy": "Career and Technical Center", "ID": 78}},
{"geometry": {"type": "Point", "coordinates": [-77.2088605, 38.8318407]}, "type": "Feature", "properties": {"City": "Annandale", "OBJECTID_1": 61, "Name": "Fairfax SkillSource Center - Annandale", "OBJECTID": 130, "Zip": 22003, "AddressPhy": "7611 Little River Turnpike, Ste 300W", "Phone": "703-533-5400", "WIAID": 11, "FacilityTy": "Comprehensive Center", "ID": 96}},
{"geometry": {"type": "Point", "coordinates": [-82.0491215, 37.2954728]}, "type": "Feature", "properties": {"City": "Grundy", "OBJECTID_1": 62, "Name": "Buchanan County Technology & Career Center", "OBJECTID": 87, "Zip": 24614, "AddressPhy": "1124 Almarie Dr.", "Phone": "276-935-4541", "WIAID": 1, "FacilityTy": "Career and Technical Center", "ID": 3}},
{"geometry": {"type": "Point", "coordinates": [-79.957887, 37.315539]}, "type": "Feature", "properties": {"City": "Roanoke", "OBJECTID_1": 63, "Name": "Roanoke Valley Workforce Center", "OBJECTID": 7, "Zip": 24012, "AddressPhy": "1351 Hershberger Rd.", "Phone": "540-561-7525", "WIAID": 3, "FacilityTy": "Comprehensive Center", "ID": 37}},
{"geometry": {"type": "Point", "coordinates": [-76.4115988, 37.0627525]}, "type": "Feature", "properties": {"City": "Hampton", "OBJECTID_1": 64, "Name": "New Horizons Regional Education Center-Butler Farm", "OBJECTID": 50, "Zip": 23666, "AddressPhy": "520 Butler Farm Rd", "Phone": "757-766-1100", "WIAID": 14, "FacilityTy": "Career and Technical Center", "ID": 117}},
{"geometry": {"type": "Point", "coordinates": [-77.496041, 38.2408379]}, "type": "Feature", "properties": {"City": "Fredericksburg", "OBJECTID_1": 65, "Name": "Fredericksburg Workforce Center", "OBJECTID": 24, "Zip": 22408, "AddressPhy": "10304 Spotsylvania Ave., Ste. 100", "Phone": "540-891-4139\u00a0", "WIAID": 13, "FacilityTy": "Comprehensive Center", "ID": 109}},
{"geometry": {"type": "Point", "coordinates": [-77.5174519, 37.633366]}, "type": "Feature", "properties": {"City": "Richmond", "OBJECTID_1": 66, "Name": "Hermitage Technical Center", "OBJECTID": 47, "Zip": 23228, "AddressPhy": "8301 Hungary Spring Rd", "Phone": "804-756-3020", "WIAID": 5, "FacilityTy": "Career and Technical Center", "ID": 56}},
{"geometry": {"type": "Point", "coordinates": [-78.473608, 38.3123533]}, "type": "Feature", "properties": {"City": "Stanardsville", "OBJECTID_1": 67, "Name": "Greene County Technical Education Center", "OBJECTID": 70, "Zip": 22973, "AddressPhy": "10415 Spotswood Trail", "Phone": "434-939-9005", "WIAID": 7, "FacilityTy": "Career and Technical Center", "ID": 67}},
{"geometry": {"type": "Point", "coordinates": [-79.155303, 37.3795751]}, "type": "Feature", "properties": {"City": "Lynchburg", "OBJECTID_1": 68, "Name": "Lynchburg Workforce Center", "OBJECTID": 93, "Zip": 24501, "AddressPhy": "3125 Odd Fellows Road", "Phone": "434-947-6771", "WIAID": 8, "FacilityTy": "Satellite Center", "ID": 77}},
{"geometry": {"type": "Point", "coordinates": [-77.5168882, 36.7377317]}, "type": "Feature", "properties": {"City": "Emporia", "OBJECTID_1": 69, "Name": "Virginia Workforce Center-Emporia/Greensville", "OBJECTID": 30, "Zip": 23847, "AddressPhy": "1300 Greensville County Circle, Ste C", "Phone": "434-634-2326", "WIAID": 15, "FacilityTy": "Comprehensive Center", "ID": 126}},
{"geometry": {"type": "Point", "coordinates": [-76.2181622, 36.7348664]}, "type": "Feature", "properties": {"City": "Chesapeake", "OBJECTID_1": 70, "Name": "TCC Regional Automotive Center", "OBJECTID": 110, "Zip": 23320, "AddressPhy": "600 Innovation Dr.", "Phone": "757-822-5081", "WIAID": 16, "FacilityTy": "Career and Technical Center", "ID": 138}},
{"geometry": {"type": "Point", "coordinates": [-78.5168901, 38.0052848]}, "type": "Feature", "properties": {"City": "Charlottesville", "OBJECTID_1": 71, "Name": "Albemarle Career Center", "OBJECTID": 10, "Zip": 22902, "AddressPhy": "1600 5th Street", "Phone": "434-972-4010\u00a0", "WIAID": 7, "FacilityTy": "Satellite Center", "ID": 63}},
{"geometry": {"type": "Point", "coordinates": [-77.5173267, 38.8094273]}, "type": "Feature", "properties": {"City": "Manassas", "OBJECTID_1": 72, "Name": "Manassas SkillSource Career Services Center", "OBJECTID": 133, "Zip": 20109, "AddressPhy": "6901 Sudley Rd., MS Building", "Phone": "703-530-3073", "WIAID": 11, "FacilityTy": "Satellite Center", "ID": 99}},
{"geometry": {"type": "Point", "coordinates": [-78.4937273, 38.0638303]}, "type": "Feature", "properties": {"City": "Charlottesville", "OBJECTID_1": 73, "Name": "Piedmont Workforce Network", "OBJECTID": 90, "Zip": 22901, "AddressPhy": "2211 Hydraulic Road", "Phone": "434-979-5610", "WIAID": 7, "FacilityTy": "Comprehensive Center", "ID": 72}},
{"geometry": {"type": "Point", "coordinates": [-80.5584953, 37.1389731]}, "type": "Feature", "properties": {"City": "Radford", "OBJECTID_1": 74, "Name": "Virginia Workforce Center-Radford", "OBJECTID": 4, "Zip": 24141, "AddressPhy": "206 Third Avenue\u00a0", "Phone": "540-831-5980\u00a0", "WIAID": 2, "FacilityTy": "Satellite Center", "ID": 25}},
{"geometry": {"type": "Point", "coordinates": [-77.6134301, 37.5171287]}, "type": "Feature", "properties": {"City": "Midlothian", "OBJECTID_1": 75, "Name": "Community College Workforce Alliance at Featherstone Professional Center", "OBJECTID": 119, "Zip": 23113, "AddressPhy": "1807 Huguenot Rd.", "Phone": "804-440-2447", "WIAID": 5, "FacilityTy": "Career and Technical Center", "ID": 55}},
{"geometry": {"type": "Point", "coordinates": [-78.2787527, 37.4797831]}, "type": "Feature", "properties": {"City": "Cumberland", "OBJECTID_1": 76, "Name": "Workforce Information Site - Cumberland", "OBJECTID": 96, "Zip": 23040, "AddressPhy": "1874 Anderson Highway", "Phone": "804-492-9275", "WIAID": 9, "FacilityTy": "Informational Center", "ID": 94}},
{"geometry": {"type": "Point", "coordinates": [-78.4648103, 38.6624497]}, "type": "Feature", "properties": {"City": "Luray", "OBJECTID_1": 77, "Name": "Valley Workforce Center - Luray", "OBJECTID": 142, "Zip": 22835, "AddressPhy": "334 Hawkbill St.", "Phone": "540-742-7647", "WIAID": 4, "FacilityTy": "Satellite Center", "ID": 46}},
{"geometry": {"type": "Point", "coordinates": [-78.1027714, 37.3255773]}, "type": "Feature", "properties": {"City": "Jetersville", "OBJECTID_1": 78, "Name": "Amelia-Nottoway Technical Center", "OBJECTID": 79, "Zip": 23083, "AddressPhy": "148 Vo-Tech Rd.", "Phone": "434-645-7854", "WIAID": 9, "FacilityTy": "Career and Technical Center", "ID": 80}},
{"geometry": {"type": "Point", "coordinates": [-76.0996991, 36.7838917]}, "type": "Feature", "properties": {"City": "Virginia Beach", "OBJECTID_1": 79, "Name": "Advanced Technology Center", "OBJECTID": 73, "Zip": 23453, "AddressPhy": "1800 College Crescent", "Phone": "757-822-7601", "WIAID": 16, "FacilityTy": "Career and Technical Center", "ID": 128}},
{"geometry": {"type": "Point", "coordinates": [-79.4071821, 36.5658638]}, "type": "Feature", "properties": {"City": "Danville", "OBJECTID_1": 80, "Name": "Danville Community College Workforce Services", "OBJECTID": 36, "Zip": 24541, "AddressPhy": "1008 S. Main Street\u00a0", "Phone": "434-797-6437", "WIAID": 17, "FacilityTy": "Career and Technical Center", "ID": 142}},
{"geometry": {"type": "Point", "coordinates": [-77.8099339, 38.7157291]}, "type": "Feature", "properties": {"City": "Warrenton", "OBJECTID_1": 81, "Name": "The Workplace", "OBJECTID": 13, "Zip": 20186, "AddressPhy": "320 Hospital Dr.", "Phone": "540-422-8422", "WIAID": 7, "FacilityTy": "Satellite Center", "ID": 74}},
{"geometry": {"type": "Point", "coordinates": [-77.44291, 37.540643]}, "type": "Feature", "properties": {"City": "Richmond", "OBJECTID_1": 82, "Name": "Richmond Resource Workforce Center", "OBJECTID": 136, "Zip": 23219, "AddressPhy": "203 E. Cary St.", "Phone": "804-344-8060", "WIAID": 5, "FacilityTy": "Satellite Center", "ID": 59}},
{"geometry": {"type": "Point", "coordinates": [-76.6449064, 36.7825338]}, "type": "Feature", "properties": {"City": "Suffolk", "OBJECTID_1": 83, "Name": "Pruden Center for Industry & Technology", "OBJECTID": 56, "Zip": 23434, "AddressPhy": "4169 Pruden Blvd", "Phone": "757-925-5651", "WIAID": 16, "FacilityTy": "Career and Technical Center", "ID": 134}},
{"geometry": {"type": "Point", "coordinates": [-78.2390497, 36.983066]}, "type": "Feature", "properties": {"City": "Victoria", "OBJECTID_1": 84, "Name": "Virginia Workforce Center - Victoria", "OBJECTID": 99, "Zip": 23974, "AddressPhy": "300 Court Street", "Phone": "434-696-1117", "WIAID": 9, "FacilityTy": "Informational Center", "ID": 86}},
{"geometry": {"type": "Point", "coordinates": [-78.565382, 36.6028732]}, "type": "Feature", "properties": {"City": "Clarksville", "OBJECTID_1": 85, "Name": "Clarksville Enrichment Complex", "OBJECTID": 116, "Zip": 23927, "AddressPhy": "1567 Noblin Farm Rd.", "Phone": "434-049-1026", "WIAID": 9, "FacilityTy": "Career and Technical Center", "ID": 82}},
{"geometry": {"type": "Point", "coordinates": [-82.0958413, 37.2783592]}, "type": "Feature", "properties": {"City": "Grundy", "OBJECTID_1": 86, "Name": "SWCC Booth Center", "OBJECTID": 139, "Zip": 24614, "AddressPhy": "1195 Edgewater Dr.", "Phone": "276-964-7587", "WIAID": 1, "FacilityTy": "Satellite Center", "ID": 10}},
{"geometry": {"type": "Point", "coordinates": [-76.9799542, 37.5156517]}, "type": "Feature", "properties": {"City": "New Kent", "OBJECTID_1": 87, "Name": "RCC New Kent Site", "OBJECTID": 122, "Zip": 23124, "AddressPhy": "7930 New Chipping Lane", "Phone": "804-966-8575", "WIAID": 5, "FacilityTy": "Career and Technical Center", "ID": 58}},
{"geometry": {"type": "Point", "coordinates": [-78.1293644, 36.7238059]}, "type": "Feature", "properties": {"City": "South Hill", "OBJECTID_1": 88, "Name": "Lake Country Advanced Knowledge Center", "OBJECTID": 76, "Zip": 23970, "AddressPhy": "118 E. Danville Rd.", "Phone": "434-955-2252", "WIAID": 9, "FacilityTy": "Career and Technical Center", "ID": 84}},
{"geometry": {"type": "Point", "coordinates": [-82.5627374, 36.641857]}, "type": "Feature", "properties": {"City": "Gate City", "OBJECTID_1": 89, "Name": "Scott County Career and Technical Center", "OBJECTID": 59, "Zip": 24251, "AddressPhy": "387 Broadwater Ave.", "Phone": "276-386-6515", "WIAID": 1, "FacilityTy": "Career and Technical Center", "ID": 9}},
{"geometry": {"type": "Point", "coordinates": [-76.9375189, 36.674583]}, "type": "Feature", "properties": {"City": "Franklin", "OBJECTID_1": 90, "Name": "Workforce Development Center - Paul D. Camp Community College", "OBJECTID": 33, "Zip": 23851, "AddressPhy": "100 North College Drive\u00a0", "Phone": "757-569-6050", "WIAID": 16, "FacilityTy": "Satellite Center", "ID": 141}},
{"geometry": {"type": "Point", "coordinates": [-77.0884169, 38.864531]}, "type": "Feature", "properties": {"City": "Arlington", "OBJECTID_1": 91, "Name": "Arlington Career Center", "OBJECTID": 39, "Zip": 22204, "AddressPhy": "816 South Walter Reed Dr.", "Phone": "703-228-5800", "WIAID": 12, "FacilityTy": "Career and Technical Center", "ID": 102}},
{"geometry": {"type": "Point", "coordinates": [-78.1281884, 36.7237911]}, "type": "Feature", "properties": {"City": "South Hill", "OBJECTID_1": 92, "Name": "Virginia Workforce Center-South Hill", "OBJECTID": 16, "Zip": 23970, "AddressPhy": "111 East Danville St.", "Phone": "434-955-2252", "WIAID": 9, "FacilityTy": "Satellite Center", "ID": 90}},
{"geometry": {"type": "Point", "coordinates": [-76.2102515, 36.8693279]}, "type": "Feature", "properties": {"City": "Norfolk", "OBJECTID_1": 93, "Name": "Norfolk Technical Center", "OBJECTID": 53, "Zip": 23502, "AddressPhy": "1330 N. Military Hwy", "Phone": "757-892-3300", "WIAID": 16, "FacilityTy": "Career and Technical Center", "ID": 131}},
{"geometry": {"type": "Point", "coordinates": [-80.8954862, 36.6797361]}, "type": "Feature", "properties": {"City": "Galax", "OBJECTID_1": 94, "Name": "Galax Workforce Cetner", "OBJECTID": 125, "Zip": 24333, "AddressPhy": "963 East Stuart Drive", "Phone": "276-236-5105\u00a0", "WIAID": 2, "FacilityTy": "Satellite Center", "ID": 15}},
{"geometry": {"type": "Point", "coordinates": [-81.9519189, 36.7227502]}, "type": "Feature", "properties": {"City": "Abingdon", "OBJECTID_1": 95, "Name": "William N. Neff Center for Science and Technology", "OBJECTID": 65, "Zip": 24210, "AddressPhy": "255 Stanley St.", "Phone": "276-739-3100", "WIAID": 2, "FacilityTy": "Career and Technical Center", "ID": 29}},
{"geometry": {"type": "Point", "coordinates": [-77.5405789, 39.1144199]}, "type": "Feature", "properties": {"City": "Leesburg", "OBJECTID_1": 96, "Name": "Loudoun Workforce Resource Center", "OBJECTID": 19, "Zip": 20176, "AddressPhy": "102 Heritage Way NE, Ste. 200\u00a0", "Phone": "703-777-0150\u00a0", "WIAID": 11, "FacilityTy": "Satellite Center", "ID": 98}},
{"geometry": {"type": "Point", "coordinates": [-75.6965568, 37.6787419]}, "type": "Feature", "properties": {"City": "Onley", "OBJECTID_1": 97, "Name": "Eastern Shore Workforce Center", "OBJECTID": 25, "Zip": 23418, "AddressPhy": "25036 Lankford Highway", "Phone": "757-302-2011", "WIAID": 13, "FacilityTy": "Satellite Center", "ID": 107}},
{"geometry": {"type": "Point", "coordinates": [-77.388979, 37.6894416]}, "type": "Feature", "properties": {"City": "Mechanicsville", "OBJECTID_1": 98, "Name": "The Hanover Center for Trades and Technology", "OBJECTID": 105, "Zip": 23116, "AddressPhy": "10002 Learning Lane", "Phone": "804-723-2020", "WIAID": 5, "FacilityTy": "Career and Technical Center", "ID": 62}},
{"geometry": {"type": "Point", "coordinates": [-81.8018786, 37.0941627]}, "type": "Feature", "properties": {"City": "Richlands", "OBJECTID_1": 99, "Name": "Appalachian Workforce Center and Business Incubator", "OBJECTID": 85, "Zip": 24641, "AddressPhy": "1928 Front Street", "Phone": "276-963-2660", "WIAID": 1, "FacilityTy": "Comprehensive Center", "ID": 1}},
{"geometry": {"type": "Point", "coordinates": [-78.9889385, 38.1163685]}, "type": "Feature", "properties": {"City": "Fisherville", "OBJECTID_1": 100, "Name": "Valley Career and Technical Center", "OBJECTID": 62, "Zip": 22939, "AddressPhy": "49 Hornet Rd.", "Phone": "540-245-5002", "WIAID": 4, "FacilityTy": "Career and Technical Center", "ID": 44}},
{"geometry": {"type": "Point", "coordinates": [-79.8742251, 37.5000271]}, "type": "Feature", "properties": {"City": "Fincastle", "OBJECTID_1": 101, "Name": "Botetourt Technical Education Center", "OBJECTID": 42, "Zip": 24090, "AddressPhy": "253 State Poor Farm Road", "Phone": "540-473-8216", "WIAID": 3, "FacilityTy": "Career and Technical Center", "ID": 31}},
{"geometry": {"type": "Point", "coordinates": [-81.0755756, 36.9536713]}, "type": "Feature", "properties": {"City": "Wytheville", "OBJECTID_1": 102, "Name": "Virginia Workforce Center-Wytheville", "OBJECTID": 5, "Zip": 24382, "AddressPhy": "800 East Main Street, Suite 200", "Phone": "276-228-4051\u00a0", "WIAID": 2, "FacilityTy": "Comprehensive Center", "ID": 26}},
{"geometry": {"type": "Point", "coordinates": [-77.4938866, 37.6280892]}, "type": "Feature", "properties": {"City": "Richmond", "OBJECTID_1": 103, "Name": "Community College Workforce Alliance - Parham Rd.", "OBJECTID": 128, "Zip": 23228, "AddressPhy": "1651 Parham Rd.", "Phone": "804-523-2292", "WIAID": 5, "FacilityTy": "Career and Technical Center", "ID": 54}},
{"geometry": {"type": "Point", "coordinates": [-77.1211322, 38.8341329]}, "type": "Feature", "properties": {"City": "Alexandria", "OBJECTID_1": 104, "Name": "Alexandria Workforce Development Center", "OBJECTID": 22, "Zip": 22311, "AddressPhy": "1900 N. Beauregard St., Suite 300", "Phone": "703-746-5990", "WIAID": 12, "FacilityTy": "Comprehensive Center", "ID": 101}},
{"geometry": {"type": "Point", "coordinates": [-78.11271, 38.2457328]}, "type": "Feature", "properties": {"City": "Orange", "OBJECTID_1": 105, "Name": "Orange Workforce Center", "OBJECTID": 108, "Zip": 22960, "AddressPhy": "127 Belleview Avenue", "Phone": "540-661-4654", "WIAID": 7, "FacilityTy": "Satellite Center", "ID": 71}},
{"geometry": {"type": "Point", "coordinates": [-76.2201107, 36.872158]}, "type": "Feature", "properties": {"City": "Norfolk", "OBJECTID_1": 106, "Name": "Tidewater Tech", "OBJECTID": 82, "Zip": 23502, "AddressPhy": "5301 East Princess Anne Road", "Phone": "757-858-8324", "WIAID": 16, "FacilityTy": "Career and Technical Center", "ID": 140}},
{"geometry": {"type": "Point", "coordinates": [-83.0839417, 36.7315081]}, "type": "Feature", "properties": {"City": "Ben Hur", "OBJECTID_1": 107, "Name": "Lee County Career & Technical Center", "OBJECTID": 88, "Zip": 24218, "AddressPhy": "One Vo-Tech Dr.", "Phone": "276-346-1960", "WIAID": 1, "FacilityTy": "Career and Technical Center", "ID": 6}},
{"geometry": {"type": "Point", "coordinates": [-75.7506903, 37.640609]}, "type": "Feature", "properties": {"City": "Melfa", "OBJECTID_1": 108, "Name": "ESCC Business Development & Workforce Training Center", "OBJECTID": 102, "Zip": 23410, "AddressPhy": "29300 Lankford Highway", "Phone": "757-789-7979", "WIAID": 13, "FacilityTy": "Career and Technical Center", "ID": 108}},
{"geometry": {"type": "Point", "coordinates": [-76.2992308, 36.7252068]}, "type": "Feature", "properties": {"City": "Chesapeake", "OBJECTID_1": 109, "Name": "Chesapeake Center for Science & Technology", "OBJECTID": 45, "Zip": 23322, "AddressPhy": "1617 Cedar Rd.", "Phone": "757-547-0134", "WIAID": 16, "FacilityTy": "Career and Technical Center", "ID": 130}},
{"geometry": {"type": "Point", "coordinates": [-78.1626967, 39.1880819]}, "type": "Feature", "properties": {"City": "Winchester", "OBJECTID_1": 110, "Name": "Valley Workforce Center - Winchester", "OBJECTID": 145, "Zip": 22601, "AddressPhy": "411 N. Cameron St., Ste. 202", "Phone": "540-545-4146", "WIAID": 4, "FacilityTy": "Satellite Center", "ID": 49}},
{"geometry": {"type": "Point", "coordinates": [-82.1178479, 36.6324941]}, "type": "Feature", "properties": {"City": "Bristol", "OBJECTID_1": 111, "Name": "Bristol Workforce Center", "OBJECTID": 2, "Zip": 24209, "AddressPhy": "192 Bristol East Road", "Phone": "276-642-7350\u00a0", "WIAID": 2, "FacilityTy": "Satellite Center", "ID": 14}},
{"geometry": {"type": "Point", "coordinates": [-79.9996621, 37.7646592]}, "type": "Feature", "properties": {"City": "Covington", "OBJECTID_1": 112, "Name": "Jackson River Technical Center", "OBJECTID": 48, "Zip": 24426, "AddressPhy": "105 E. Country Club Ln.", "Phone": "540-862-3592", "WIAID": 3, "FacilityTy": "Career and Technical Center", "ID": 36}},
{"geometry": {"type": "Point", "coordinates": [-82.0565723, 36.9013818]}, "type": "Feature", "properties": {"City": "Lebanon", "OBJECTID_1": 113, "Name": "Russell County Career & Technology Center", "OBJECTID": 71, "Zip": 24266, "AddressPhy": "304 Career Tech Dr.", "Phone": "276-889-6550", "WIAID": 1, "FacilityTy": "Career and Technical Center", "ID": 8}},
{"geometry": {"type": "Point", "coordinates": [-78.3996541, 37.3002363]}, "type": "Feature", "properties": {"City": "Farmville", "OBJECTID_1": 114, "Name": "Virginia Workforce Center-Farmville", "OBJECTID": 94, "Zip": 23901, "AddressPhy": "225-B Industrial Park Rd.", "Phone": "434-391-1246", "WIAID": 9, "FacilityTy": "Satellite Center", "ID": 88}},
{"geometry": {"type": "Point", "coordinates": [-78.4834856, 38.0069224]}, "type": "Feature", "properties": {"City": "Charlottesville", "OBJECTID_1": 115, "Name": "The Hire Education Center at PVCC", "OBJECTID": 117, "Zip": 22902, "AddressPhy": "501 College Dr.", "Phone": "434-961-5351", "WIAID": 7, "FacilityTy": "Career and Technical Center", "ID": 73}},
{"geometry": {"type": "Point", "coordinates": [-77.3274797, 37.2599349]}, "type": "Feature", "properties": {"City": "Hopewell", "OBJECTID_1": 116, "Name": "Virginia Workforce Center-Tri-Cities", "OBJECTID": 31, "Zip": 23860, "AddressPhy": "5240 Oaklawn Boulevard\u00a0", "Phone": "804-541-6548", "WIAID": 15, "FacilityTy": "Comprehensive Center", "ID": 127}},
{"geometry": {"type": "Point", "coordinates": [-82.8015289, 36.7131645]}, "type": "Feature", "properties": {"City": "Duffield", "OBJECTID_1": 117, "Name": "Pioneer Center for Business Opportunity", "OBJECTID": 134, "Zip": 24244, "AddressPhy": "225 Boone Trail Rd., Ste 121", "Phone": "276-431-3605", "WIAID": 1, "FacilityTy": "Satellite Center", "ID": 7}},
{"geometry": {"type": "Point", "coordinates": [-77.9944697, 38.471112]}, "type": "Feature", "properties": {"City": "Culpeper", "OBJECTID_1": 118, "Name": "Culpeper Career Resource Center", "OBJECTID": 11, "Zip": 22701, "AddressPhy": "210 E. Stevens St., Suite 300", "Phone": "540-829-4956", "WIAID": 7, "FacilityTy": "Satellite Center", "ID": 65}},
{"geometry": {"type": "Point", "coordinates": [-76.4362898, 36.9026488]}, "type": "Feature", "properties": {"City": "Suffolk", "OBJECTID_1": 119, "Name": "TCC Center For Workforce Solutions", "OBJECTID": 111, "Zip": 23435, "AddressPhy": "7000 College Dr.", "Phone": "757-822-1234", "WIAID": 16, "FacilityTy": "Career and Technical Center", "ID": 137}},
{"geometry": {"type": "Point", "coordinates": [-78.4860897, 38.6013707]}, "type": "Feature", "properties": {"City": "Luray", "OBJECTID_1": 120, "Name": "Page County Technical Center", "OBJECTID": 54, "Zip": 22835, "AddressPhy": "525 Middleburg Rd.", "Phone": "540-778-7282", "WIAID": 4, "FacilityTy": "Career and Technical Center", "ID": 41}},
{"geometry": {"type": "Point", "coordinates": [-78.473608, 38.3123533]}, "type": "Feature", "properties": {"City": "Stanardsville", "OBJECTID_1": 121, "Name": "Greene County Job Spot", "OBJECTID": 91, "Zip": 22973, "AddressPhy": "10009 Spotswood Trail", "Phone": "434-985-5246", "WIAID": 7, "FacilityTy": "Satellite Center", "ID": 66}},
{"geometry": {"type": "Point", "coordinates": [-76.4272132, 37.0038751]}, "type": "Feature", "properties": {"City": "Newport News", "OBJECTID_1": 122, "Name": "Southeast Higher Education Center", "OBJECTID": 114, "Zip": 23605, "AddressPhy": "5720 Marshall Ave.", "Phone": "757-283-7820", "WIAID": 14, "FacilityTy": "Career and Technical Center", "ID": 122}},
{"geometry": {"type": "Point", "coordinates": [-78.5112617, 37.5423572]}, "type": "Feature", "properties": {"City": "Buckingham", "OBJECTID_1": 123, "Name": "Buckingham Career and Technical Center", "OBJECTID": 68, "Zip": 23921, "AddressPhy": "98 Fanny White Rd.", "Phone": "434-969-6180", "WIAID": 9, "FacilityTy": "Career and Technical Center", "ID": 81}},
{"geometry": {"type": "Point", "coordinates": [-76.414922, 37.0619848]}, "type": "Feature", "properties": {"City": "Hampton", "OBJECTID_1": 124, "Name": "Peninsula Worklink One-Stop Center-Hampton", "OBJECTID": 28, "Zip": 23666, "AddressPhy": "600 Butler Farm Road,  Room 1015", "Phone": "757-766-4900", "WIAID": 14, "FacilityTy": "Comprehensive Center", "ID": 120}},
{"geometry": {"type": "Point", "coordinates": [-76.7478398, 37.9446985]}, "type": "Feature", "properties": {"City": "Warsaw", "OBJECTID_1": 125, "Name": "Northern Neck Technical Center", "OBJECTID": 74, "Zip": 22572, "AddressPhy": "13946 Historyland Highway", "Phone": "804-333-4940", "WIAID": 13, "FacilityTy": "Career and Technical Center", "ID": 112}},
{"geometry": {"type": "Point", "coordinates": [-79.9782776, 37.2874212]}, "type": "Feature", "properties": {"City": "Roanoke", "OBJECTID_1": 126, "Name": "Goodwill Industries Jobs Campus", "OBJECTID": 131, "Zip": 24017, "AddressPhy": "2502 Melrose Ave., NW", "Phone": "540-581-0620", "WIAID": 3, "FacilityTy": "Satellite Center", "ID": 34}},
{"geometry": {"type": "Point", "coordinates": [-77.4700572, 37.5804064]}, "type": "Feature", "properties": {"City": "Richmond", "OBJECTID_1": 127, "Name": "Richmond Technical Center - North", "OBJECTID": 137, "Zip": 23230, "AddressPhy": "2015 Seddon Way", "Phone": "804-780-6272", "WIAID": 5, "FacilityTy": "Career and Technical Center", "ID": 60}},
{"geometry": {"type": "Point", "coordinates": [-79.8908766, 36.9983464]}, "type": "Feature", "properties": {"City": "Rocky Mount", "OBJECTID_1": 128, "Name": "Franklin Center for Advanced Learning and Enterprise", "OBJECTID": 8, "Zip": 24151, "AddressPhy": "50 Claiburne Ave.", "Phone": "540-483-0179\u00a0", "WIAID": 3, "FacilityTy": "Satellite Center", "ID": 33}},
{"geometry": {"type": "Point", "coordinates": [-76.4864871, 37.1221058]}, "type": "Feature", "properties": {"City": "Newport News", "OBJECTID_1": 129, "Name": "New Horizons Regional Education Center-Kiln Creek", "OBJECTID": 51, "Zip": 23602, "AddressPhy": "1501 Kiln Creek Parkway", "Phone": "757-898-7958", "WIAID": 14, "FacilityTy": "Career and Technical Center", "ID": 118}},
{"geometry": {"type": "Point", "coordinates": [-82.0894393, 36.8992877]}, "type": "Feature", "properties": {"City": "Lebanon", "OBJECTID_1": 130, "Name": "The Castle Building", "OBJECTID": 140, "Zip": 24266, "AddressPhy": "547 W. Main St.", "Phone": "276-889-2185", "WIAID": 1, "FacilityTy": "Satellite Center", "ID": 12}},
{"geometry": {"type": "Point", "coordinates": [-80.882549, 36.6881571]}, "type": "Feature", "properties": {"City": "Galax", "OBJECTID_1": 131, "Name": "The Crossroads Institute", "OBJECTID": 77, "Zip": 24333, "AddressPhy": "1117 E. Stuart Dr.", "Phone": "276-744-4970", "WIAID": 2, "FacilityTy": "Career and Technical Center", "ID": 23}},
{"geometry": {"type": "Point", "coordinates": [-77.5186418, 37.3961772]}, "type": "Feature", "properties": {"City": "Richmond", "OBJECTID_1": 132, "Name": "Chesterfield Resource Workforce Center", "OBJECTID": 17, "Zip": 23237, "AddressPhy": "7333 White Pine Road", "Phone": "804-271-8510\u00a0", "WIAID": 5, "FacilityTy": "Comprehensive Center", "ID": 52}},
{"geometry": {"type": "Point", "coordinates": [-76.3368781, 36.8399038]}, "type": "Feature", "properties": {"City": "Portsmouth", "OBJECTID_1": 133, "Name": "Arclabs Welding School", "OBJECTID": 123, "Zip": 23707, "AddressPhy": "807 Florida Ave.", "Phone": "757-399-1440", "WIAID": 16, "FacilityTy": "Career and Technical Center", "ID": 129}},
{"geometry": {"type": "Point", "coordinates": [-77.5532174, 38.2326327]}, "type": "Feature", "properties": {"City": "Spotsylvania", "OBJECTID_1": 134, "Name": "Spotsylvania Career & Technical Center", "OBJECTID": 60, "Zip": 22553, "AddressPhy": "6713 Smith Station Rd.", "Phone": "540-898-2655", "WIAID": 13, "FacilityTy": "Career and Technical Center", "ID": 115}},
{"geometry": {"type": "Point", "coordinates": [-81.6180142, 36.8111273]}, "type": "Feature", "properties": {"City": "Marion", "OBJECTID_1": 135, "Name": "Smyth Career & Technology Center", "OBJECTID": 83, "Zip": 24354, "AddressPhy": "147 Fox Valley Rd.", "Phone": "276-646-8117", "WIAID": 2, "FacilityTy": "Career and Technical Center", "ID": 21}},
{"geometry": {"type": "Point", "coordinates": [-76.2013513, 36.8520012]}, "type": "Feature", "properties": {"City": "Norfolk", "OBJECTID_1": 136, "Name": "Opportunity, Inc. One Stop Workforce Center", "OBJECTID": 34, "Zip": 23502, "AddressPhy": "861 Glenrock Road\u00a0, Ste. 100", "Phone": "757-461-7537", "WIAID": 16, "FacilityTy": "Comprehensive Center", "ID": 133}},
{"geometry": {"type": "Point", "coordinates": [-80.0785373, 37.2878076]}, "type": "Feature", "properties": {"City": "Salem", "OBJECTID_1": 137, "Name": "Burton Center For Arts and Technology", "OBJECTID": 40, "Zip": 24153, "AddressPhy": "1760 Boulevard", "Phone": "540-857-5000", "WIAID": 3, "FacilityTy": "Career and Technical Center", "ID": 32}},
{"geometry": {"type": "Point", "coordinates": [-79.8781485, 36.6956525]}, "type": "Feature", "properties": {"City": "Martinsville", "OBJECTID_1": 138, "Name": "Virginia Workforce Center-Martinsville Henry County", "OBJECTID": 103, "Zip": 24112, "AddressPhy": "233 W. Commonwealth Blvd.", "Phone": "276-634-3600", "WIAID": 17, "FacilityTy": "Comprehensive Center", "ID": 147}},
{"geometry": {"type": "Point", "coordinates": [-77.9786789, 37.3414142]}, "type": "Feature", "properties": {"City": "Amelia Court House", "OBJECTID_1": 139, "Name": "Workforce Information Site - Amelia", "OBJECTID": 97, "Zip": 23002, "AddressPhy": "James L. Hammer Public Library", "Phone": "804-561-4559", "WIAID": 9, "FacilityTy": "Informational Center", "ID": 93}},
{"geometry": null, "type": "Feature", "properties": {"City": "Buena Vista", "OBJECTID_1": 140, "Name": "Valley Workforce Center - Rockbridge", "OBJECTID": 143, "Zip": 24461, "AddressPhy": "35 Vista Link Dr.", "Phone": "540-759-2397", "WIAID": 4, "FacilityTy": "Satellite Center", "ID": 47}},
{"geometry": {"type": "Point", "coordinates": [-77.1979189, 38.2761344]}, "type": "Feature", "properties": {"City": "King George", "OBJECTID_1": 141, "Name": "RCC King George Site", "OBJECTID": 120, "Zip": 22485, "AddressPhy": "10100 Foxes Way", "Phone": "540-775-0087", "WIAID": 13, "FacilityTy": "Career and Technical Center", "ID": 113}},
{"geometry": {"type": "Point", "coordinates": [-77.3429123, 38.9682186]}, "type": "Feature", "properties": {"City": "Reston", "OBJECTID_1": 142, "Name": "Fairfax SkillSource Center - Reston", "OBJECTID": 20, "Zip": 22190, "AddressPhy": "11484 Washington Plaza West, Suite 110\u00a0", "Phone": "703-787-4974", "WIAID": 11, "FacilityTy": "Comprehensive Center", "ID": 97}},
{"geometry": {"type": "Point", "coordinates": [-76.5831263, 36.7294849]}, "type": "Feature", "properties": {"City": "Suffolk", "OBJECTID_1": 143, "Name": "Suffolk Workforce Development Center", "OBJECTID": 80, "Zip": 23434, "AddressPhy": "157 North Main St.", "Phone": "757-514-7737", "WIAID": 16, "FacilityTy": "Satellite Center", "ID": 135}},
{"geometry": {"type": "Point", "coordinates": [-77.4691954, 37.5792419]}, "type": "Feature", "properties": {"City": "Richmond", "OBJECTID_1": 144, "Name": "Richmond Technical Center - South", "OBJECTID": 57, "Zip": 23230, "AddressPhy": "2020 Westwood Ave.", "Phone": "804-780-6237", "WIAID": 5, "FacilityTy": "Career and Technical Center", "ID": 61}},
{"geometry": {"type": "Point", "coordinates": [-79.1713431, 37.4043907]}, "type": "Feature", "properties": {"City": "Lynchburg", "OBJECTID_1": 145, "Name": "Region 2000 Career Center", "OBJECTID": 14, "Zip": 24501, "AddressPhy": "2323 Memorial Avenue", "Phone": "434 455-5940\u00a0", "WIAID": 8, "FacilityTy": "Comprehensive Center", "ID": 79}},
{"geometry": {"type": "Point", "coordinates": [-79.399594, 36.6266662]}, "type": "Feature", "properties": {"City": "Danville", "OBJECTID_1": 146, "Name": "Virginia Workforce Center-Danville", "OBJECTID": 37, "Zip": 24540, "AddressPhy": "211 Nor Dan Drive", "Phone": "434-549-8220", "WIAID": 17, "FacilityTy": "Comprehensive Center", "ID": 146}},
{"geometry": {"type": "Point", "coordinates": [-77.9179979, 36.8390301]}, "type": "Feature", "properties": {"City": "Alberta", "OBJECTID_1": 147, "Name": "Workforce Information Center - Alberta", "OBJECTID": 100, "Zip": 23281, "AddressPhy": "109 Campus Drive", "Phone": "434-949-1000", "WIAID": 9, "FacilityTy": "Informational Center", "ID": 91}}
]}