{"type":"FeatureCollection","features":[
{"geometry": {"type": "Point", "coordinates": [-77.7069357, 37.380936]}, "type": "Feature", "properties": {"Status": 0, "RestrictionDate": null, "BarrierType": "Both", "Name": "Otterdale Road (North)", "OBJECTID": 1, "SideOfEdge": 1, "SourceID": 1, "CurbApproach": 0, "PosAlong": 0.58294942, "SourceOID": 17749, "GlobalID": "817d1813-cc0c-474d-918e-81990582a7b5"}},
{"geometry": {"type": "Point", "coordinates": [-77.5969253, 37.3955875]}, "type": "Feature", "properties": {"Status": 0, "RestrictionDate": null, "BarrierType": "Both", "Name": "Qualla Road over Swift Creek", "OBJECTID": 2, "SideOfEdge": 0, "SourceID": 0, "CurbApproach": 0, "PosAlong": 0, "SourceOID": 0, "GlobalID": "775d8bda-394a-4122-994b-d41ad8e1da16"}},
{"geometry": {"type": "Point", "coordinates": [-77.6743215, 37.4434458]}, "type": "Feature", "properties": {"Status": 0, "RestrictionDate": null, "BarrierType": "Heavy", "Name": "14450 Genito Road", "OBJECTID": 3, "SideOfEdge": 2, "SourceID": 1, "CurbApproach": null, "PosAlong": 0.56139281, "SourceOID": 18369, "GlobalID": "941fe413-affd-4e2b-bbdb-a93ddbd07ac9"}},
{"geometry": {"type": "Point", "coordinates": [-77.7022431, 37.3718308]}, "type": "Feature", "properties": {"Status": 0, "RestrictionDate": null, "BarrierType": null, "Name": "Otterdale Road (South)", "OBJECTID": 4, "SideOfEdge": 2, "SourceID": 1, "CurbApproach": null, "PosAlong": 0.96945185, "SourceOID": 17904, "GlobalID": "09f808e1-8928-4b34-89f5-3a2285366a55"}},
{"geometry": {"type": "Point", "coordinates": [-77.5988034, 37.3722649]}, "type": "Feature", "properties": {"Status": 0, "RestrictionDate": null, "BarrierType": null, "Name": "10151 Spring Run Road", "OBJECTID": 5, "SideOfEdge": 2, "SourceID": 1, "CurbApproach": null, "PosAlong": 0.50364846, "SourceOID": 18363, "GlobalID": "bd09fa28-ce31-44b5-ba11-1900fe9a824c"}},
{"geometry": {"type": "Point", "coordinates": [-77.7275676, 37.3305186]}, "type": "Feature", "properties": {"Status": 0, "RestrictionDate": null, "BarrierType": null, "Name": "17160 River Road", "OBJECTID": 6, "SideOfEdge": 2, "SourceID": 1, "CurbApproach": null, "PosAlong": 0.67714963, "SourceOID": 17757, "GlobalID": "7cc3a3e4-81fa-4ede-a07e-ca75c1d2bcd9"}},
{"geometry": {"type": "Point", "coordinates": [-77.7191968, 37.3448746]}, "type": "Feature", "properties": {"Status": 0, "RestrictionDate": null, "BarrierType": null, "Name": "12100 Winterpock Road", "OBJECTID": 7, "SideOfEdge": 2, "SourceID": 1, "CurbApproach": null, "PosAlong": 0.70931734, "SourceOID": 17758, "GlobalID": "eefd17e7-caa1-495e-aa27-f9b3b3f80e05"}},
{"geometry": {"type": "Point", "coordinates": [-77.60317, 37.3336]}, "type": "Feature", "properties": {"Status": 0, "RestrictionDate": null, "BarrierType": null, "Name": "12396 Bundle Road", "OBJECTID": 8, "SideOfEdge": 1, "SourceID": 1, "CurbApproach": null, "PosAlong": 0.55932188, "SourceOID": 17763, "GlobalID": "c756e50d-4e95-48cb-aa3c-f558b370af64"}},
{"geometry": {"type": "Point", "coordinates": [-77.7397251, 37.4772277]}, "type": "Feature", "properties": {"Status": 0, "RestrictionDate": null, "BarrierType": null, "Name": "1940 Mt Hermon Road", "OBJECTID": 9, "SideOfEdge": 1, "SourceID": 1, "CurbApproach": null, "PosAlong": 0.59278027, "SourceOID": 17267, "GlobalID": "de4cae6d-7012-49ad-a528-a01f69a18d02"}},
{"geometry": {"type": "Point", "coordinates": [-77.5643279, 37.2995618]}, "type": "Feature", "properties": {"Status": 0, "RestrictionDate": null, "BarrierType": null, "Name": "14050 Nash Road", "OBJECTID": 10, "SideOfEdge": 1, "SourceID": 1, "CurbApproach": null, "PosAlong": 0.60330321, "SourceOID": 17759, "GlobalID": "872be6a0-0394-4888-a41a-d53229b135b2"}},
{"geometry": {"type": "Point", "coordinates": [-77.3731757, 37.3159187]}, "type": "Feature", "properties": {"Status": 0, "RestrictionDate": null, "BarrierType": null, "Name": "1190 Ruffin Mill Road", "OBJECTID": 11, "SideOfEdge": 2, "SourceID": 1, "CurbApproach": null, "PosAlong": 0.66688784, "SourceOID": 18367, "GlobalID": "bda0b3d9-8227-44bc-8a3d-2a20746f4931"}},
{"geometry": {"type": "Point", "coordinates": [-77.4363049, 37.4150829]}, "type": "Feature", "properties": {"Status": null, "RestrictionDate": null, "BarrierType": null, "Name": "8000 JEFFERSON DAVIS HWY", "OBJECTID": 12, "SideOfEdge": null, "SourceID": null, "CurbApproach": null, "PosAlong": null, "SourceOID": null, "GlobalID": "e5c86290-d25c-4b83-918d-9be4edf47162"}},
{"geometry": {"type": "Point", "coordinates": [-77.4363286, 37.4151678]}, "type": "Feature", "properties": {"Status": null, "RestrictionDate": null, "BarrierType": null, "Name": "8000 JEFFERSON DAVIS HWY", "OBJECTID": 13, "SideOfEdge": null, "SourceID": null, "CurbApproach": null, "PosAlong": null, "SourceOID": null, "GlobalID": "67bcbf12-f25c-48ad-9708-c0df91261349"}}
]}