{"type":"FeatureCollection","features":[
{"geometry": {"type": "Point", "coordinates": [-77.4035001, 37.4895549]}, "type": "Feature", "properties": {"City": "Richmond", "Name": "7-Eleven", "OBJECTID": 2, "Owner_Apporved": 1, "Image": null, "Zip": 23231, "GlobalID": "507d7e20-0d0d-4020-bc68-b44adec7902a", "Address": "1125 New Market Road", "Notes": "Does it have a bathroom? Can people park?"}},
{"geometry": {"type": "Point", "coordinates": [-77.4023414, 37.4896571]}, "type": "Feature", "properties": {"City": "Richmond", "Name": "BP", "OBJECTID": 3, "Owner_Apporved": 1, "Image": null, "Zip": 23231, "GlobalID": "f2aa3d96-c0b5-47c8-80de-67e1584fcf34", "Address": "1130 New Market Road", "Notes": "Does it have a bathroom? Can people park?"}},
{"geometry": {"type": "Point", "coordinates": [-77.3518274, 37.4450189]}, "type": "Feature", "properties": {"City": "Richmond", "Name": "Fast Mart", "OBJECTID": 4, "Owner_Apporved": 1, "Image": null, "Zip": 23231, "GlobalID": "dc983875-2621-471c-b890-9d776e47f0ac", "Address": "2650 New Market Rd", "Notes": "parking? restrooms?"}},
{"geometry": {"type": "Point", "coordinates": [-77.0623795, 37.3412615]}, "type": "Feature", "properties": {"City": "Charles City", "Name": "Krupt Country Store", "OBJECTID": 5, "Owner_Apporved": 1, "Image": null, "Zip": 23030, "GlobalID": "f754ce58-f260-4961-bdc9-58c9610c34ec", "Address": "11911 John Tyler Memorial Hwy", "Notes": null}},
{"geometry": {"type": "Point", "coordinates": [-76.9641892, 37.3101639]}, "type": "Feature", "properties": {"City": "Charles City", "Name": "Sandy Point Superette", "OBJECTID": 6, "Owner_Apporved": 1, "Image": null, "Zip": 23030, "GlobalID": "38f34b4a-d822-478d-9a68-df8d6c552e60", "Address": "17701 John Tyler Memorial Hwy", "Notes": "parking? restrooms?"}}
]}