{"type":"FeatureCollection","features":[
{"geometry": {"type": "Point", "coordinates": [-77.4208004, 37.5261601]}, "type": "Feature", "properties": {"City": "Richmond", "Owner_Approved": 1, "Name": "Great Shiplock Park", "Zip": 23223, "Image": null, "GlobalID": "89284c9e-0ddd-43df-88be-6ca12dd0f43e", "OBJECTID": 2, "Address": "111 Pear Street", "Notes": "Paved"}},
{"geometry": {"type": "Point", "coordinates": [-77.4166429, 37.5207186]}, "type": "Feature", "properties": {"City": "Richmond", "Owner_Approved": 1, "Name": "Rocket's Landing Lot ", "Zip": 23223, "Image": "https://lh3.googleusercontent.com/npndn-LIVYEZI_L8kHnJSswnAHHQYtROMt3bp-fIUUuYTOGOn7KL5Glw1x16Eu8wvGU1FNS4ip_1fGE=w1896-h835-rw", "GlobalID": "324de935-7013-471a-ad12-a87cb67fd016", "OBJECTID": 4, "Address": "3101 Water Street", "Notes": "Gravel"}},
{"geometry": {"type": "Point", "coordinates": [-77.3357878, 37.4683376]}, "type": "Feature", "properties": {"City": "Richmond", "Owner_Approved": 0, "Name": "Dorey Park", "Zip": 23231, "Image": null, "GlobalID": "a1b84815-2171-49da-99fc-b3660609b38a", "OBJECTID": 6, "Address": "7200 Dorey Park Drive", "Notes": "restrooms? picnic areas? http://henrico.us/rec/places/dorey/"}},
{"geometry": {"type": "Point", "coordinates": [-77.0724646, 37.3411463]}, "type": "Feature", "properties": {"City": "Charles City", "Owner_Approved": 1, "Name": "Charles City Courthouse", "Zip": 23030, "Image": "https://lh3.googleusercontent.com/hpE9pkHWjhEBvRn-oyReWC5pjYoSN2kTneaxVDIcvJJz_MTdFWsTwWEjtYANw9hCEuj0xqtBvdbzMko=w1256-h819-rw", "GlobalID": "afa9bcd5-2401-439a-8b1e-6e578832ed3c", "OBJECTID": 7, "Address": "10780 Courthouse Rd", "Notes": null}},
{"geometry": {"type": "Point", "coordinates": [-76.8718031, 37.265423]}, "type": "Feature", "properties": {"City": "Williamsburg", "Owner_Approved": 0, "Name": "Chickahominy Riverfront Park", "Zip": 23185, "Image": "https://lh4.googleusercontent.com/XURBT3lstaXBFOjY8M5xRq1VPMh4LMAxLtgBElVyAES5Wt3rb8jRU9K3MY3Z-8C8CvRGlmKk8ZRLTds=w1256-h819-rw", "GlobalID": "27713a7d-fabd-40b3-8f1d-4217ac3586d2", "OBJECTID": 8, "Address": "1350 John Tyler Memorial Hwy", "Notes": null}}
]}