{"type":"FeatureCollection","features":[
{"geometry": {"type": "Point", "coordinates": [-118.7953, 55.15351]}, "type": "Feature", "properties": {"FCC": "D61", "NAME": "Southview Shopping Centre", "OBJECTID": 1}},
{"geometry": {"type": "Point", "coordinates": [-118.793857, 55.18744]}, "type": "Feature", "properties": {"FCC": "D61", "NAME": "Prairie Mall", "OBJECTID": 2}},
{"geometry": {"type": "Point", "coordinates": [-113.628865, 53.501385]}, "type": "Feature", "properties": {"FCC": "D61", "NAME": "The Marketplace at Callingwood", "OBJECTID": 3}},
{"geometry": {"type": "Point", "coordinates": [-113.626083, 53.502681]}, "type": "Feature", "properties": {"FCC": "D61", "NAME": "Callingwood Square", "OBJECTID": 4}},
{"geometry": {"type": "Point", "coordinates": [-113.637764, 53.532995]}, "type": "Feature", "properties": {"FCC": "D61", "NAME": "La Perle Shopping Centre", "OBJECTID": 5}},
{"geometry": {"type": "Point", "coordinates": [-113.612579, 53.621211]}, "type": "Feature", "properties": {"FCC": "D61", "NAME": "Village Tree Mall", "OBJECTID": 6}},
{"geometry": {"type": "Point", "coordinates": [-113.628784, 53.629176]}, "type": "Feature", "properties": {"FCC": "D61", "NAME": "Grandin Park Plaza", "OBJECTID": 7}},
{"geometry": {"type": "Point", "coordinates": [-113.622517, 53.642974]}, "type": "Feature", "properties": {"FCC": "D61", "NAME": "St Albert Centre", "OBJECTID": 8}},
{"geometry": {"type": "Point", "coordinates": [-113.543635, 53.600299]}, "type": "Feature", "properties": {"FCC": "D61", "NAME": "Kensington Crossing", "OBJECTID": 9}},
{"geometry": {"type": "Point", "coordinates": [-113.53268, 53.600581]}, "type": "Feature", "properties": {"FCC": "D61", "NAME": "White Oaks Square", "OBJECTID": 10}},
{"geometry": {"type": "Point", "coordinates": [-113.537079, 53.601359]}, "type": "Feature", "properties": {"FCC": "D61", "NAME": "Castle Downs Centre Mall", "OBJECTID": 11}},
{"geometry": {"type": "Point", "coordinates": [-113.533802, 53.622573]}, "type": "Feature", "properties": {"FCC": "D61", "NAME": "Dunluce Square", "OBJECTID": 12}},
{"geometry": {"type": "Point", "coordinates": [-113.514745, 53.615389]}, "type": "Feature", "properties": {"FCC": "D61", "NAME": "Lake Beaumaris Mall", "OBJECTID": 13}},
{"geometry": {"type": "Point", "coordinates": [-113.489424, 53.627812]}, "type": "Feature", "properties": {"FCC": "D61", "NAME": "Namao Centre", "OBJECTID": 14}},
{"geometry": {"type": "Point", "coordinates": [-113.200418, 53.703795]}, "type": "Feature", "properties": {"FCC": "D61", "NAME": "Southfort Square", "OBJECTID": 15}},
{"geometry": {"type": "Point", "coordinates": [-113.488771, 53.597904]}, "type": "Feature", "properties": {"FCC": "D61", "NAME": "Northwood Mall", "OBJECTID": 16}},
{"geometry": {"type": "Point", "coordinates": [-113.488261, 53.600795]}, "type": "Feature", "properties": {"FCC": "D61", "NAME": "North Town Mall", "OBJECTID": 17}},
{"geometry": {"type": "Point", "coordinates": [-113.483218, 53.606894]}, "type": "Feature", "properties": {"FCC": "D61", "NAME": "Dickinsfield Shopping Centre", "OBJECTID": 18}},
{"geometry": {"type": "Point", "coordinates": [-113.465836, 53.583983]}, "type": "Feature", "properties": {"FCC": "D61", "NAME": "Delton Square", "OBJECTID": 19}},
{"geometry": {"type": "Point", "coordinates": [-113.445745, 53.602453]}, "type": "Feature", "properties": {"FCC": "D61", "NAME": "Londonderry Mall", "OBJECTID": 20}},
{"geometry": {"type": "Point", "coordinates": [-113.417183, 53.586719]}, "type": "Feature", "properties": {"FCC": "D61", "NAME": "Hermitage Square", "OBJECTID": 21}},
{"geometry": {"type": "Point", "coordinates": [-113.410023, 53.598721]}, "type": "Feature", "properties": {"FCC": "D61", "NAME": "Clareview Town Centre", "OBJECTID": 22}},
{"geometry": {"type": "Point", "coordinates": [-113.406207, 53.587264]}, "type": "Feature", "properties": {"FCC": "D61", "NAME": "Hermitage Road Shopping Centre", "OBJECTID": 23}},
{"geometry": {"type": "Point", "coordinates": [-113.384533, 53.603836]}, "type": "Feature", "properties": {"FCC": "D61", "NAME": "Clareview Village Shopping Centre", "OBJECTID": 24}},
{"geometry": {"type": "Point", "coordinates": [-113.620173, 53.522609]}, "type": "Feature", "properties": {"FCC": "D61", "NAME": "West Edmonton Mall", "OBJECTID": 25}},
{"geometry": {"type": "Point", "coordinates": [-113.624837, 53.515577]}, "type": "Feature", "properties": {"FCC": "D61", "NAME": "Sherwood Centre", "OBJECTID": 26}},
{"geometry": {"type": "Point", "coordinates": [-113.617323, 53.526246]}, "type": "Feature", "properties": {"FCC": "D61", "NAME": "Westgate Centre", "OBJECTID": 27}},
{"geometry": {"type": "Point", "coordinates": [-113.617558, 53.533785]}, "type": "Feature", "properties": {"FCC": "D61", "NAME": "Terra Losa Shopping Centre", "OBJECTID": 28}},
{"geometry": {"type": "Point", "coordinates": [-113.617692, 53.537468]}, "type": "Feature", "properties": {"FCC": "D61", "NAME": "Depot 170", "OBJECTID": 29}},
{"geometry": {"type": "Point", "coordinates": [-113.611131, 53.543467]}, "type": "Feature", "properties": {"FCC": "D61", "NAME": "Mayfield Common", "OBJECTID": 30}},
{"geometry": {"type": "Point", "coordinates": [-113.603795, 53.532537]}, "type": "Feature", "properties": {"FCC": "D61", "NAME": "Westgate Plaza", "OBJECTID": 31}},
{"geometry": {"type": "Point", "coordinates": [-113.606815, 53.556393]}, "type": "Feature", "properties": {"FCC": "D61", "NAME": "Mayfield Plaza", "OBJECTID": 32}},
{"geometry": {"type": "Point", "coordinates": [-113.551128, 53.57076]}, "type": "Feature", "properties": {"FCC": "D61", "NAME": "Circle Square Plaza", "OBJECTID": 33}},
{"geometry": {"type": "Point", "coordinates": [-113.593692, 53.521222]}, "type": "Feature", "properties": {"FCC": "D61", "NAME": "Meadowlark Shopping Centre", "OBJECTID": 34}},
{"geometry": {"type": "Point", "coordinates": [-113.579466, 53.540359]}, "type": "Feature", "properties": {"FCC": "D61", "NAME": "Jasper Gates Square", "OBJECTID": 35}},
{"geometry": {"type": "Point", "coordinates": [-113.430226, 53.455061]}, "type": "Feature", "properties": {"FCC": "D61", "NAME": "Mill Woods Town Center", "OBJECTID": 36}},
{"geometry": {"type": "Point", "coordinates": [-113.513997, 53.485937]}, "type": "Feature", "properties": {"FCC": "D61", "NAME": "Southgate Centre", "OBJECTID": 37}},
{"geometry": {"type": "Point", "coordinates": [-113.49399, 53.470654]}, "type": "Feature", "properties": {"FCC": "D61", "NAME": "South Park Village Mall", "OBJECTID": 38}},
{"geometry": {"type": "Point", "coordinates": [-113.450287, 53.472391]}, "type": "Feature", "properties": {"FCC": "D61", "NAME": "Millbourne Market Mall", "OBJECTID": 39}},
{"geometry": {"type": "Point", "coordinates": [-113.51734, 53.495172]}, "type": "Feature", "properties": {"FCC": "D61", "NAME": "Lendrum Place Shopping Centre", "OBJECTID": 40}},
{"geometry": {"type": "Point", "coordinates": [-113.488068, 53.4988]}, "type": "Feature", "properties": {"FCC": "D61", "NAME": "Argyll Centre", "OBJECTID": 41}},
{"geometry": {"type": "Point", "coordinates": [-113.326228, 53.513478]}, "type": "Feature", "properties": {"FCC": "D61", "NAME": "Wye Commercial", "OBJECTID": 42}},
{"geometry": {"type": "Point", "coordinates": [-113.317462, 53.513386]}, "type": "Feature", "properties": {"FCC": "D61", "NAME": "Sherwood Centre", "OBJECTID": 43}},
{"geometry": {"type": "Point", "coordinates": [-113.293122, 53.530369]}, "type": "Feature", "properties": {"FCC": "D61", "NAME": "Sherwood Park Mall", "OBJECTID": 44}},
{"geometry": {"type": "Point", "coordinates": [-113.505858, 53.562562]}, "type": "Feature", "properties": {"FCC": "D61", "NAME": "Kingsway Garden Mall", "OBJECTID": 45}},
{"geometry": {"type": "Point", "coordinates": [-113.517654, 53.545981]}, "type": "Feature", "properties": {"FCC": "D61", "NAME": "Longstreet Centre", "OBJECTID": 46}},
{"geometry": {"type": "Point", "coordinates": [-113.499574, 53.515638]}, "type": "Feature", "properties": {"FCC": "D61", "NAME": "Old Strathcona Shopping Centre", "OBJECTID": 47}},
{"geometry": {"type": "Point", "coordinates": [-113.496394, 53.516735]}, "type": "Feature", "properties": {"FCC": "D61", "NAME": "South Side Plaza", "OBJECTID": 48}},
{"geometry": {"type": "Point", "coordinates": [-113.49548, 53.543555]}, "type": "Feature", "properties": {"FCC": "D61", "NAME": "Edmonton City Centre West", "OBJECTID": 49}},
{"geometry": {"type": "Point", "coordinates": [-113.492206, 53.543826]}, "type": "Feature", "properties": {"FCC": "D61", "NAME": "Edmonton City Centre East", "OBJECTID": 50}},
{"geometry": {"type": "Point", "coordinates": [-113.502169, 53.557346]}, "type": "Feature", "properties": {"FCC": "D61", "NAME": "Kingsway Mews", "OBJECTID": 51}},
{"geometry": {"type": "Point", "coordinates": [-113.46471, 53.571252]}, "type": "Feature", "properties": {"FCC": "D61", "NAME": "Parkdale Square", "OBJECTID": 52}},
{"geometry": {"type": "Point", "coordinates": [-113.494741, 53.542672]}, "type": "Feature", "properties": {"FCC": "D61", "NAME": "Manulife Place", "OBJECTID": 53}},
{"geometry": {"type": "Point", "coordinates": [-113.456827, 53.520607]}, "type": "Feature", "properties": {"FCC": "D61", "NAME": "Bonnie Doon Shopping Centre", "OBJECTID": 54}},
{"geometry": {"type": "Point", "coordinates": [-113.421728, 53.539439]}, "type": "Feature", "properties": {"FCC": "D61", "NAME": "Capilano Mall", "OBJECTID": 55}},
{"geometry": {"type": "Point", "coordinates": [-113.43548, 53.51559]}, "type": "Feature", "properties": {"FCC": "D61", "NAME": "Argyll Centre Mall", "OBJECTID": 56}},
{"geometry": {"type": "Point", "coordinates": [-113.427415, 53.525558]}, "type": "Feature", "properties": {"FCC": "D61", "NAME": "Ottewell Shopping Centre", "OBJECTID": 57}},
{"geometry": {"type": "Point", "coordinates": [-113.416105, 53.537897]}, "type": "Feature", "properties": {"FCC": "D61", "NAME": "Centre 50", "OBJECTID": 58}},
{"geometry": {"type": "Point", "coordinates": [-113.394629, 53.569726]}, "type": "Feature", "properties": {"FCC": "D61", "NAME": "Beverly Olde Towne Centre", "OBJECTID": 59}},
{"geometry": {"type": "Point", "coordinates": [-113.390505, 53.5713]}, "type": "Feature", "properties": {"FCC": "D61", "NAME": "Abbottsfield Shoppers Mall", "OBJECTID": 60}},
{"geometry": {"type": "Point", "coordinates": [-114.119882, 50.940654]}, "type": "Feature", "properties": {"FCC": "D61", "NAME": "Woodbine Square", "OBJECTID": 61}},
{"geometry": {"type": "Point", "coordinates": [-114.120013, 50.962303]}, "type": "Feature", "properties": {"FCC": "D61", "NAME": "Oakridge Co-Op", "OBJECTID": 62}},
{"geometry": {"type": "Point", "coordinates": [-114.097489, 50.973293]}, "type": "Feature", "properties": {"FCC": "D61", "NAME": "Glenmore Landing", "OBJECTID": 63}},
{"geometry": {"type": "Point", "coordinates": [-114.066046, 51.046112]}, "type": "Feature", "properties": {"FCC": "D61", "NAME": "Stephen Avenue Mall", "OBJECTID": 64}},
{"geometry": {"type": "Point", "coordinates": [-114.069413, 51.11593]}, "type": "Feature", "properties": {"FCC": "D61", "NAME": "Country Fair Plaza", "OBJECTID": 65}},
{"geometry": {"type": "Point", "coordinates": [-114.054863, 51.111605]}, "type": "Feature", "properties": {"FCC": "D61", "NAME": "Hunterhorn Plaza", "OBJECTID": 66}},
{"geometry": {"type": "Point", "coordinates": [-114.073649, 51.127045]}, "type": "Feature", "properties": {"FCC": "D61", "NAME": "Beddington Towne Centre", "OBJECTID": 67}},
{"geometry": {"type": "Point", "coordinates": [-113.809187, 52.244068]}, "type": "Feature", "properties": {"FCC": "D61", "NAME": "Bower Place Shopping Centre", "OBJECTID": 68}},
{"geometry": {"type": "Point", "coordinates": [-113.811986, 52.288392]}, "type": "Feature", "properties": {"FCC": "D61", "NAME": "Parkland Mall", "OBJECTID": 69}},
{"geometry": {"type": "Point", "coordinates": [-114.155796, 51.085392]}, "type": "Feature", "properties": {"FCC": "D61", "NAME": "Market Mall", "OBJECTID": 70}},
{"geometry": {"type": "Point", "coordinates": [-114.161897, 51.106703]}, "type": "Feature", "properties": {"FCC": "D61", "NAME": "Dalhousie Crossing", "OBJECTID": 71}},
{"geometry": {"type": "Point", "coordinates": [-114.163872, 51.10334]}, "type": "Feature", "properties": {"FCC": "D61", "NAME": "Crowchild Square", "OBJECTID": 72}},
{"geometry": {"type": "Point", "coordinates": [-114.139996, 51.042297]}, "type": "Feature", "properties": {"FCC": "D61", "NAME": "Westbrook Shopping Centre", "OBJECTID": 73}},
{"geometry": {"type": "Point", "coordinates": [-114.099567, 51.065879]}, "type": "Feature", "properties": {"FCC": "D61", "NAME": "North Hill Shopping Centre", "OBJECTID": 74}},
{"geometry": {"type": "Point", "coordinates": [-114.153395, 51.092337]}, "type": "Feature", "properties": {"FCC": "D61", "NAME": "Shaganappi Village Shopping Centre", "OBJECTID": 75}},
{"geometry": {"type": "Point", "coordinates": [-114.127702, 51.086922]}, "type": "Feature", "properties": {"FCC": "D61", "NAME": "Brentwood Village Mall", "OBJECTID": 76}},
{"geometry": {"type": "Point", "coordinates": [-114.203284, 51.126337]}, "type": "Feature", "properties": {"FCC": "D61", "NAME": "Crowfoot Centre", "OBJECTID": 77}},
{"geometry": {"type": "Point", "coordinates": [-113.984605, 51.073984]}, "type": "Feature", "properties": {"FCC": "D61", "NAME": "Sunridge Mall", "OBJECTID": 78}},
{"geometry": {"type": "Point", "coordinates": [-113.959515, 51.036665]}, "type": "Feature", "properties": {"FCC": "D61", "NAME": "Town and Country Shopping Centre", "OBJECTID": 79}},
{"geometry": {"type": "Point", "coordinates": [-113.982807, 51.054648]}, "type": "Feature", "properties": {"FCC": "D61", "NAME": "Northgate Village Mall", "OBJECTID": 80}},
{"geometry": {"type": "Point", "coordinates": [-113.978265, 51.055364]}, "type": "Feature", "properties": {"FCC": "D61", "NAME": "Marlborough Mall", "OBJECTID": 81}},
{"geometry": {"type": "Point", "coordinates": [-113.95653, 51.063853]}, "type": "Feature", "properties": {"FCC": "D61", "NAME": "Trans Canada Mall", "OBJECTID": 82}},
{"geometry": {"type": "Point", "coordinates": [-113.956947, 51.075055]}, "type": "Feature", "properties": {"FCC": "D61", "NAME": "Village Square Shopping Centre", "OBJECTID": 83}},
{"geometry": {"type": "Point", "coordinates": [-113.961452, 51.098462]}, "type": "Feature", "properties": {"FCC": "D61", "NAME": "Castlebridge Mall", "OBJECTID": 84}},
{"geometry": {"type": "Point", "coordinates": [-113.956033, 51.098255]}, "type": "Feature", "properties": {"FCC": "D61", "NAME": "McKnight Village", "OBJECTID": 85}},
{"geometry": {"type": "Point", "coordinates": [-114.074414, 50.998316]}, "type": "Feature", "properties": {"FCC": "D61", "NAME": "Chinook Centre", "OBJECTID": 86}},
{"geometry": {"type": "Point", "coordinates": [-114.07011, 50.97034]}, "type": "Feature", "properties": {"FCC": "D61", "NAME": "MacLeod Plaza", "OBJECTID": 87}},
{"geometry": {"type": "Point", "coordinates": [-114.070175, 50.977346]}, "type": "Feature", "properties": {"FCC": "D61", "NAME": "MacLeod Co-Op", "OBJECTID": 88}},
{"geometry": {"type": "Point", "coordinates": [-114.064912, 50.905569]}, "type": "Feature", "properties": {"FCC": "D61", "NAME": "Shawnessy Village", "OBJECTID": 89}},
{"geometry": {"type": "Point", "coordinates": [-114.063038, 50.902551]}, "type": "Feature", "properties": {"FCC": "D61", "NAME": "Shawnessy Centre", "OBJECTID": 90}},
{"geometry": {"type": "Point", "coordinates": [-114.062805, 50.913551]}, "type": "Feature", "properties": {"FCC": "D61", "NAME": "Midnapore Mall", "OBJECTID": 91}},
{"geometry": {"type": "Point", "coordinates": [-114.068369, 50.941447]}, "type": "Feature", "properties": {"FCC": "D61", "NAME": "Avienda Bonavista Shopping Mall", "OBJECTID": 92}},
{"geometry": {"type": "Point", "coordinates": [-114.065403, 50.952384]}, "type": "Feature", "properties": {"FCC": "D61", "NAME": "Southcentre Mall", "OBJECTID": 93}},
{"geometry": {"type": "Point", "coordinates": [-114.046993, 50.942269]}, "type": "Feature", "properties": {"FCC": "D61", "NAME": "Lake Bonavista Promenade", "OBJECTID": 94}},
{"geometry": {"type": "Point", "coordinates": [-114.069644, 50.956317]}, "type": "Feature", "properties": {"FCC": "D61", "NAME": "Willow Park Village", "OBJECTID": 95}},
{"geometry": {"type": "Point", "coordinates": [-114.073024, 50.96848]}, "type": "Feature", "properties": {"FCC": "D61", "NAME": "Southland Crossing Shopping Mall", "OBJECTID": 96}},
{"geometry": {"type": "Point", "coordinates": [-114.069895, 50.966028]}, "type": "Feature", "properties": {"FCC": "D61", "NAME": "MacLeod Mall", "OBJECTID": 97}},
{"geometry": {"type": "Point", "coordinates": [-114.028988, 50.929865]}, "type": "Feature", "properties": {"FCC": "D61", "NAME": "Deer Valley Shopping Centre", "OBJECTID": 98}},
{"geometry": {"type": "Point", "coordinates": [-149.869915, 61.142327]}, "type": "Feature", "properties": {"FCC": "D61", "NAME": "Dimond Center", "OBJECTID": 99}},
{"geometry": {"type": "Point", "coordinates": [-149.870332, 61.195237]}, "type": "Feature", "properties": {"FCC": "D61", "NAME": "The Mall at Sears", "OBJECTID": 100}},
{"geometry": {"type": "Point", "coordinates": [-149.888468, 61.217118]}, "type": "Feature", "properties": {"FCC": "D61", "NAME": "Anchorage 5th Avenue Mall", "OBJECTID": 101}},
{"geometry": {"type": "Point", "coordinates": [-149.820085, 61.215526]}, "type": "Feature", "properties": {"FCC": "D61", "NAME": "Northway Mall", "OBJECTID": 102}},
{"geometry": {"type": "Point", "coordinates": [-147.709813, 64.852148]}, "type": "Feature", "properties": {"FCC": "D61", "NAME": "Regency Court", "OBJECTID": 103}},
{"geometry": {"type": "Point", "coordinates": [-147.708222, 64.851625]}, "type": "Feature", "properties": {"FCC": "D61", "NAME": "Bentley Mall", "OBJECTID": 104}},
{"geometry": {"type": "Point", "coordinates": [-152.360367, 57.811449]}, "type": "Feature", "properties": {"FCC": "D61", "NAME": "Mill Bay Plaza", "OBJECTID": 105}},
{"geometry": {"type": "Point", "coordinates": [-134.576699, 58.362587]}, "type": "Feature", "properties": {"FCC": "D61", "NAME": "Nugget Mall", "OBJECTID": 106}},
{"geometry": {"type": "Point", "coordinates": [-134.57879, 58.402055]}, "type": "Feature", "properties": {"FCC": "D61", "NAME": "Mendenhall Mall", "OBJECTID": 107}},
{"geometry": {"type": "Point", "coordinates": [-131.680537, 55.35167]}, "type": "Feature", "properties": {"FCC": "D61", "NAME": "Ketchikan Plaza LLC", "OBJECTID": 108}},
{"geometry": {"type": "Point", "coordinates": [-87.671889, 34.74627]}, "type": "Feature", "properties": {"FCC": "D61", "NAME": "Southgate Mall", "OBJECTID": 109}},
{"geometry": {"type": "Point", "coordinates": [-87.636021, 34.837354]}, "type": "Feature", "properties": {"FCC": "D61", "NAME": "Regency Square Mall", "OBJECTID": 110}},
{"geometry": {"type": "Point", "coordinates": [-87.578108, 33.201354]}, "type": "Feature", "properties": {"FCC": "D61", "NAME": "Parkview Shopping Center", "OBJECTID": 111}},
{"geometry": {"type": "Point", "coordinates": [-87.573931, 33.238666]}, "type": "Feature", "properties": {"FCC": "D61", "NAME": "Northport Corners", "OBJECTID": 112}},
{"geometry": {"type": "Point", "coordinates": [-87.522401, 33.169377]}, "type": "Feature", "properties": {"FCC": "D61", "NAME": "McFarland Mall", "OBJECTID": 113}},
{"geometry": {"type": "Point", "coordinates": [-87.528171, 33.185158]}, "type": "Feature", "properties": {"FCC": "D61", "NAME": "McFarland Plaza", "OBJECTID": 114}},
{"geometry": {"type": "Point", "coordinates": [-87.523271, 33.194861]}, "type": "Feature", "properties": {"FCC": "D61", "NAME": "University Mall", "OBJECTID": 115}},
{"geometry": {"type": "Point", "coordinates": [-87.524747, 33.167679]}, "type": "Feature", "properties": {"FCC": "D61", "NAME": "Skyland Promenade", "OBJECTID": 116}},
{"geometry": {"type": "Point", "coordinates": [-87.68005, 30.375822]}, "type": "Feature", "properties": {"FCC": "D61", "NAME": "Riviera Centre Factory Stores", "OBJECTID": 117}},
{"geometry": {"type": "Point", "coordinates": [-87.903531, 30.653892]}, "type": "Feature", "properties": {"FCC": "D61", "NAME": "Jubilee Square", "OBJECTID": 118}},
{"geometry": {"type": "Point", "coordinates": [-87.016788, 32.432978]}, "type": "Feature", "properties": {"FCC": "D61", "NAME": "Selma Mall", "OBJECTID": 119}},
{"geometry": {"type": "Point", "coordinates": [-88.119523, 30.667174]}, "type": "Feature", "properties": {"FCC": "D61", "NAME": "3100 Cottage Hill Road", "OBJECTID": 120}},
{"geometry": {"type": "Point", "coordinates": [-88.223976, 30.681675]}, "type": "Feature", "properties": {"FCC": "D61", "NAME": "Westwood Plaza", "OBJECTID": 121}},
{"geometry": {"type": "Point", "coordinates": [-88.150131, 30.677033]}, "type": "Feature", "properties": {"FCC": "D61", "NAME": "Pinebrook Shopping Center", "OBJECTID": 122}},
{"geometry": {"type": "Point", "coordinates": [-88.13847, 30.672771]}, "type": "Feature", "properties": {"FCC": "D61", "NAME": "Mobile Festival Centre", "OBJECTID": 123}},
{"geometry": {"type": "Point", "coordinates": [-88.1215, 30.67193]}, "type": "Feature", "properties": {"FCC": "D61", "NAME": "Colonial Mall Bel Air", "OBJECTID": 124}},
{"geometry": {"type": "Point", "coordinates": [-88.122873, 30.679094]}, "type": "Feature", "properties": {"FCC": "D61", "NAME": "Springdale Mall", "OBJECTID": 125}},
{"geometry": {"type": "Point", "coordinates": [-86.83679, 34.160213]}, "type": "Feature", "properties": {"FCC": "D61", "NAME": "Town Square Shopping Center", "OBJECTID": 126}},
{"geometry": {"type": "Point", "coordinates": [-86.852912, 34.182108]}, "type": "Feature", "properties": {"FCC": "D61", "NAME": "Cullman Shopping Center", "OBJECTID": 127}},
{"geometry": {"type": "Point", "coordinates": [-87.017966, 34.572966]}, "type": "Feature", "properties": {"FCC": "D61", "NAME": "Colonial Mall Decatur", "OBJECTID": 128}},
{"geometry": {"type": "Point", "coordinates": [-87.271869, 33.85177]}, "type": "Feature", "properties": {"FCC": "D61", "NAME": "Jasper Mall", "OBJECTID": 129}},
{"geometry": {"type": "Point", "coordinates": [-87.282448, 33.847758]}, "type": "Feature", "properties": {"FCC": "D61", "NAME": "Parkland Shopping Center", "OBJECTID": 130}},
{"geometry": {"type": "Point", "coordinates": [-86.974324, 33.396774]}, "type": "Feature", "properties": {"FCC": "D61", "NAME": "The Mall at Westlake", "OBJECTID": 131}},
{"geometry": {"type": "Point", "coordinates": [-86.912604, 33.466399]}, "type": "Feature", "properties": {"FCC": "D61", "NAME": "Western Hills Mall", "OBJECTID": 132}},
{"geometry": {"type": "Point", "coordinates": [-86.812633, 33.653678]}, "type": "Feature", "properties": {"FCC": "D61", "NAME": "Village Green Shopping Center", "OBJECTID": 133}},
{"geometry": {"type": "Point", "coordinates": [-86.916513, 33.469681]}, "type": "Feature", "properties": {"FCC": "D61", "NAME": "Belleview Plaza", "OBJECTID": 134}},
{"geometry": {"type": "Point", "coordinates": [-86.908771, 33.463818]}, "type": "Feature", "properties": {"FCC": "D61", "NAME": "Midfield Shopping Center", "OBJECTID": 135}},
{"geometry": {"type": "Point", "coordinates": [-86.893268, 33.558675]}, "type": "Feature", "properties": {"FCC": "D61", "NAME": "Forestdale Square", "OBJECTID": 136}},
{"geometry": {"type": "Point", "coordinates": [-86.83588, 33.47248]}, "type": "Feature", "properties": {"FCC": "D61", "NAME": "Five Points West", "OBJECTID": 137}},
{"geometry": {"type": "Point", "coordinates": [-86.824395, 33.444941]}, "type": "Feature", "properties": {"FCC": "D61", "NAME": "Wildwood Centre", "OBJECTID": 138}},
{"geometry": {"type": "Point", "coordinates": [-86.819224, 33.468575]}, "type": "Feature", "properties": {"FCC": "D61", "NAME": "Palisades Center", "OBJECTID": 139}},
{"geometry": {"type": "Point", "coordinates": [-86.876898, 33.494792]}, "type": "Feature", "properties": {"FCC": "D61", "NAME": "Five Points West Shopping Center", "OBJECTID": 140}},
{"geometry": {"type": "Point", "coordinates": [-86.790787, 33.503487]}, "type": "Feature", "properties": {"FCC": "D61", "NAME": "The Garage", "OBJECTID": 141}},
{"geometry": {"type": "Point", "coordinates": [-86.826967, 33.448894]}, "type": "Feature", "properties": {"FCC": "D61", "NAME": "Wildwood North Shopping Center", "OBJECTID": 142}},
{"geometry": {"type": "Point", "coordinates": [-86.824534, 33.361676]}, "type": "Feature", "properties": {"FCC": "D61", "NAME": "Colonial Promenade at Hoover", "OBJECTID": 143}},
{"geometry": {"type": "Point", "coordinates": [-86.808903, 33.379266]}, "type": "Feature", "properties": {"FCC": "D61", "NAME": "Riverchase Galleria", "OBJECTID": 144}},
{"geometry": {"type": "Point", "coordinates": [-86.797058, 33.369948]}, "type": "Feature", "properties": {"FCC": "D61", "NAME": "The Plaza at Riverchase", "OBJECTID": 145}},
{"geometry": {"type": "Point", "coordinates": [-86.820675, 33.239687]}, "type": "Feature", "properties": {"FCC": "D61", "NAME": "Southbrook Village Shopping Center", "OBJECTID": 146}},
{"geometry": {"type": "Point", "coordinates": [-86.568954, 34.645651]}, "type": "Feature", "properties": {"FCC": "D61", "NAME": "South Huntsville Square", "OBJECTID": 147}},
{"geometry": {"type": "Point", "coordinates": [-86.58732, 34.707538]}, "type": "Feature", "properties": {"FCC": "D61", "NAME": "Parkway Place Mall", "OBJECTID": 148}},
{"geometry": {"type": "Point", "coordinates": [-86.569558, 34.693015]}, "type": "Feature", "properties": {"FCC": "D61", "NAME": "Village on Whitesburg", "OBJECTID": 149}},
{"geometry": {"type": "Point", "coordinates": [-86.681879, 34.741178]}, "type": "Feature", "properties": {"FCC": "D61", "NAME": "Westside Centre", "OBJECTID": 150}},
{"geometry": {"type": "Point", "coordinates": [-86.666104, 34.737673]}, "type": "Feature", "properties": {"FCC": "D61", "NAME": "Madison Square Mall", "OBJECTID": 151}},
{"geometry": {"type": "Point", "coordinates": [-86.576274, 34.738544]}, "type": "Feature", "properties": {"FCC": "D61", "NAME": "Five Points Shopping Center", "OBJECTID": 152}},
{"geometry": {"type": "Point", "coordinates": [-86.157503, 34.19628]}, "type": "Feature", "properties": {"FCC": "D61", "NAME": "Fashion Outlets of Boaz", "OBJECTID": 153}},
{"geometry": {"type": "Point", "coordinates": [-86.187314, 34.262901]}, "type": "Feature", "properties": {"FCC": "D61", "NAME": "The Crossroads Mall", "OBJECTID": 154}},
{"geometry": {"type": "Point", "coordinates": [-86.772034, 33.469237]}, "type": "Feature", "properties": {"FCC": "D61", "NAME": "Colonial Brookwood Village", "OBJECTID": 155}},
{"geometry": {"type": "Point", "coordinates": [-86.723572, 33.430133]}, "type": "Feature", "properties": {"FCC": "D61", "NAME": "Brook Highland Plaza", "OBJECTID": 156}},
{"geometry": {"type": "Point", "coordinates": [-86.727375, 33.450064]}, "type": "Feature", "properties": {"FCC": "D61", "NAME": "The Summit Shopping Center", "OBJECTID": 157}},
{"geometry": {"type": "Point", "coordinates": [-86.725026, 33.53338]}, "type": "Feature", "properties": {"FCC": "D61", "NAME": "Century Plaza", "OBJECTID": 158}},
{"geometry": {"type": "Point", "coordinates": [-86.733756, 33.527641]}, "type": "Feature", "properties": {"FCC": "D61", "NAME": "Eastwood Festival Centre", "OBJECTID": 159}},
{"geometry": {"type": "Point", "coordinates": [-86.621292, 33.641727]}, "type": "Feature", "properties": {"FCC": "D61", "NAME": "Colonial Promenade", "OBJECTID": 160}},
{"geometry": {"type": "Point", "coordinates": [-86.741049, 33.384337]}, "type": "Feature", "properties": {"FCC": "D61", "NAME": "Valleydale Village", "OBJECTID": 161}},
{"geometry": {"type": "Point", "coordinates": [-86.696619, 33.416127]}, "type": "Feature", "properties": {"FCC": "D61", "NAME": "Inverness Corners", "OBJECTID": 162}},
{"geometry": {"type": "Point", "coordinates": [-86.681222, 33.420141]}, "type": "Feature", "properties": {"FCC": "D61", "NAME": "Brook Highland Plaza", "OBJECTID": 163}},
{"geometry": {"type": "Point", "coordinates": [-86.007272, 33.995404]}, "type": "Feature", "properties": {"FCC": "D61", "NAME": "Colonial Mall Gadsden", "OBJECTID": 164}},
{"geometry": {"type": "Point", "coordinates": [-86.019842, 34.023364]}, "type": "Feature", "properties": {"FCC": "D61", "NAME": "Agricola Shopping Center", "OBJECTID": 165}},
{"geometry": {"type": "Point", "coordinates": [-85.823735, 33.613582]}, "type": "Feature", "properties": {"FCC": "D61", "NAME": "Quintard Mall", "OBJECTID": 166}},
{"geometry": {"type": "Point", "coordinates": [-85.352359, 32.650755]}, "type": "Feature", "properties": {"FCC": "D61", "NAME": "USA Factory Stores", "OBJECTID": 167}},
{"geometry": {"type": "Point", "coordinates": [-85.447311, 32.626876]}, "type": "Feature", "properties": {"FCC": "D61", "NAME": "Colonial Mall Auburn-Opelika", "OBJECTID": 168}},
{"geometry": {"type": "Point", "coordinates": [-85.410322, 32.618217]}, "type": "Feature", "properties": {"FCC": "D61", "NAME": "Tiger Town Shopping Center", "OBJECTID": 169}},
{"geometry": {"type": "Point", "coordinates": [-86.455138, 32.458773]}, "type": "Feature", "properties": {"FCC": "D61", "NAME": "Pratt Plaza Shopping Center", "OBJECTID": 170}},
{"geometry": {"type": "Point", "coordinates": [-86.415313, 32.462579]}, "type": "Feature", "properties": {"FCC": "D61", "NAME": "Premiere Place Shopping Center", "OBJECTID": 171}},
{"geometry": {"type": "Point", "coordinates": [-86.29953, 32.334471]}, "type": "Feature", "properties": {"FCC": "D61", "NAME": "Normandale Shopping Center", "OBJECTID": 172}},
{"geometry": {"type": "Point", "coordinates": [-86.307411, 32.335783]}, "type": "Feature", "properties": {"FCC": "D61", "NAME": "Cloverland Shopping Center", "OBJECTID": 173}},
{"geometry": {"type": "Point", "coordinates": [-86.265451, 32.355613]}, "type": "Feature", "properties": {"FCC": "D61", "NAME": "Zelda Place", "OBJECTID": 174}},
{"geometry": {"type": "Point", "coordinates": [-86.258385, 32.391163]}, "type": "Feature", "properties": {"FCC": "D61", "NAME": "Eastbrook Shopping Center", "OBJECTID": 175}},
{"geometry": {"type": "Point", "coordinates": [-86.249161, 32.329009]}, "type": "Feature", "properties": {"FCC": "D61", "NAME": "Governor's Square", "OBJECTID": 176}},
{"geometry": {"type": "Point", "coordinates": [-86.225792, 32.345994]}, "type": "Feature", "properties": {"FCC": "D61", "NAME": "Colonial Promenade Montgomery", "OBJECTID": 177}},
{"geometry": {"type": "Point", "coordinates": [-86.20691, 32.379466]}, "type": "Feature", "properties": {"FCC": "D61", "NAME": "Atlanta Crossing Shopping Center", "OBJECTID": 178}},
{"geometry": {"type": "Point", "coordinates": [-86.206157, 32.385466]}, "type": "Feature", "properties": {"FCC": "D61", "NAME": "Eastdale Mall", "OBJECTID": 179}},
{"geometry": {"type": "Point", "coordinates": [-86.245637, 32.329197]}, "type": "Feature", "properties": {"FCC": "D61", "NAME": "Montgomery Mall", "OBJECTID": 180}},
{"geometry": {"type": "Point", "coordinates": [-86.163291, 32.358986]}, "type": "Feature", "properties": {"FCC": "D61", "NAME": "The Shoppes at Eastchase", "OBJECTID": 181}},
{"geometry": {"type": "Point", "coordinates": [-85.828907, 31.323556]}, "type": "Feature", "properties": {"FCC": "D61", "NAME": "West Gate Shopping Center", "OBJECTID": 182}},
{"geometry": {"type": "Point", "coordinates": [-85.831223, 31.324926]}, "type": "Feature", "properties": {"FCC": "D61", "NAME": "Enterprise Shopping Center", "OBJECTID": 183}},
{"geometry": {"type": "Point", "coordinates": [-85.428761, 31.248765]}, "type": "Feature", "properties": {"FCC": "D61", "NAME": "Northside Mall", "OBJECTID": 184}},
{"geometry": {"type": "Point", "coordinates": [-85.424443, 31.254001]}, "type": "Feature", "properties": {"FCC": "D61", "NAME": "Wiregrass Commons Mall", "OBJECTID": 185}},
{"geometry": {"type": "Point", "coordinates": [-85.388744, 31.251329]}, "type": "Feature", "properties": {"FCC": "D61", "NAME": "Plaza Two Shopping Center", "OBJECTID": 186}},
{"geometry": {"type": "Point", "coordinates": [-90.679537, 35.823025]}, "type": "Feature", "properties": {"FCC": "D61", "NAME": "Indian Mall", "OBJECTID": 187}},
{"geometry": {"type": "Point", "coordinates": [-90.679057, 35.830428]}, "type": "Feature", "properties": {"FCC": "D61", "NAME": "Caraway Plaza", "OBJECTID": 188}},
{"geometry": {"type": "Point", "coordinates": [-90.186681, 35.166453]}, "type": "Feature", "properties": {"FCC": "D61", "NAME": "Holiday Plaza Mall", "OBJECTID": 189}},
{"geometry": {"type": "Point", "coordinates": [-89.872207, 35.931002]}, "type": "Feature", "properties": {"FCC": "D61", "NAME": "Chickasaw Plaza", "OBJECTID": 190}},
{"geometry": {"type": "Point", "coordinates": [-92.848541, 33.58521]}, "type": "Feature", "properties": {"FCC": "D61", "NAME": "Garden Oaks Shopping Center", "OBJECTID": 191}},
{"geometry": {"type": "Point", "coordinates": [-90.788039, 35.031319]}, "type": "Feature", "properties": {"FCC": "D61", "NAME": "Valli-Vista Shopping Center", "OBJECTID": 192}},
{"geometry": {"type": "Point", "coordinates": [-92.663675, 33.231606]}, "type": "Feature", "properties": {"FCC": "D61", "NAME": "Mellor Park Mall", "OBJECTID": 193}},
{"geometry": {"type": "Point", "coordinates": [-93.079354, 34.448315]}, "type": "Feature", "properties": {"FCC": "D61", "NAME": "Hot Springs Mall", "OBJECTID": 194}},
{"geometry": {"type": "Point", "coordinates": [-93.074534, 34.454416]}, "type": "Feature", "properties": {"FCC": "D61", "NAME": "Temperance Hill Square", "OBJECTID": 195}},
{"geometry": {"type": "Point", "coordinates": [-92.343258, 34.725182]}, "type": "Feature", "properties": {"FCC": "D61", "NAME": "Broadmoor Shopping Center", "OBJECTID": 196}},
{"geometry": {"type": "Point", "coordinates": [-92.375039, 34.758392]}, "type": "Feature", "properties": {"FCC": "D61", "NAME": "Ashley Square Shopping Center", "OBJECTID": 197}},
{"geometry": {"type": "Point", "coordinates": [-92.388494, 34.768429]}, "type": "Feature", "properties": {"FCC": "D61", "NAME": "Colony West Shopping Center", "OBJECTID": 198}},
{"geometry": {"type": "Point", "coordinates": [-92.343933, 34.750191]}, "type": "Feature", "properties": {"FCC": "D61", "NAME": "University Mall", "OBJECTID": 199}},
{"geometry": {"type": "Point", "coordinates": [-92.343132, 34.753476]}, "type": "Feature", "properties": {"FCC": "D61", "NAME": "Park Plaza Mall", "OBJECTID": 200}},
{"geometry": {"type": "Point", "coordinates": [-92.276989, 34.780393]}, "type": "Feature", "properties": {"FCC": "D61", "NAME": "Pike Plaza", "OBJECTID": 201}},
{"geometry": {"type": "Point", "coordinates": [-92.398691, 34.770741]}, "type": "Feature", "properties": {"FCC": "D61", "NAME": "Market Place Shopping Center", "OBJECTID": 202}},
{"geometry": {"type": "Point", "coordinates": [-94.145842, 36.335857]}, "type": "Feature", "properties": {"FCC": "D61", "NAME": "Dixieland Mall", "OBJECTID": 203}},
{"geometry": {"type": "Point", "coordinates": [-94.375563, 35.366371]}, "type": "Feature", "properties": {"FCC": "D61", "NAME": "Central Mall", "OBJECTID": 204}},
{"geometry": {"type": "Point", "coordinates": [-94.385336, 35.36811]}, "type": "Feature", "properties": {"FCC": "D61", "NAME": "Green Pointe Center", "OBJECTID": 205}},
{"geometry": {"type": "Point", "coordinates": [-94.348013, 35.352949]}, "type": "Feature", "properties": {"FCC": "D61", "NAME": "Fort Smith Market Place", "OBJECTID": 206}},
{"geometry": {"type": "Point", "coordinates": [-94.154593, 36.080956]}, "type": "Feature", "properties": {"FCC": "D61", "NAME": "Evelyn Hills Shopping Center", "OBJECTID": 207}},
{"geometry": {"type": "Point", "coordinates": [-94.149062, 36.108007]}, "type": "Feature", "properties": {"FCC": "D61", "NAME": "Fiesta Square", "OBJECTID": 208}},
{"geometry": {"type": "Point", "coordinates": [-94.188456, 36.177609]}, "type": "Feature", "properties": {"FCC": "D61", "NAME": "Ozark Center Point Place", "OBJECTID": 209}},
{"geometry": {"type": "Point", "coordinates": [-94.149934, 36.122388]}, "type": "Feature", "properties": {"FCC": "D61", "NAME": "Spring Creek Centre", "OBJECTID": 210}},
{"geometry": {"type": "Point", "coordinates": [-94.148359, 36.127869]}, "type": "Feature", "properties": {"FCC": "D61", "NAME": "Northwest Arkansas Mall", "OBJECTID": 211}},
{"geometry": {"type": "Point", "coordinates": [-92.377172, 36.348764]}, "type": "Feature", "properties": {"FCC": "D61", "NAME": "Village Mall", "OBJECTID": 212}},
{"geometry": {"type": "Point", "coordinates": [-93.121507, 36.251539]}, "type": "Feature", "properties": {"FCC": "D61", "NAME": "Ozark Mall", "OBJECTID": 213}},
{"geometry": {"type": "Point", "coordinates": [-92.428707, 35.110046]}, "type": "Feature", "properties": {"FCC": "D61", "NAME": "Conway Center", "OBJECTID": 214}},
{"geometry": {"type": "Point", "coordinates": [-92.414177, 35.087242]}, "type": "Feature", "properties": {"FCC": "D61", "NAME": "Conway Commons", "OBJECTID": 215}},
{"geometry": {"type": "Point", "coordinates": [-93.09382, 35.277913]}, "type": "Feature", "properties": {"FCC": "D61", "NAME": "Valley Park Centre", "OBJECTID": 216}},
{"geometry": {"type": "Point", "coordinates": [-93.095227, 35.279582]}, "type": "Feature", "properties": {"FCC": "D61", "NAME": "Valley Park Center", "OBJECTID": 217}},
{"geometry": {"type": "Point", "coordinates": [-92.226625, 34.792726]}, "type": "Feature", "properties": {"FCC": "D61", "NAME": "McCain Mall", "OBJECTID": 218}},
{"geometry": {"type": "Point", "coordinates": [-92.232098, 34.796111]}, "type": "Feature", "properties": {"FCC": "D61", "NAME": "Lakewood Village", "OBJECTID": 219}},
{"geometry": {"type": "Point", "coordinates": [-92.238332, 34.819855]}, "type": "Feature", "properties": {"FCC": "D61", "NAME": "Indian Hills Shopping Center", "OBJECTID": 220}},
{"geometry": {"type": "Point", "coordinates": [-92.02831, 34.200771]}, "type": "Feature", "properties": {"FCC": "D61", "NAME": "Oak Park Village Shopping Center", "OBJECTID": 221}},
{"geometry": {"type": "Point", "coordinates": [-92.003767, 34.201416]}, "type": "Feature", "properties": {"FCC": "D61", "NAME": "Jefferson Square", "OBJECTID": 222}},
{"geometry": {"type": "Point", "coordinates": [-91.968437, 34.208999]}, "type": "Feature", "properties": {"FCC": "D61", "NAME": "The Pines", "OBJECTID": 223}},
{"geometry": {"type": "Point", "coordinates": [-112.494703, 34.567768]}, "type": "Feature", "properties": {"FCC": "D61", "NAME": "Village at the Boulders", "OBJECTID": 224}},
{"geometry": {"type": "Point", "coordinates": [-112.487832, 34.564901]}, "type": "Feature", "properties": {"FCC": "D61", "NAME": "Village at the Boulders", "OBJECTID": 225}},
{"geometry": {"type": "Point", "coordinates": [-114.621463, 32.668013]}, "type": "Feature", "properties": {"FCC": "D61", "NAME": "Big Curve Shopping Center", "OBJECTID": 226}},
{"geometry": {"type": "Point", "coordinates": [-114.62177, 32.671772]}, "type": "Feature", "properties": {"FCC": "D61", "NAME": "Westgate Mall", "OBJECTID": 227}},
{"geometry": {"type": "Point", "coordinates": [-114.626845, 32.671323]}, "type": "Feature", "properties": {"FCC": "D61", "NAME": "Southgate Mall", "OBJECTID": 228}},
{"geometry": {"type": "Point", "coordinates": [-112.341073, 33.464321]}, "type": "Feature", "properties": {"FCC": "D61", "NAME": "Palmilla Center", "OBJECTID": 229}},
{"geometry": {"type": "Point", "coordinates": [-112.224975, 33.476321]}, "type": "Feature", "properties": {"FCC": "D61", "NAME": "Desert Sky Mall", "OBJECTID": 230}},
{"geometry": {"type": "Point", "coordinates": [-112.219444, 33.481555]}, "type": "Feature", "properties": {"FCC": "D61", "NAME": "Westview Plaza", "OBJECTID": 231}},
{"geometry": {"type": "Point", "coordinates": [-112.201421, 33.481114]}, "type": "Feature", "properties": {"FCC": "D61", "NAME": "West Highlands Shopping Center", "OBJECTID": 232}},
{"geometry": {"type": "Point", "coordinates": [-112.361125, 33.462606]}, "type": "Feature", "properties": {"FCC": "D61", "NAME": "Palm Valley Pavilions West", "OBJECTID": 233}},
{"geometry": {"type": "Point", "coordinates": [-112.355885, 33.462598]}, "type": "Feature", "properties": {"FCC": "D61", "NAME": "Palm Valley Pavilions East", "OBJECTID": 234}},
{"geometry": {"type": "Point", "coordinates": [-112.2225, 33.469174]}, "type": "Feature", "properties": {"FCC": "D61", "NAME": "Desert Sky Esplanade", "OBJECTID": 235}},
{"geometry": {"type": "Point", "coordinates": [-112.221458, 33.481161]}, "type": "Feature", "properties": {"FCC": "D61", "NAME": "Westridge Mall", "OBJECTID": 236}},
{"geometry": {"type": "Point", "coordinates": [-112.335862, 33.637444]}, "type": "Feature", "properties": {"FCC": "D61", "NAME": "Crossroads Towne Center", "OBJECTID": 237}},
{"geometry": {"type": "Point", "coordinates": [-112.351017, 33.654321]}, "type": "Feature", "properties": {"FCC": "D61", "NAME": "Sundome Plaza", "OBJECTID": 238}},
{"geometry": {"type": "Point", "coordinates": [-112.263722, 33.551651]}, "type": "Feature", "properties": {"FCC": "D61", "NAME": "Peoria Crossing", "OBJECTID": 239}},
{"geometry": {"type": "Point", "coordinates": [-112.289019, 33.57901]}, "type": "Feature", "properties": {"FCC": "D61", "NAME": "Sun Bowl Plaza", "OBJECTID": 240}},
{"geometry": {"type": "Point", "coordinates": [-112.269955, 33.581076]}, "type": "Feature", "properties": {"FCC": "D61", "NAME": "Arrowhead Mall", "OBJECTID": 241}},
{"geometry": {"type": "Point", "coordinates": [-112.2918, 33.601998]}, "type": "Feature", "properties": {"FCC": "D61", "NAME": "Grand Shopping Center", "OBJECTID": 242}},
{"geometry": {"type": "Point", "coordinates": [-112.292678, 33.618855]}, "type": "Feature", "properties": {"FCC": "D61", "NAME": "La Ronde Centre", "OBJECTID": 243}},
{"geometry": {"type": "Point", "coordinates": [-112.271224, 33.622919]}, "type": "Feature", "properties": {"FCC": "D61", "NAME": "Greenway Terrace", "OBJECTID": 244}},
{"geometry": {"type": "Point", "coordinates": [-112.27547, 33.637416]}, "type": "Feature", "properties": {"FCC": "D61", "NAME": "The Promenade", "OBJECTID": 245}},
{"geometry": {"type": "Point", "coordinates": [-112.30015, 33.593372]}, "type": "Feature", "properties": {"FCC": "D61", "NAME": "Youngtown Shopping Center", "OBJECTID": 246}},
{"geometry": {"type": "Point", "coordinates": [-112.241103, 33.582581]}, "type": "Feature", "properties": {"FCC": "D61", "NAME": "Peorias Grand Bazaar", "OBJECTID": 247}},
{"geometry": {"type": "Point", "coordinates": [-112.22908, 33.63613]}, "type": "Feature", "properties": {"FCC": "D61", "NAME": "North Valley Power Center", "OBJECTID": 248}},
{"geometry": {"type": "Point", "coordinates": [-112.225732, 33.641939]}, "type": "Feature", "properties": {"FCC": "D61", "NAME": "Arrowhead Towne Center", "OBJECTID": 249}},
{"geometry": {"type": "Point", "coordinates": [-112.222383, 33.636397]}, "type": "Feature", "properties": {"FCC": "D61", "NAME": "Arrowhead Crossing", "OBJECTID": 250}},
{"geometry": {"type": "Point", "coordinates": [-112.187409, 33.626577]}, "type": "Feature", "properties": {"FCC": "D61", "NAME": "Greenway Promenade", "OBJECTID": 251}},
{"geometry": {"type": "Point", "coordinates": [-112.187971, 33.640343]}, "type": "Feature", "properties": {"FCC": "D61", "NAME": "Gateway Village", "OBJECTID": 252}},
{"geometry": {"type": "Point", "coordinates": [-112.183999, 33.637115]}, "type": "Feature", "properties": {"FCC": "D61", "NAME": "Talavi Towne Centre", "OBJECTID": 253}},
{"geometry": {"type": "Point", "coordinates": [-112.205297, 33.580379]}, "type": "Feature", "properties": {"FCC": "D61", "NAME": "Peoria Station", "OBJECTID": 254}},
{"geometry": {"type": "Point", "coordinates": [-112.183993, 33.583186]}, "type": "Feature", "properties": {"FCC": "D61", "NAME": "Glendale Galleria", "OBJECTID": 255}},
{"geometry": {"type": "Point", "coordinates": [-112.18145, 33.551635]}, "type": "Feature", "properties": {"FCC": "D61", "NAME": "Northern Crossing", "OBJECTID": 256}},
{"geometry": {"type": "Point", "coordinates": [-112.121708, 33.666293]}, "type": "Feature", "properties": {"FCC": "D61", "NAME": "Deer Valley Towne Center", "OBJECTID": 257}},
{"geometry": {"type": "Point", "coordinates": [-111.979017, 33.741856]}, "type": "Feature", "properties": {"FCC": "D61", "NAME": "Shops at Dynamite Creek", "OBJECTID": 258}},
{"geometry": {"type": "Point", "coordinates": [-111.925342, 33.67364]}, "type": "Feature", "properties": {"FCC": "D61", "NAME": "Grayhawk Plaza", "OBJECTID": 259}},
{"geometry": {"type": "Point", "coordinates": [-111.924628, 33.700015]}, "type": "Feature", "properties": {"FCC": "D61", "NAME": "The Pinnacle of Scottsdale", "OBJECTID": 260}},
{"geometry": {"type": "Point", "coordinates": [-111.97361, 33.67647]}, "type": "Feature", "properties": {"FCC": "D61", "NAME": "Desert Ridge Marketplace", "OBJECTID": 261}},
{"geometry": {"type": "Point", "coordinates": [-111.964874, 33.674806]}, "type": "Feature", "properties": {"FCC": "D61", "NAME": "City Center of City North", "OBJECTID": 262}},
{"geometry": {"type": "Point", "coordinates": [-112.136424, 33.539425]}, "type": "Feature", "properties": {"FCC": "D61", "NAME": "Palm Glen Shopping Center", "OBJECTID": 263}},
{"geometry": {"type": "Point", "coordinates": [-112.118374, 33.554818]}, "type": "Feature", "properties": {"FCC": "D61", "NAME": "Alta Vista Shopping Center", "OBJECTID": 264}},
{"geometry": {"type": "Point", "coordinates": [-112.148971, 33.582989]}, "type": "Feature", "properties": {"FCC": "D61", "NAME": "Paseo Verde Plaza", "OBJECTID": 265}},
{"geometry": {"type": "Point", "coordinates": [-112.119371, 33.569534]}, "type": "Feature", "properties": {"FCC": "D61", "NAME": "Metro Marketplace", "OBJECTID": 266}},
{"geometry": {"type": "Point", "coordinates": [-112.121838, 33.57531]}, "type": "Feature", "properties": {"FCC": "D61", "NAME": "Metrocenter Mall", "OBJECTID": 267}},
{"geometry": {"type": "Point", "coordinates": [-112.067901, 33.641757]}, "type": "Feature", "properties": {"FCC": "D61", "NAME": "Fountain Square Shopping Center", "OBJECTID": 268}},
{"geometry": {"type": "Point", "coordinates": [-112.066513, 33.639083]}, "type": "Feature", "properties": {"FCC": "D61", "NAME": "Bell Towne Retail Centre", "OBJECTID": 269}},
{"geometry": {"type": "Point", "coordinates": [-112.063434, 33.656081]}, "type": "Feature", "properties": {"FCC": "D61", "NAME": "Sun Foods Plaza", "OBJECTID": 270}},
{"geometry": {"type": "Point", "coordinates": [-112.119748, 33.583335]}, "type": "Feature", "properties": {"FCC": "D61", "NAME": "Mariners Village", "OBJECTID": 271}},
{"geometry": {"type": "Point", "coordinates": [-112.149036, 33.609367]}, "type": "Feature", "properties": {"FCC": "D61", "NAME": "Deer Valley Center", "OBJECTID": 272}},
{"geometry": {"type": "Point", "coordinates": [-112.131347, 33.609352]}, "type": "Feature", "properties": {"FCC": "D61", "NAME": "North Mountain Village Shopping Center", "OBJECTID": 273}},
{"geometry": {"type": "Point", "coordinates": [-112.133291, 33.654044]}, "type": "Feature", "properties": {"FCC": "D61", "NAME": "Union Hills Plaza", "OBJECTID": 274}},
{"geometry": {"type": "Point", "coordinates": [-112.118903, 33.640358]}, "type": "Feature", "properties": {"FCC": "D61", "NAME": "Bell Canyon Pavillions", "OBJECTID": 275}},
{"geometry": {"type": "Point", "coordinates": [-112.118139, 33.597048]}, "type": "Feature", "properties": {"FCC": "D61", "NAME": "Cactus Plaza", "OBJECTID": 276}},
{"geometry": {"type": "Point", "coordinates": [-112.135852, 33.653372]}, "type": "Feature", "properties": {"FCC": "D61", "NAME": "Union Hills Center", "OBJECTID": 277}},
{"geometry": {"type": "Point", "coordinates": [-112.153391, 33.65561]}, "type": "Feature", "properties": {"FCC": "D61", "NAME": "Union Crossing Shopping Center", "OBJECTID": 278}},
{"geometry": {"type": "Point", "coordinates": [-111.975515, 33.584844]}, "type": "Feature", "properties": {"FCC": "D61", "NAME": "Paradise Village Gateway", "OBJECTID": 279}},
{"geometry": {"type": "Point", "coordinates": [-111.983418, 33.602613]}, "type": "Feature", "properties": {"FCC": "D61", "NAME": "Paradise Valley Mall", "OBJECTID": 280}},
{"geometry": {"type": "Point", "coordinates": [-111.979518, 33.600216]}, "type": "Feature", "properties": {"FCC": "D61", "NAME": "Village Plaza", "OBJECTID": 281}},
{"geometry": {"type": "Point", "coordinates": [-112.011435, 33.627733]}, "type": "Feature", "properties": {"FCC": "D61", "NAME": "Greenway Park Plaza", "OBJECTID": 282}},
{"geometry": {"type": "Point", "coordinates": [-112.011407, 33.641974]}, "type": "Feature", "properties": {"FCC": "D61", "NAME": "Plaza de Campana", "OBJECTID": 283}},
{"geometry": {"type": "Point", "coordinates": [-111.926608, 33.612721]}, "type": "Feature", "properties": {"FCC": "D61", "NAME": "East Thunderbird Square", "OBJECTID": 284}},
{"geometry": {"type": "Point", "coordinates": [-111.92345, 33.635633]}, "type": "Feature", "properties": {"FCC": "D61", "NAME": "The Promenade at Frank Lloyd Wright", "OBJECTID": 285}},
{"geometry": {"type": "Point", "coordinates": [-111.924808, 33.539328]}, "type": "Feature", "properties": {"FCC": "D61", "NAME": "Scottsdale Seville", "OBJECTID": 286}},
{"geometry": {"type": "Point", "coordinates": [-111.904514, 33.54337]}, "type": "Feature", "properties": {"FCC": "D61", "NAME": "Paseo Village", "OBJECTID": 287}},
{"geometry": {"type": "Point", "coordinates": [-111.924629, 33.56567]}, "type": "Feature", "properties": {"FCC": "D61", "NAME": "The Shops at Gainey Village", "OBJECTID": 288}},
{"geometry": {"type": "Point", "coordinates": [-111.92962, 33.583574]}, "type": "Feature", "properties": {"FCC": "D61", "NAME": "Scottsdale Promenade", "OBJECTID": 289}},
{"geometry": {"type": "Point", "coordinates": [-111.924732, 33.583748]}, "type": "Feature", "properties": {"FCC": "D61", "NAME": "Shea Scottsdale Shopping Center", "OBJECTID": 290}},
{"geometry": {"type": "Point", "coordinates": [-112.06891, 33.450888]}, "type": "Feature", "properties": {"FCC": "D61", "NAME": "Arizona Center", "OBJECTID": 291}},
{"geometry": {"type": "Point", "coordinates": [-112.153032, 33.522601]}, "type": "Feature", "properties": {"FCC": "D61", "NAME": "Fry's Shopping Plaza", "OBJECTID": 292}},
{"geometry": {"type": "Point", "coordinates": [-112.116834, 33.525123]}, "type": "Feature", "properties": {"FCC": "D61", "NAME": "Bethany-West Shopping Center", "OBJECTID": 293}},
{"geometry": {"type": "Point", "coordinates": [-112.095705, 33.522083]}, "type": "Feature", "properties": {"FCC": "D61", "NAME": "Christown Spectrum Mall", "OBJECTID": 294}},
{"geometry": {"type": "Point", "coordinates": [-112.04201, 33.507528]}, "type": "Feature", "properties": {"FCC": "D61", "NAME": "Camelback Colonnade", "OBJECTID": 295}},
{"geometry": {"type": "Point", "coordinates": [-112.03665, 33.507491]}, "type": "Feature", "properties": {"FCC": "D61", "NAME": "Town & Country Shopping Center", "OBJECTID": 296}},
{"geometry": {"type": "Point", "coordinates": [-112.069524, 33.453016]}, "type": "Feature", "properties": {"FCC": "D61", "NAME": "Arizona Center", "OBJECTID": 297}},
{"geometry": {"type": "Point", "coordinates": [-112.115666, 33.510325]}, "type": "Feature", "properties": {"FCC": "D61", "NAME": "Northwest Village", "OBJECTID": 298}},
{"geometry": {"type": "Point", "coordinates": [-111.984572, 33.476546]}, "type": "Feature", "properties": {"FCC": "D61", "NAME": "Arcadia Crossing", "OBJECTID": 299}},
{"geometry": {"type": "Point", "coordinates": [-112.027898, 33.511042]}, "type": "Feature", "properties": {"FCC": "D61", "NAME": "Biltmore Fashion Park", "OBJECTID": 300}},
{"geometry": {"type": "Point", "coordinates": [-111.985863, 33.510837]}, "type": "Feature", "properties": {"FCC": "D61", "NAME": "Camelback Village Center", "OBJECTID": 301}},
{"geometry": {"type": "Point", "coordinates": [-111.926313, 33.422054]}, "type": "Feature", "properties": {"FCC": "D61", "NAME": "Tempe Center", "OBJECTID": 302}},
{"geometry": {"type": "Point", "coordinates": [-111.925691, 33.422546]}, "type": "Feature", "properties": {"FCC": "D61", "NAME": "The Cornerstone", "OBJECTID": 303}},
{"geometry": {"type": "Point", "coordinates": [-111.929688, 33.441241]}, "type": "Feature", "properties": {"FCC": "D61", "NAME": "Pure Fitness Plaza", "OBJECTID": 304}},
{"geometry": {"type": "Point", "coordinates": [-111.904712, 33.431917]}, "type": "Feature", "properties": {"FCC": "D61", "NAME": "Tempe Marketplace", "OBJECTID": 305}},
{"geometry": {"type": "Point", "coordinates": [-111.927896, 33.464409]}, "type": "Feature", "properties": {"FCC": "D61", "NAME": "Papago Plaza", "OBJECTID": 306}},
{"geometry": {"type": "Point", "coordinates": [-112.016847, 33.494982]}, "type": "Feature", "properties": {"FCC": "D61", "NAME": "Squaw Peak Commercial Center", "OBJECTID": 307}},
{"geometry": {"type": "Point", "coordinates": [-111.929195, 33.498274]}, "type": "Feature", "properties": {"FCC": "D61", "NAME": "Fifth Avenue Shopping District", "OBJECTID": 308}},
{"geometry": {"type": "Point", "coordinates": [-111.916204, 33.496127]}, "type": "Feature", "properties": {"FCC": "D61", "NAME": "Miller Plaza", "OBJECTID": 309}},
{"geometry": {"type": "Point", "coordinates": [-111.91917, 33.500034]}, "type": "Feature", "properties": {"FCC": "D61", "NAME": "Camelback Miller Plaza", "OBJECTID": 310}},
{"geometry": {"type": "Point", "coordinates": [-111.92718, 33.528007]}, "type": "Feature", "properties": {"FCC": "D61", "NAME": "The Borgata of Scottsdale", "OBJECTID": 311}},
{"geometry": {"type": "Point", "coordinates": [-111.898315, 33.52266]}, "type": "Feature", "properties": {"FCC": "D61", "NAME": "Park Scottsdale Shopping Center", "OBJECTID": 312}},
{"geometry": {"type": "Point", "coordinates": [-111.922823, 33.493627]}, "type": "Feature", "properties": {"FCC": "D61", "NAME": "Scottsdale Mall", "OBJECTID": 313}},
{"geometry": {"type": "Point", "coordinates": [-111.929275, 33.50375]}, "type": "Feature", "properties": {"FCC": "D61", "NAME": "Scottsdale Fashion Square", "OBJECTID": 314}},
{"geometry": {"type": "Point", "coordinates": [-111.927471, 33.502026]}, "type": "Feature", "properties": {"FCC": "D61", "NAME": "The Scottsdale Waterfront", "OBJECTID": 315}},
{"geometry": {"type": "Point", "coordinates": [-111.924693, 33.526685]}, "type": "Feature", "properties": {"FCC": "D61", "NAME": "Hilton Village", "OBJECTID": 316}},
{"geometry": {"type": "Point", "coordinates": [-111.995962, 33.303197]}, "type": "Feature", "properties": {"FCC": "D61", "NAME": "The Plaza at Mountainside", "OBJECTID": 317}},
{"geometry": {"type": "Point", "coordinates": [-111.982727, 33.317521]}, "type": "Feature", "properties": {"FCC": "D61", "NAME": "Ahwatukee Foothills Towne Center", "OBJECTID": 318}},
{"geometry": {"type": "Point", "coordinates": [-111.978062, 33.319699]}, "type": "Feature", "properties": {"FCC": "D61", "NAME": "Ahwatukee Foothills Towne Center", "OBJECTID": 319}},
{"geometry": {"type": "Point", "coordinates": [-111.978453, 33.330356]}, "type": "Feature", "properties": {"FCC": "D61", "NAME": "Ahwatukee Palms", "OBJECTID": 320}},
{"geometry": {"type": "Point", "coordinates": [-111.977214, 33.347775]}, "type": "Feature", "properties": {"FCC": "D61", "NAME": "Ahwatukee Plaza", "OBJECTID": 321}},
{"geometry": {"type": "Point", "coordinates": [-111.98244, 33.320558]}, "type": "Feature", "properties": {"FCC": "D61", "NAME": "Foothills Park Place", "OBJECTID": 322}},
{"geometry": {"type": "Point", "coordinates": [-111.936064, 33.363683]}, "type": "Feature", "properties": {"FCC": "D61", "NAME": "Pueblo Anozira", "OBJECTID": 323}},
{"geometry": {"type": "Point", "coordinates": [-111.964569, 33.383183]}, "type": "Feature", "properties": {"FCC": "D61", "NAME": "Arizona Mills", "OBJECTID": 324}},
{"geometry": {"type": "Point", "coordinates": [-111.923912, 33.379871]}, "type": "Feature", "properties": {"FCC": "D61", "NAME": "Lake Country Village", "OBJECTID": 325}},
{"geometry": {"type": "Point", "coordinates": [-111.910764, 33.394291]}, "type": "Feature", "properties": {"FCC": "D61", "NAME": "Southern Palms Center", "OBJECTID": 326}},
{"geometry": {"type": "Point", "coordinates": [-111.907648, 33.394318]}, "type": "Feature", "properties": {"FCC": "D61", "NAME": "Bashas' Valley Plaza", "OBJECTID": 327}},
{"geometry": {"type": "Point", "coordinates": [-111.938299, 33.39187]}, "type": "Feature", "properties": {"FCC": "D61", "NAME": "Danelle Plaza", "OBJECTID": 328}},
{"geometry": {"type": "Point", "coordinates": [-111.909269, 33.362212]}, "type": "Feature", "properties": {"FCC": "D61", "NAME": "Pueblo Anozira Center", "OBJECTID": 329}},
{"geometry": {"type": "Point", "coordinates": [-111.948299, 33.303794]}, "type": "Feature", "properties": {"FCC": "D61", "NAME": "Kyrene Village", "OBJECTID": 330}},
{"geometry": {"type": "Point", "coordinates": [-111.965502, 33.319728]}, "type": "Feature", "properties": {"FCC": "D61", "NAME": "Casa Paloma", "OBJECTID": 331}},
{"geometry": {"type": "Point", "coordinates": [-111.960617, 33.350954]}, "type": "Feature", "properties": {"FCC": "D61", "NAME": "Groves Power Center", "OBJECTID": 332}},
{"geometry": {"type": "Point", "coordinates": [-111.898735, 33.303181]}, "type": "Feature", "properties": {"FCC": "D61", "NAME": "Chandler Fashion Center", "OBJECTID": 333}},
{"geometry": {"type": "Point", "coordinates": [-111.964462, 33.347287]}, "type": "Feature", "properties": {"FCC": "D61", "NAME": "Sports Authority Plaza", "OBJECTID": 334}},
{"geometry": {"type": "Point", "coordinates": [-111.933356, 33.309405]}, "type": "Feature", "properties": {"FCC": "D61", "NAME": "Chandler Festival", "OBJECTID": 335}},
{"geometry": {"type": "Point", "coordinates": [-111.92667, 33.79832]}, "type": "Feature", "properties": {"FCC": "D61", "NAME": "El Pedregal Festival Marketplace", "OBJECTID": 336}},
{"geometry": {"type": "Point", "coordinates": [-112.134911, 33.864201]}, "type": "Feature", "properties": {"FCC": "D61", "NAME": "Anthem Marketplace", "OBJECTID": 337}},
{"geometry": {"type": "Point", "coordinates": [-112.144309, 33.870858]}, "type": "Feature", "properties": {"FCC": "D61", "NAME": "Outlets at Anthem", "OBJECTID": 338}},
{"geometry": {"type": "Point", "coordinates": [-112.14942, 33.873391]}, "type": "Feature", "properties": {"FCC": "D61", "NAME": "Anthem Marketplace", "OBJECTID": 339}},
{"geometry": {"type": "Point", "coordinates": [-111.886496, 33.538029]}, "type": "Feature", "properties": {"FCC": "D61", "NAME": "Scottsdale Pavilions", "OBJECTID": 340}},
{"geometry": {"type": "Point", "coordinates": [-111.892782, 33.58388]}, "type": "Feature", "properties": {"FCC": "D61", "NAME": "Pima Crossing", "OBJECTID": 341}},
{"geometry": {"type": "Point", "coordinates": [-111.862478, 33.573506]}, "type": "Feature", "properties": {"FCC": "D61", "NAME": "Mercado at Scottsdale Ranch", "OBJECTID": 342}},
{"geometry": {"type": "Point", "coordinates": [-111.837658, 33.586951]}, "type": "Feature", "properties": {"FCC": "D61", "NAME": "Ancala Village Shopping Center", "OBJECTID": 343}},
{"geometry": {"type": "Point", "coordinates": [-111.893207, 33.627703]}, "type": "Feature", "properties": {"FCC": "D61", "NAME": "Sonora Village", "OBJECTID": 344}},
{"geometry": {"type": "Point", "coordinates": [-111.721934, 33.608052]}, "type": "Feature", "properties": {"FCC": "D61", "NAME": "Fountain Hills Plaza", "OBJECTID": 345}},
{"geometry": {"type": "Point", "coordinates": [-111.581781, 33.416167]}, "type": "Feature", "properties": {"FCC": "D61", "NAME": "Apache/Meridian Plaza", "OBJECTID": 346}},
{"geometry": {"type": "Point", "coordinates": [-111.601964, 33.383848]}, "type": "Feature", "properties": {"FCC": "D61", "NAME": "Superstition Gateway West", "OBJECTID": 347}},
{"geometry": {"type": "Point", "coordinates": [-111.550101, 33.414978]}, "type": "Feature", "properties": {"FCC": "D61", "NAME": "Basha's Shopping Center", "OBJECTID": 348}},
{"geometry": {"type": "Point", "coordinates": [-111.894548, 33.379761]}, "type": "Feature", "properties": {"FCC": "D61", "NAME": "Tempe Plaza", "OBJECTID": 349}},
{"geometry": {"type": "Point", "coordinates": [-111.860072, 33.365423]}, "type": "Feature", "properties": {"FCC": "D61", "NAME": "Jungle Jim's Playland Plaza", "OBJECTID": 350}},
{"geometry": {"type": "Point", "coordinates": [-111.861226, 33.389435]}, "type": "Feature", "properties": {"FCC": "D61", "NAME": "Fiesta Mall", "OBJECTID": 351}},
{"geometry": {"type": "Point", "coordinates": [-111.855174, 33.39466]}, "type": "Feature", "properties": {"FCC": "D61", "NAME": "Poca Fiesta Shopping Center", "OBJECTID": 352}},
{"geometry": {"type": "Point", "coordinates": [-111.856168, 33.400959]}, "type": "Feature", "properties": {"FCC": "D61", "NAME": "Alma School Plaza", "OBJECTID": 353}},
{"geometry": {"type": "Point", "coordinates": [-111.673427, 33.416508]}, "type": "Feature", "properties": {"FCC": "D61", "NAME": "Sun Valley Plaza", "OBJECTID": 354}},
{"geometry": {"type": "Point", "coordinates": [-111.633999, 33.416621]}, "type": "Feature", "properties": {"FCC": "D61", "NAME": "Buckhorn Shopping Center", "OBJECTID": 355}},
{"geometry": {"type": "Point", "coordinates": [-111.891268, 33.362475]}, "type": "Feature", "properties": {"FCC": "D61", "NAME": "Plaza del sur", "OBJECTID": 356}},
{"geometry": {"type": "Point", "coordinates": [-111.858529, 33.394097]}, "type": "Feature", "properties": {"FCC": "D61", "NAME": "Fiesta Village", "OBJECTID": 357}},
{"geometry": {"type": "Point", "coordinates": [-111.889622, 33.306006]}, "type": "Feature", "properties": {"FCC": "D61", "NAME": "Chandler Festival", "OBJECTID": 358}},
{"geometry": {"type": "Point", "coordinates": [-111.874253, 33.318927]}, "type": "Feature", "properties": {"FCC": "D61", "NAME": "Boardwalk at Andersen Springs", "OBJECTID": 359}},
{"geometry": {"type": "Point", "coordinates": [-111.860232, 33.313782]}, "type": "Feature", "properties": {"FCC": "D61", "NAME": "Waterfall Shopping Center", "OBJECTID": 360}},
{"geometry": {"type": "Point", "coordinates": [-111.838969, 33.336297]}, "type": "Feature", "properties": {"FCC": "D61", "NAME": "Chandler Mercado", "OBJECTID": 361}},
{"geometry": {"type": "Point", "coordinates": [-111.843919, 33.336953]}, "type": "Feature", "properties": {"FCC": "D61", "NAME": "East Valley Plaza & Mall", "OBJECTID": 362}},
{"geometry": {"type": "Point", "coordinates": [-111.860508, 33.34837]}, "type": "Feature", "properties": {"FCC": "D61", "NAME": "Mervyn's Plaza", "OBJECTID": 363}},
{"geometry": {"type": "Point", "coordinates": [-111.857581, 33.351697]}, "type": "Feature", "properties": {"FCC": "D61", "NAME": "Paseo del Oro", "OBJECTID": 364}},
{"geometry": {"type": "Point", "coordinates": [-111.843393, 33.314472]}, "type": "Feature", "properties": {"FCC": "D61", "NAME": "Plaza del Arcos", "OBJECTID": 365}},
{"geometry": {"type": "Point", "coordinates": [-111.857983, 33.337272]}, "type": "Feature", "properties": {"FCC": "D61", "NAME": "Sun Village Fair", "OBJECTID": 366}},
{"geometry": {"type": "Point", "coordinates": [-111.807056, 33.37978]}, "type": "Feature", "properties": {"FCC": "D61", "NAME": "Mesa Grand", "OBJECTID": 367}},
{"geometry": {"type": "Point", "coordinates": [-111.786689, 33.379988]}, "type": "Feature", "properties": {"FCC": "D61", "NAME": "Mesa Shores Shopping Center", "OBJECTID": 368}},
{"geometry": {"type": "Point", "coordinates": [-111.789908, 33.39147]}, "type": "Feature", "properties": {"FCC": "D61", "NAME": "Mesa South Center", "OBJECTID": 369}},
{"geometry": {"type": "Point", "coordinates": [-111.786868, 33.395779]}, "type": "Feature", "properties": {"FCC": "D61", "NAME": "Santa Fe Square Shopping Center", "OBJECTID": 370}},
{"geometry": {"type": "Point", "coordinates": [-111.772053, 33.407438]}, "type": "Feature", "properties": {"FCC": "D61", "NAME": "Lindsay Marketplace", "OBJECTID": 371}},
{"geometry": {"type": "Point", "coordinates": [-111.858164, 33.423286]}, "type": "Feature", "properties": {"FCC": "D61", "NAME": "Westwood Plaza", "OBJECTID": 372}},
{"geometry": {"type": "Point", "coordinates": [-111.772515, 33.423993]}, "type": "Feature", "properties": {"FCC": "D61", "NAME": "North Mesa Plaza", "OBJECTID": 373}},
{"geometry": {"type": "Point", "coordinates": [-111.865653, 33.434957]}, "type": "Feature", "properties": {"FCC": "D61", "NAME": "Mesa Riverview", "OBJECTID": 374}},
{"geometry": {"type": "Point", "coordinates": [-111.757271, 33.333828]}, "type": "Feature", "properties": {"FCC": "D61", "NAME": "Val Vista Towne Center", "OBJECTID": 375}},
{"geometry": {"type": "Point", "coordinates": [-111.690001, 33.390595]}, "type": "Feature", "properties": {"FCC": "D61", "NAME": "Superstition Springs Center", "OBJECTID": 376}},
{"geometry": {"type": "Point", "coordinates": [-111.682988, 33.392637]}, "type": "Feature", "properties": {"FCC": "D61", "NAME": "Mesa Pavilions Power Center", "OBJECTID": 377}},
{"geometry": {"type": "Point", "coordinates": [-111.720219, 33.348748]}, "type": "Feature", "properties": {"FCC": "D61", "NAME": "Lakeview Village Shopping Center", "OBJECTID": 378}},
{"geometry": {"type": "Point", "coordinates": [-111.686099, 33.3779]}, "type": "Feature", "properties": {"FCC": "D61", "NAME": "Factory Stores of America Incorporated", "OBJECTID": 379}},
{"geometry": {"type": "Point", "coordinates": [-112.329758, 34.587284]}, "type": "Feature", "properties": {"FCC": "D61", "NAME": "Town & Country Valley Center", "OBJECTID": 380}},
{"geometry": {"type": "Point", "coordinates": [-112.408052, 34.548981]}, "type": "Feature", "properties": {"FCC": "D61", "NAME": "Prescott Gateway Mal", "OBJECTID": 381}},
{"geometry": {"type": "Point", "coordinates": [-112.433227, 34.549065]}, "type": "Feature", "properties": {"FCC": "D61", "NAME": "Frontier Village Shopping Center", "OBJECTID": 382}},
{"geometry": {"type": "Point", "coordinates": [-112.010375, 34.727843]}, "type": "Feature", "properties": {"FCC": "D61", "NAME": "Verde Valley Shopping Center", "OBJECTID": 383}},
{"geometry": {"type": "Point", "coordinates": [-112.004047, 34.72049]}, "type": "Feature", "properties": {"FCC": "D61", "NAME": "Cottonwood Plaza", "OBJECTID": 384}},
{"geometry": {"type": "Point", "coordinates": [-111.764363, 34.85299]}, "type": "Feature", "properties": {"FCC": "D61", "NAME": "Hillside Sedona", "OBJECTID": 385}},
{"geometry": {"type": "Point", "coordinates": [-111.598258, 35.215776]}, "type": "Feature", "properties": {"FCC": "D61", "NAME": "Park Santa Fe Shopping Center", "OBJECTID": 386}},
{"geometry": {"type": "Point", "coordinates": [-111.762807, 34.858342]}, "type": "Feature", "properties": {"FCC": "D61", "NAME": "Hillside Sedona", "OBJECTID": 387}},
{"geometry": {"type": "Point", "coordinates": [-111.58105, 35.222821]}, "type": "Feature", "properties": {"FCC": "D61", "NAME": "Flagstaff Mall", "OBJECTID": 388}},
{"geometry": {"type": "Point", "coordinates": [-111.761875, 34.778669]}, "type": "Feature", "properties": {"FCC": "D61", "NAME": "Prime Outlets at Sedona", "OBJECTID": 389}},
{"geometry": {"type": "Point", "coordinates": [-111.79532, 34.866178]}, "type": "Feature", "properties": {"FCC": "D61", "NAME": "Sedona Village Center", "OBJECTID": 390}},
{"geometry": {"type": "Point", "coordinates": [-110.259865, 31.52958]}, "type": "Feature", "properties": {"FCC": "D61", "NAME": "The Mall at Sierra Vista", "OBJECTID": 391}},
{"geometry": {"type": "Point", "coordinates": [-111.859459, 33.264736]}, "type": "Feature", "properties": {"FCC": "D61", "NAME": "Ocotillo Plaza", "OBJECTID": 392}},
{"geometry": {"type": "Point", "coordinates": [-111.733547, 32.880602]}, "type": "Feature", "properties": {"FCC": "D61", "NAME": "Casa Grande Mall", "OBJECTID": 393}},
{"geometry": {"type": "Point", "coordinates": [-111.729865, 32.880802]}, "type": "Feature", "properties": {"FCC": "D61", "NAME": "Tri-Valley Plaza", "OBJECTID": 394}},
{"geometry": {"type": "Point", "coordinates": [-111.691081, 32.877754]}, "type": "Feature", "properties": {"FCC": "D61", "NAME": "Factory Stores of America Outlet Center", "OBJECTID": 395}},
{"geometry": {"type": "Point", "coordinates": [-111.690295, 32.879734]}, "type": "Feature", "properties": {"FCC": "D61", "NAME": "Tanger Outlet Center", "OBJECTID": 396}},
{"geometry": {"type": "Point", "coordinates": [-111.687792, 32.83969]}, "type": "Feature", "properties": {"FCC": "D61", "NAME": "Outlets at Casa Grande", "OBJECTID": 397}},
{"geometry": {"type": "Point", "coordinates": [-110.934771, 31.368272]}, "type": "Feature", "properties": {"FCC": "D61", "NAME": "Mariposa Mall", "OBJECTID": 398}},
{"geometry": {"type": "Point", "coordinates": [-111.031436, 32.338655]}, "type": "Feature", "properties": {"FCC": "D61", "NAME": "Heritage Plaza", "OBJECTID": 399}},
{"geometry": {"type": "Point", "coordinates": [-111.044968, 32.358098]}, "type": "Feature", "properties": {"FCC": "D61", "NAME": "Cortaro Center", "OBJECTID": 400}},
{"geometry": {"type": "Point", "coordinates": [-111.014814, 32.341191]}, "type": "Feature", "properties": {"FCC": "D61", "NAME": "Foothills Mall", "OBJECTID": 401}},
{"geometry": {"type": "Point", "coordinates": [-110.978535, 32.336057]}, "type": "Feature", "properties": {"FCC": "D61", "NAME": "Casas Adobes Plaza", "OBJECTID": 402}},
{"geometry": {"type": "Point", "coordinates": [-110.961049, 32.424736]}, "type": "Feature", "properties": {"FCC": "D61", "NAME": "Vistoso Center", "OBJECTID": 403}},
{"geometry": {"type": "Point", "coordinates": [-110.995649, 31.852505]}, "type": "Feature", "properties": {"FCC": "D61", "NAME": "Continental Shopping Plaza", "OBJECTID": 404}},
{"geometry": {"type": "Point", "coordinates": [-110.993202, 31.868295]}, "type": "Feature", "properties": {"FCC": "D61", "NAME": "Green Valley Mall", "OBJECTID": 405}},
{"geometry": {"type": "Point", "coordinates": [-110.983598, 31.909373]}, "type": "Feature", "properties": {"FCC": "D61", "NAME": "Wal-Mart/Basha's Plaza", "OBJECTID": 406}},
{"geometry": {"type": "Point", "coordinates": [-110.983413, 32.179434]}, "type": "Feature", "properties": {"FCC": "D61", "NAME": "Santa Cruz Plaza", "OBJECTID": 407}},
{"geometry": {"type": "Point", "coordinates": [-110.966351, 32.226468]}, "type": "Feature", "properties": {"FCC": "D61", "NAME": "4th Avenue", "OBJECTID": 408}},
{"geometry": {"type": "Point", "coordinates": [-110.973867, 32.288613]}, "type": "Feature", "properties": {"FCC": "D61", "NAME": "Tucson Mall", "OBJECTID": 409}},
{"geometry": {"type": "Point", "coordinates": [-110.964561, 32.287965]}, "type": "Feature", "properties": {"FCC": "D61", "NAME": "Tucson Place", "OBJECTID": 410}},
{"geometry": {"type": "Point", "coordinates": [-110.942501, 32.259426]}, "type": "Feature", "properties": {"FCC": "D61", "NAME": "Campbell Plaza", "OBJECTID": 411}},
{"geometry": {"type": "Point", "coordinates": [-110.973832, 32.321161]}, "type": "Feature", "properties": {"FCC": "D61", "NAME": "Oracle Plaza", "OBJECTID": 412}},
{"geometry": {"type": "Point", "coordinates": [-110.917273, 32.223798]}, "type": "Feature", "properties": {"FCC": "D61", "NAME": "El con Mall", "OBJECTID": 413}},
{"geometry": {"type": "Point", "coordinates": [-110.87774, 32.220929]}, "type": "Feature", "properties": {"FCC": "D61", "NAME": "Plaza at Williams Centre", "OBJECTID": 414}},
{"geometry": {"type": "Point", "coordinates": [-110.89006, 32.251792]}, "type": "Feature", "properties": {"FCC": "D61", "NAME": "Crossroads Festival", "OBJECTID": 415}},
{"geometry": {"type": "Point", "coordinates": [-110.891488, 32.260953]}, "type": "Feature", "properties": {"FCC": "D61", "NAME": "Plaza Palomino", "OBJECTID": 416}},
{"geometry": {"type": "Point", "coordinates": [-110.92956, 32.323115]}, "type": "Feature", "properties": {"FCC": "D61", "NAME": "La Encantada", "OBJECTID": 417}},
{"geometry": {"type": "Point", "coordinates": [-110.873454, 32.274993]}, "type": "Feature", "properties": {"FCC": "D61", "NAME": "River Center Shopping Center", "OBJECTID": 418}},
{"geometry": {"type": "Point", "coordinates": [-110.865915, 32.2197]}, "type": "Feature", "properties": {"FCC": "D61", "NAME": "Park Place", "OBJECTID": 419}},
{"geometry": {"type": "Point", "coordinates": [-110.860173, 32.235335]}, "type": "Feature", "properties": {"FCC": "D61", "NAME": "Monterey Village", "OBJECTID": 420}},
{"geometry": {"type": "Point", "coordinates": [-110.827897, 32.221092]}, "type": "Feature", "properties": {"FCC": "D61", "NAME": "Broadway Plaza", "OBJECTID": 421}},
{"geometry": {"type": "Point", "coordinates": [-110.80814, 32.219985]}, "type": "Feature", "properties": {"FCC": "D61", "NAME": "Berkshire Village", "OBJECTID": 422}},
{"geometry": {"type": "Point", "coordinates": [-110.851918, 32.248695]}, "type": "Feature", "properties": {"FCC": "D61", "NAME": "La Plaza Shoppes", "OBJECTID": 423}},
{"geometry": {"type": "Point", "coordinates": [-110.905539, 32.206126]}, "type": "Feature", "properties": {"FCC": "D61", "NAME": "Randolph Plaza", "OBJECTID": 424}},
{"geometry": {"type": "Point", "coordinates": [-110.85591, 32.207833]}, "type": "Feature", "properties": {"FCC": "D61", "NAME": "Oxford Plaza", "OBJECTID": 425}},
{"geometry": {"type": "Point", "coordinates": [-110.842544, 32.205228]}, "type": "Feature", "properties": {"FCC": "D61", "NAME": "Eastpoint Marketplace", "OBJECTID": 426}},
{"geometry": {"type": "Point", "coordinates": [-110.842644, 32.190696]}, "type": "Feature", "properties": {"FCC": "D61", "NAME": "Rolling Hills Square", "OBJECTID": 427}},
{"geometry": {"type": "Point", "coordinates": [-128.58874, 54.517279]}, "type": "Feature", "properties": {"FCC": "D61", "NAME": "Lazelle Shopping Centre", "OBJECTID": 428}},
{"geometry": {"type": "Point", "coordinates": [-122.775366, 53.898268]}, "type": "Feature", "properties": {"FCC": "D61", "NAME": "Pine Centre Mall", "OBJECTID": 429}},
{"geometry": {"type": "Point", "coordinates": [-122.774957, 53.866726]}, "type": "Feature", "properties": {"FCC": "D61", "NAME": "College Heights Shopping Centre", "OBJECTID": 430}},
{"geometry": {"type": "Point", "coordinates": [-123.80289, 48.977717]}, "type": "Feature", "properties": {"FCC": "D61", "NAME": "Coronation Mall", "OBJECTID": 431}},
{"geometry": {"type": "Point", "coordinates": [-125.248298, 50.033194]}, "type": "Feature", "properties": {"FCC": "D61", "NAME": "Discovery Mall", "OBJECTID": 432}},
{"geometry": {"type": "Point", "coordinates": [-124.346733, 49.331586]}, "type": "Feature", "properties": {"FCC": "D61", "NAME": "Wembley Mall", "OBJECTID": 433}},
{"geometry": {"type": "Point", "coordinates": [-124.785762, 49.265366]}, "type": "Feature", "properties": {"FCC": "D61", "NAME": "Alberni Mall", "OBJECTID": 434}},
{"geometry": {"type": "Point", "coordinates": [-124.050818, 49.23655]}, "type": "Feature", "properties": {"FCC": "D61", "NAME": "Woodgrove Centre", "OBJECTID": 435}},
{"geometry": {"type": "Point", "coordinates": [-124.028368, 49.218028]}, "type": "Feature", "properties": {"FCC": "D61", "NAME": "Rutherford Mall", "OBJECTID": 436}},
{"geometry": {"type": "Point", "coordinates": [-124.004773, 49.205129]}, "type": "Feature", "properties": {"FCC": "D61", "NAME": "Country Club Centre", "OBJECTID": 437}},
{"geometry": {"type": "Point", "coordinates": [-124.052038, 49.240689]}, "type": "Feature", "properties": {"FCC": "D61", "NAME": "Dickonson Crossing Mall", "OBJECTID": 438}},
{"geometry": {"type": "Point", "coordinates": [-123.951005, 49.156122]}, "type": "Feature", "properties": {"FCC": "D61", "NAME": "Harewood Mall", "OBJECTID": 439}},
{"geometry": {"type": "Point", "coordinates": [-123.100196, 49.321586]}, "type": "Feature", "properties": {"FCC": "D61", "NAME": "Capilano Mall", "OBJECTID": 440}},
{"geometry": {"type": "Point", "coordinates": [-122.59227, 49.216828]}, "type": "Feature", "properties": {"FCC": "D61", "NAME": "Valley Fair Mall", "OBJECTID": 441}},
{"geometry": {"type": "Point", "coordinates": [-123.138958, 49.325581]}, "type": "Feature", "properties": {"FCC": "D61", "NAME": "Park Royal Shopping Centre", "OBJECTID": 442}},
{"geometry": {"type": "Point", "coordinates": [-123.089537, 49.332965]}, "type": "Feature", "properties": {"FCC": "D61", "NAME": "Westview Shopping Centre", "OBJECTID": 443}},
{"geometry": {"type": "Point", "coordinates": [-123.042277, 49.309335]}, "type": "Feature", "properties": {"FCC": "D61", "NAME": "Park and Tilford Centre", "OBJECTID": 444}},
{"geometry": {"type": "Point", "coordinates": [-123.040045, 49.334551]}, "type": "Feature", "properties": {"FCC": "D61", "NAME": "Lynn Valley Centre", "OBJECTID": 445}},
{"geometry": {"type": "Point", "coordinates": [-123.154289, 49.248844]}, "type": "Feature", "properties": {"FCC": "D61", "NAME": "Arbutus Shopping Centre", "OBJECTID": 446}},
{"geometry": {"type": "Point", "coordinates": [-123.119359, 49.232474]}, "type": "Feature", "properties": {"FCC": "D61", "NAME": "Oakridge Shopping Centre", "OBJECTID": 447}},
{"geometry": {"type": "Point", "coordinates": [-123.134975, 49.272688]}, "type": "Feature", "properties": {"FCC": "D61", "NAME": "Granville Island Public Market", "OBJECTID": 448}},
{"geometry": {"type": "Point", "coordinates": [-123.138883, 49.288736]}, "type": "Feature", "properties": {"FCC": "D61", "NAME": "Denman Place Mall", "OBJECTID": 449}},
{"geometry": {"type": "Point", "coordinates": [-123.121527, 49.285323]}, "type": "Feature", "properties": {"FCC": "D61", "NAME": "Royal Centre", "OBJECTID": 450}},
{"geometry": {"type": "Point", "coordinates": [-122.998393, 49.225948]}, "type": "Feature", "properties": {"FCC": "D61", "NAME": "Metrotown Centre", "OBJECTID": 451}},
{"geometry": {"type": "Point", "coordinates": [-123.00004, 49.268259]}, "type": "Feature", "properties": {"FCC": "D61", "NAME": "Brentwood Mall", "OBJECTID": 452}},
{"geometry": {"type": "Point", "coordinates": [-123.005442, 49.231027]}, "type": "Feature", "properties": {"FCC": "D61", "NAME": "Old Orchard Shopping Centre", "OBJECTID": 453}},
{"geometry": {"type": "Point", "coordinates": [-122.956266, 49.220018]}, "type": "Feature", "properties": {"FCC": "D61", "NAME": "Middlegate Shopping Centre", "OBJECTID": 454}},
{"geometry": {"type": "Point", "coordinates": [-122.92092, 49.212974]}, "type": "Feature", "properties": {"FCC": "D61", "NAME": "Royal City Centre", "OBJECTID": 455}},
{"geometry": {"type": "Point", "coordinates": [-122.889291, 49.261588]}, "type": "Feature", "properties": {"FCC": "D61", "NAME": "Burquitlam Mall", "OBJECTID": 456}},
{"geometry": {"type": "Point", "coordinates": [-122.838876, 49.262635]}, "type": "Feature", "properties": {"FCC": "D61", "NAME": "Como Lake Village Shopping Centre", "OBJECTID": 457}},
{"geometry": {"type": "Point", "coordinates": [-122.953718, 49.307456]}, "type": "Feature", "properties": {"FCC": "D61", "NAME": "Dollar Shopping Centre", "OBJECTID": 458}},
{"geometry": {"type": "Point", "coordinates": [-122.895644, 49.251084]}, "type": "Feature", "properties": {"FCC": "D61", "NAME": "Lougheed Mall Shopping Centre", "OBJECTID": 459}},
{"geometry": {"type": "Point", "coordinates": [-122.914622, 49.222676]}, "type": "Feature", "properties": {"FCC": "D61", "NAME": "Royal Square Shopping Centre", "OBJECTID": 460}},
{"geometry": {"type": "Point", "coordinates": [-122.890985, 49.247676]}, "type": "Feature", "properties": {"FCC": "D61", "NAME": "Cariboo Centre", "OBJECTID": 461}},
{"geometry": {"type": "Point", "coordinates": [-122.798276, 49.279837]}, "type": "Feature", "properties": {"FCC": "D61", "NAME": "Coquitlam Centre", "OBJECTID": 462}},
{"geometry": {"type": "Point", "coordinates": [-122.793695, 49.273146]}, "type": "Feature", "properties": {"FCC": "D61", "NAME": "Westwood Mall Shopping Centre", "OBJECTID": 463}},
{"geometry": {"type": "Point", "coordinates": [-122.754865, 49.270588]}, "type": "Feature", "properties": {"FCC": "D61", "NAME": "Prairie Mall", "OBJECTID": 464}},
{"geometry": {"type": "Point", "coordinates": [-122.691127, 49.2221]}, "type": "Feature", "properties": {"FCC": "D61", "NAME": "Golden Meadows Plaza", "OBJECTID": 465}},
{"geometry": {"type": "Point", "coordinates": [-122.646542, 49.219415]}, "type": "Feature", "properties": {"FCC": "D61", "NAME": "Meadow Ridge Centre", "OBJECTID": 466}},
{"geometry": {"type": "Point", "coordinates": [-122.598794, 49.219086]}, "type": "Feature", "properties": {"FCC": "D61", "NAME": "Haney Place Mall", "OBJECTID": 467}},
{"geometry": {"type": "Point", "coordinates": [-122.312557, 49.049729]}, "type": "Feature", "properties": {"FCC": "D61", "NAME": "Seven Oaks Mall", "OBJECTID": 468}},
{"geometry": {"type": "Point", "coordinates": [-123.335311, 48.446446]}, "type": "Feature", "properties": {"FCC": "D61", "NAME": "Hillside Centre", "OBJECTID": 469}},
{"geometry": {"type": "Point", "coordinates": [-123.395512, 48.453635]}, "type": "Feature", "properties": {"FCC": "D61", "NAME": "Tillicum Mall", "OBJECTID": 470}},
{"geometry": {"type": "Point", "coordinates": [-123.374057, 48.45666]}, "type": "Feature", "properties": {"FCC": "D61", "NAME": "Saanich Plaza", "OBJECTID": 471}},
{"geometry": {"type": "Point", "coordinates": [-123.369006, 48.446781]}, "type": "Feature", "properties": {"FCC": "D61", "NAME": "Mayfair Shopping Centre", "OBJECTID": 472}},
{"geometry": {"type": "Point", "coordinates": [-123.332012, 48.459894]}, "type": "Feature", "properties": {"FCC": "D61", "NAME": "Shelbourne Plaza", "OBJECTID": 473}},
{"geometry": {"type": "Point", "coordinates": [-123.33402, 48.470225]}, "type": "Feature", "properties": {"FCC": "D61", "NAME": "University Heights Shopping Centre", "OBJECTID": 474}},
{"geometry": {"type": "Point", "coordinates": [-123.381367, 48.49792]}, "type": "Feature", "properties": {"FCC": "D61", "NAME": "Broadmead Village Shopping Centre", "OBJECTID": 475}},
{"geometry": {"type": "Point", "coordinates": [-123.41426, 48.566327]}, "type": "Feature", "properties": {"FCC": "D61", "NAME": "Seaboard Plaza", "OBJECTID": 476}},
{"geometry": {"type": "Point", "coordinates": [-123.077872, 49.091359]}, "type": "Feature", "properties": {"FCC": "D61", "NAME": "Trenant Square", "OBJECTID": 477}},
{"geometry": {"type": "Point", "coordinates": [-123.098754, 49.131844]}, "type": "Feature", "properties": {"FCC": "D61", "NAME": "Coppersmith", "OBJECTID": 478}},
{"geometry": {"type": "Point", "coordinates": [-123.094992, 49.13208]}, "type": "Feature", "properties": {"FCC": "D61", "NAME": "Ironwood", "OBJECTID": 479}},
{"geometry": {"type": "Point", "coordinates": [-123.138602, 49.166108]}, "type": "Feature", "properties": {"FCC": "D61", "NAME": "Richmond Centre", "OBJECTID": 480}},
{"geometry": {"type": "Point", "coordinates": [-123.134659, 49.175532]}, "type": "Feature", "properties": {"FCC": "D61", "NAME": "Lansdowne Park Shopping Centre", "OBJECTID": 481}},
{"geometry": {"type": "Point", "coordinates": [-123.078114, 49.171807]}, "type": "Feature", "properties": {"FCC": "D61", "NAME": "Richmond Auto Mall", "OBJECTID": 482}},
{"geometry": {"type": "Point", "coordinates": [-123.134519, 49.183777]}, "type": "Feature", "properties": {"FCC": "D61", "NAME": "Aberdeen Centre", "OBJECTID": 483}},
{"geometry": {"type": "Point", "coordinates": [-123.137565, 49.168991]}, "type": "Feature", "properties": {"FCC": "D61", "NAME": "Richmond Square", "OBJECTID": 484}},
{"geometry": {"type": "Point", "coordinates": [-122.891916, 49.132172]}, "type": "Feature", "properties": {"FCC": "D61", "NAME": "Scottsdale Mall", "OBJECTID": 485}},
{"geometry": {"type": "Point", "coordinates": [-122.892309, 49.150324]}, "type": "Feature", "properties": {"FCC": "D61", "NAME": "Delta Shoppers Mall", "OBJECTID": 486}},
{"geometry": {"type": "Point", "coordinates": [-122.802675, 49.033055]}, "type": "Feature", "properties": {"FCC": "D61", "NAME": "Semiahmoo Shopping Centre", "OBJECTID": 487}},
{"geometry": {"type": "Point", "coordinates": [-122.891673, 49.135702]}, "type": "Feature", "properties": {"FCC": "D61", "NAME": "Scott 72 Centre", "OBJECTID": 488}},
{"geometry": {"type": "Point", "coordinates": [-122.889005, 49.176158]}, "type": "Feature", "properties": {"FCC": "D61", "NAME": "Scott Town Plaza", "OBJECTID": 489}},
{"geometry": {"type": "Point", "coordinates": [-122.917621, 49.200857]}, "type": "Feature", "properties": {"FCC": "D61", "NAME": "Columbia Square Plaza", "OBJECTID": 490}},
{"geometry": {"type": "Point", "coordinates": [-122.911553, 49.200208]}, "type": "Feature", "properties": {"FCC": "D61", "NAME": "Westminster Quay Market", "OBJECTID": 491}},
{"geometry": {"type": "Point", "coordinates": [-122.658104, 49.102622]}, "type": "Feature", "properties": {"FCC": "D61", "NAME": "Langley Mall", "OBJECTID": 492}},
{"geometry": {"type": "Point", "coordinates": [-122.803755, 49.189173]}, "type": "Feature", "properties": {"FCC": "D61", "NAME": "Guilford Mall", "OBJECTID": 493}},
{"geometry": {"type": "Point", "coordinates": [-122.677066, 49.115026]}, "type": "Feature", "properties": {"FCC": "D61", "NAME": "Willowbrook Shopping Centre", "OBJECTID": 494}},
{"geometry": {"type": "Point", "coordinates": [-122.800446, 49.164386]}, "type": "Feature", "properties": {"FCC": "D61", "NAME": "Evergreen Mall", "OBJECTID": 495}},
{"geometry": {"type": "Point", "coordinates": [-122.803567, 49.189941]}, "type": "Feature", "properties": {"FCC": "D61", "NAME": "Guilford Shopping Centre", "OBJECTID": 496}},
{"geometry": {"type": "Point", "coordinates": [-119.584462, 49.473405]}, "type": "Feature", "properties": {"FCC": "D61", "NAME": "Cherry Lane Shopping Centre", "OBJECTID": 497}},
{"geometry": {"type": "Point", "coordinates": [-119.590786, 49.465027]}, "type": "Feature", "properties": {"FCC": "D61", "NAME": "Peachtree Mall", "OBJECTID": 498}},
{"geometry": {"type": "Point", "coordinates": [-114.920397, 50.02441]}, "type": "Feature", "properties": {"FCC": "D61", "NAME": "", "OBJECTID": 499}},
{"geometry": {"type": "Point", "coordinates": [-114.926713, 50.005344]}, "type": "Feature", "properties": {"FCC": "D61", "NAME": "Chauncey Ridge Mall", "OBJECTID": 500}},
{"geometry": {"type": "Point", "coordinates": [-120.787526, 50.108314]}, "type": "Feature", "properties": {"FCC": "D61", "NAME": "Railyard Centre", "OBJECTID": 501}},
{"geometry": {"type": "Point", "coordinates": [-120.372094, 50.654825]}, "type": "Feature", "properties": {"FCC": "D61", "NAME": "Aberdeen Mall", "OBJECTID": 502}},
{"geometry": {"type": "Point", "coordinates": [-120.377308, 50.653424]}, "type": "Feature", "properties": {"FCC": "D61", "NAME": "Aberdeen Village Centre", "OBJECTID": 503}},
{"geometry": {"type": "Point", "coordinates": [-115.764317, 49.512238]}, "type": "Feature", "properties": {"FCC": "D61", "NAME": "Cranbrook Mall", "OBJECTID": 504}},
{"geometry": {"type": "Point", "coordinates": [-115.750662, 49.523515]}, "type": "Feature", "properties": {"FCC": "D61", "NAME": "Tamarack Centre", "OBJECTID": 505}},
{"geometry": {"type": "Point", "coordinates": [-114.887385, 49.731389]}, "type": "Feature", "properties": {"FCC": "D61", "NAME": "Greewood Shopping Mall", "OBJECTID": 506}},
{"geometry": {"type": "Point", "coordinates": [-116.519011, 49.105658]}, "type": "Feature", "properties": {"FCC": "D61", "NAME": "Creston Mall", "OBJECTID": 507}},
{"geometry": {"type": "Point", "coordinates": [-117.288753, 49.498068]}, "type": "Feature", "properties": {"FCC": "D61", "NAME": "Chahko Mika Mall", "OBJECTID": 508}},
{"geometry": {"type": "Point", "coordinates": [-123.1999, 39.152295]}, "type": "Feature", "properties": {"FCC": "D61", "NAME": "Pear Tree Center", "OBJECTID": 509}},
{"geometry": {"type": "Point", "coordinates": [-118.972694, 37.64757]}, "type": "Feature", "properties": {"FCC": "D61", "NAME": "Mammoth Luxury Outlets", "OBJECTID": 510}},
{"geometry": {"type": "Point", "coordinates": [-122.639393, 38.236038]}, "type": "Feature", "properties": {"FCC": "D61", "NAME": "Golden Eagle Center", "OBJECTID": 511}},
{"geometry": {"type": "Point", "coordinates": [-122.651497, 38.255237]}, "type": "Feature", "properties": {"FCC": "D61", "NAME": "Petaluma Village Premium Outlets", "OBJECTID": 512}},
{"geometry": {"type": "Point", "coordinates": [-122.620832, 38.246491]}, "type": "Feature", "properties": {"FCC": "D61", "NAME": "Washington Square", "OBJECTID": 513}},
{"geometry": {"type": "Point", "coordinates": [-122.629388, 38.249744]}, "type": "Feature", "properties": {"FCC": "D61", "NAME": "Petaluma Plaza North Shopping Center", "OBJECTID": 514}},
{"geometry": {"type": "Point", "coordinates": [-122.624228, 38.249637]}, "type": "Feature", "properties": {"FCC": "D61", "NAME": "Washington Square Shopping Center", "OBJECTID": 515}},
{"geometry": {"type": "Point", "coordinates": [-121.899198, 36.613]}, "type": "Feature", "properties": {"FCC": "D61", "NAME": "Cannery Row Antique Mall", "OBJECTID": 516}},
{"geometry": {"type": "Point", "coordinates": [-121.904856, 36.6191]}, "type": "Feature", "properties": {"FCC": "D61", "NAME": "American Tin Cannery Premium Factory Outlets", "OBJECTID": 517}},
{"geometry": {"type": "Point", "coordinates": [-121.898221, 36.583902]}, "type": "Feature", "properties": {"FCC": "D61", "NAME": "Del Monte Center", "OBJECTID": 518}},
{"geometry": {"type": "Point", "coordinates": [-121.132269, 36.204509]}, "type": "Feature", "properties": {"FCC": "D61", "NAME": "King City Shopping Center", "OBJECTID": 519}},
{"geometry": {"type": "Point", "coordinates": [-121.908609, 36.537348]}, "type": "Feature", "properties": {"FCC": "D61", "NAME": "The Crossroads", "OBJECTID": 520}},
{"geometry": {"type": "Point", "coordinates": [-121.906488, 36.542115]}, "type": "Feature", "properties": {"FCC": "D61", "NAME": "Barnyard", "OBJECTID": 521}},
{"geometry": {"type": "Point", "coordinates": [-121.904108, 36.542369]}, "type": "Feature", "properties": {"FCC": "D61", "NAME": "Carmel Rancho Shopping Center", "OBJECTID": 522}},
{"geometry": {"type": "Point", "coordinates": [-120.459179, 34.648627]}, "type": "Feature", "properties": {"FCC": "D61", "NAME": "Lompoc Plaza", "OBJECTID": 523}},
{"geometry": {"type": "Point", "coordinates": [-120.456578, 34.662614]}, "type": "Feature", "properties": {"FCC": "D61", "NAME": "Mission Plaza", "OBJECTID": 524}},
{"geometry": {"type": "Point", "coordinates": [-122.028337, 37.04589]}, "type": "Feature", "properties": {"FCC": "D61", "NAME": "Scotts Valley Shopping Center", "OBJECTID": 525}},
{"geometry": {"type": "Point", "coordinates": [-122.029578, 37.046524]}, "type": "Feature", "properties": {"FCC": "D61", "NAME": "Scotts Village", "OBJECTID": 526}},
{"geometry": {"type": "Point", "coordinates": [-122.027171, 37.047145]}, "type": "Feature", "properties": {"FCC": "D61", "NAME": "Kings Village Shopping Center", "OBJECTID": 527}},
{"geometry": {"type": "Point", "coordinates": [-121.969162, 36.978759]}, "type": "Feature", "properties": {"FCC": "D61", "NAME": "Brown Ranch Marketplace", "OBJECTID": 528}},
{"geometry": {"type": "Point", "coordinates": [-121.966451, 36.974897]}, "type": "Feature", "properties": {"FCC": "D61", "NAME": "Capitola Mall", "OBJECTID": 529}},
{"geometry": {"type": "Point", "coordinates": [-121.910499, 36.981998]}, "type": "Feature", "properties": {"FCC": "D61", "NAME": "Aptos Center", "OBJECTID": 530}},
{"geometry": {"type": "Point", "coordinates": [-122.025604, 36.972647]}, "type": "Feature", "properties": {"FCC": "D61", "NAME": "Pacific Garden Mall", "OBJECTID": 531}},
{"geometry": {"type": "Point", "coordinates": [-121.907463, 36.978095]}, "type": "Feature", "properties": {"FCC": "D61", "NAME": "Rancho del Mar Shopping", "OBJECTID": 532}},
{"geometry": {"type": "Point", "coordinates": [-122.024749, 37.043988]}, "type": "Feature", "properties": {"FCC": "D61", "NAME": "Camp Evers Shopping Center", "OBJECTID": 533}},
{"geometry": {"type": "Point", "coordinates": [-121.780644, 36.919331]}, "type": "Feature", "properties": {"FCC": "D61", "NAME": "Watsonville Square", "OBJECTID": 534}},
{"geometry": {"type": "Point", "coordinates": [-121.772625, 36.916585]}, "type": "Feature", "properties": {"FCC": "D61", "NAME": "The Overlook Center", "OBJECTID": 535}},
{"geometry": {"type": "Point", "coordinates": [-121.78215, 36.917189]}, "type": "Feature", "properties": {"FCC": "D61", "NAME": "The Overlook Center", "OBJECTID": 536}},
{"geometry": {"type": "Point", "coordinates": [-121.640832, 37.111029]}, "type": "Feature", "properties": {"FCC": "D61", "NAME": "Vineyard Town Center", "OBJECTID": 537}},
{"geometry": {"type": "Point", "coordinates": [-121.639563, 37.114025]}, "type": "Feature", "properties": {"FCC": "D61", "NAME": "Tennant Station", "OBJECTID": 538}},
{"geometry": {"type": "Point", "coordinates": [-121.649725, 37.124437]}, "type": "Feature", "properties": {"FCC": "D61", "NAME": "Morgan Hill Plaza", "OBJECTID": 539}},
{"geometry": {"type": "Point", "coordinates": [-121.593778, 37.013444]}, "type": "Feature", "properties": {"FCC": "D61", "NAME": "Hecker Pass Plaza", "OBJECTID": 540}},
{"geometry": {"type": "Point", "coordinates": [-121.560207, 37.000361]}, "type": "Feature", "properties": {"FCC": "D61", "NAME": "South Valley Plaza", "OBJECTID": 541}},
{"geometry": {"type": "Point", "coordinates": [-121.562859, 37.021623]}, "type": "Feature", "properties": {"FCC": "D61", "NAME": "Gilroy's Outlet Center", "OBJECTID": 542}},
{"geometry": {"type": "Point", "coordinates": [-121.561761, 37.023057]}, "type": "Feature", "properties": {"FCC": "D61", "NAME": "Gilroy Premium Outlets", "OBJECTID": 543}},
{"geometry": {"type": "Point", "coordinates": [-121.757718, 36.910354]}, "type": "Feature", "properties": {"FCC": "D61", "NAME": "May Way Shopping Center", "OBJECTID": 544}},
{"geometry": {"type": "Point", "coordinates": [-121.745019, 36.924117]}, "type": "Feature", "properties": {"FCC": "D61", "NAME": "East Lake Village", "OBJECTID": 545}},
{"geometry": {"type": "Point", "coordinates": [-121.667311, 36.69637]}, "type": "Feature", "properties": {"FCC": "D61", "NAME": "Laurel West Shopping Center", "OBJECTID": 546}},
{"geometry": {"type": "Point", "coordinates": [-121.6683, 36.698067]}, "type": "Feature", "properties": {"FCC": "D61", "NAME": "Westridge Shopping Center", "OBJECTID": 547}},
{"geometry": {"type": "Point", "coordinates": [-121.653188, 36.691753]}, "type": "Feature", "properties": {"FCC": "D61", "NAME": "Sherwood Gardens", "OBJECTID": 548}},
{"geometry": {"type": "Point", "coordinates": [-121.653341, 36.707225]}, "type": "Feature", "properties": {"FCC": "D61", "NAME": "Harden Ranch Plaza", "OBJECTID": 549}},
{"geometry": {"type": "Point", "coordinates": [-121.665347, 36.792983]}, "type": "Feature", "properties": {"FCC": "D61", "NAME": "Prunetree Shopping Center", "OBJECTID": 550}},
{"geometry": {"type": "Point", "coordinates": [-121.658193, 36.717233]}, "type": "Feature", "properties": {"FCC": "D61", "NAME": "Northridge Mall", "OBJECTID": 551}},
{"geometry": {"type": "Point", "coordinates": [-121.668086, 36.702935]}, "type": "Feature", "properties": {"FCC": "D61", "NAME": "Westridge Shopping Center", "OBJECTID": 552}},
{"geometry": {"type": "Point", "coordinates": [-121.653151, 36.716584]}, "type": "Feature", "properties": {"FCC": "D61", "NAME": "Harden Ranch Plaza", "OBJECTID": 553}},
{"geometry": {"type": "Point", "coordinates": [-120.069157, 36.734884]}, "type": "Feature", "properties": {"FCC": "D61", "NAME": "Kerman Shopping Center", "OBJECTID": 554}},
{"geometry": {"type": "Point", "coordinates": [-120.061663, 36.73424]}, "type": "Feature", "properties": {"FCC": "D61", "NAME": "Kerman Shopping Center", "OBJECTID": 555}},
{"geometry": {"type": "Point", "coordinates": [-120.082146, 36.975912]}, "type": "Feature", "properties": {"FCC": "D61", "NAME": "Madera Marketplace", "OBJECTID": 556}},
{"geometry": {"type": "Point", "coordinates": [-120.862384, 37.056922]}, "type": "Feature", "properties": {"FCC": "D61", "NAME": "San Luis Plaza Shopping Center", "OBJECTID": 557}},
{"geometry": {"type": "Point", "coordinates": [-120.868396, 37.05566]}, "type": "Feature", "properties": {"FCC": "D61", "NAME": "San Luis Plaza Shopping Center", "OBJECTID": 558}},
{"geometry": {"type": "Point", "coordinates": [-120.62801, 35.135729]}, "type": "Feature", "properties": {"FCC": "D61", "NAME": "Prime Outlets at Pismo Beach", "OBJECTID": 559}},
{"geometry": {"type": "Point", "coordinates": [-120.625124, 35.135641]}, "type": "Feature", "properties": {"FCC": "D61", "NAME": "Pismo Coast Shopping Plaza", "OBJECTID": 560}},
{"geometry": {"type": "Point", "coordinates": [-120.690437, 35.257826]}, "type": "Feature", "properties": {"FCC": "D61", "NAME": "Laguna Village Shopping Center", "OBJECTID": 561}},
{"geometry": {"type": "Point", "coordinates": [-120.676074, 35.2601]}, "type": "Feature", "properties": {"FCC": "D61", "NAME": "Slo Promenade", "OBJECTID": 562}},
{"geometry": {"type": "Point", "coordinates": [-120.674607, 35.262184]}, "type": "Feature", "properties": {"FCC": "D61", "NAME": "Madonna Plaza", "OBJECTID": 563}},
{"geometry": {"type": "Point", "coordinates": [-120.662664, 35.485948]}, "type": "Feature", "properties": {"FCC": "D61", "NAME": "Adobe Plaza", "OBJECTID": 564}},
{"geometry": {"type": "Point", "coordinates": [-120.673015, 35.293054]}, "type": "Feature", "properties": {"FCC": "D61", "NAME": "Foothill Plaza", "OBJECTID": 565}},
{"geometry": {"type": "Point", "coordinates": [-120.421936, 34.921243]}, "type": "Feature", "properties": {"FCC": "D61", "NAME": "The Crossroads at Santa Maria", "OBJECTID": 566}},
{"geometry": {"type": "Point", "coordinates": [-120.59909, 35.127571]}, "type": "Feature", "properties": {"FCC": "D61", "NAME": "Five Cities Center", "OBJECTID": 567}},
{"geometry": {"type": "Point", "coordinates": [-120.603891, 35.131287]}, "type": "Feature", "properties": {"FCC": "D61", "NAME": "Oak Park Plaza", "OBJECTID": 568}},
{"geometry": {"type": "Point", "coordinates": [-120.606973, 35.132984]}, "type": "Feature", "properties": {"FCC": "D61", "NAME": "Pacific Coast Plaza", "OBJECTID": 569}},
{"geometry": {"type": "Point", "coordinates": [-120.434632, 34.915303]}, "type": "Feature", "properties": {"FCC": "D61", "NAME": "Broadway Pavillion", "OBJECTID": 570}},
{"geometry": {"type": "Point", "coordinates": [-120.432167, 34.920823]}, "type": "Feature", "properties": {"FCC": "D61", "NAME": "Santa Maria Plaza", "OBJECTID": 571}},
{"geometry": {"type": "Point", "coordinates": [-120.433719, 34.951285]}, "type": "Feature", "properties": {"FCC": "D61", "NAME": "Santa Maria Town Center", "OBJECTID": 572}},
{"geometry": {"type": "Point", "coordinates": [-120.437033, 34.933019]}, "type": "Feature", "properties": {"FCC": "D61", "NAME": "Stowell Shopping Center", "OBJECTID": 573}},
{"geometry": {"type": "Point", "coordinates": [-120.437083, 34.936404]}, "type": "Feature", "properties": {"FCC": "D61", "NAME": "Santa Maria Shopping Center", "OBJECTID": 574}},
{"geometry": {"type": "Point", "coordinates": [-120.437079, 34.951227]}, "type": "Feature", "properties": {"FCC": "D61", "NAME": "Town Center West", "OBJECTID": 575}},
{"geometry": {"type": "Point", "coordinates": [-122.632697, 38.962515]}, "type": "Feature", "properties": {"FCC": "D61", "NAME": "Burns Valley Mall", "OBJECTID": 576}},
{"geometry": {"type": "Point", "coordinates": [-122.723299, 38.347373]}, "type": "Feature", "properties": {"FCC": "D61", "NAME": "Expressway Center", "OBJECTID": 577}},
{"geometry": {"type": "Point", "coordinates": [-122.717238, 38.440338]}, "type": "Feature", "properties": {"FCC": "D61", "NAME": "Santa Rosa Plaza", "OBJECTID": 578}},
{"geometry": {"type": "Point", "coordinates": [-122.686189, 38.443522]}, "type": "Feature", "properties": {"FCC": "D61", "NAME": "Montgomery Village Shopping Center", "OBJECTID": 579}},
{"geometry": {"type": "Point", "coordinates": [-122.804899, 38.549051]}, "type": "Feature", "properties": {"FCC": "D61", "NAME": "Lakewood Shopping Center", "OBJECTID": 580}},
{"geometry": {"type": "Point", "coordinates": [-122.80731, 38.553826]}, "type": "Feature", "properties": {"FCC": "D61", "NAME": "Lakewood Village", "OBJECTID": 581}},
{"geometry": {"type": "Point", "coordinates": [-122.730001, 38.457817]}, "type": "Feature", "properties": {"FCC": "D61", "NAME": "Coddingtown Shopping Center", "OBJECTID": 582}},
{"geometry": {"type": "Point", "coordinates": [-122.687549, 38.445667]}, "type": "Feature", "properties": {"FCC": "D61", "NAME": "Codding Enterprises", "OBJECTID": 583}},
{"geometry": {"type": "Point", "coordinates": [-122.806227, 38.551353]}, "type": "Feature", "properties": {"FCC": "D61", "NAME": "Lakewood Village", "OBJECTID": 584}},
{"geometry": {"type": "Point", "coordinates": [-122.710963, 38.418691]},