{"type":"FeatureCollection","features":[
{"geometry": {"type": "Point", "coordinates": [-78.4766693, 38.0293083]}, "type": "Feature", "properties": {"STATE_FIPS": "51", "POP_2000": 45049, "POP_RANGE": "10,000 - 49,999", "FEATURE": "County Seat", "COUNTY": "Charlottesville City", "STATE": "VA", "OBJECTID": 1, "CITIESX020": 17972, "INURBAN": 1, "FIPS": "51540", "FIPS55": "14968", "DISPLAY": 0, "NAME": "Charlottesville"}},
{"geometry": {"type": "Point", "coordinates": [-79.0716858, 38.1495743]}, "type": "Feature", "properties": {"STATE_FIPS": "51", "POP_2000": 23853, "POP_RANGE": "10,000 - 49,999", "FEATURE": "County Seat", "COUNTY": "Staunton City", "STATE": "VA", "OBJECTID": 2, "CITIESX020": 17975, "INURBAN": 1, "FIPS": "51790", "FIPS55": "75216", "DISPLAY": 0, "NAME": "Staunton"}},
{"geometry": {"type": "Point", "coordinates": [-77.4602661, 37.5537567]}, "type": "Feature", "properties": {"STATE_FIPS": "51", "POP_2000": 197790, "POP_RANGE": "100,000 - 249,999", "FEATURE": "State Capital   County Seat", "COUNTY": "Richmond City", "STATE": "VA", "OBJECTID": 3, "CITIESX020": 18565, "INURBAN": 1, "FIPS": "51760", "FIPS55": "67000", "DISPLAY": 0, "NAME": "Richmond"}},
{"geometry": {"type": "Point", "coordinates": [-79.1422501, 37.4137497]}, "type": "Feature", "properties": {"STATE_FIPS": "51", "POP_2000": 65269, "POP_RANGE": "50,000 - 99,999", "FEATURE": "Populated Place", "COUNTY": "Lynchburg City", "STATE": "VA", "OBJECTID": 4, "CITIESX020": 19570, "INURBAN": 1, "FIPS": "51680", "FIPS55": "47672", "DISPLAY": 0, "NAME": "Lynchburg"}},
{"geometry": {"type": "Point", "coordinates": [-80.4139404, 37.2295685]}, "type": "Feature", "properties": {"STATE_FIPS": "51", "POP_2000": 39573, "POP_RANGE": "10,000 - 49,999", "FEATURE": "Populated Place", "COUNTY": "Montgomery County", "STATE": "VA", "OBJECTID": 5, "CITIESX020": 20682, "INURBAN": 1, "FIPS": "51121", "FIPS55": "07784", "DISPLAY": 0, "NAME": "Blacksburg"}},
{"geometry": {"type": "Point", "coordinates": [-79.3950272, 36.585968]}, "type": "Feature", "properties": {"STATE_FIPS": "51", "POP_2000": 48411, "POP_RANGE": "10,000 - 49,999", "FEATURE": "Populated Place", "COUNTY": "Danville City", "STATE": "VA", "OBJECTID": 6, "CITIESX020": 21560, "INURBAN": 1, "FIPS": "51590", "FIPS55": "21344", "DISPLAY": 0, "NAME": "Danville"}}
]}