{"type":"FeatureCollection","features":[
{"geometry": {"type": "Point", "coordinates": [-77.9819378, 39.1518839]}, "type": "Feature", "properties": {"STATE_FIPS": "51", "POP_2000": 2963, "POP_RANGE": "0 - 9,999", "FEATURE": "County Seat", "COUNTY": "Clarke County", "STATE": "VA", "OBJECTID": 1, "CITIESX020": 15084, "INURBAN": 1, "FIPS": "51043", "FIPS55": "06968", "DISPLAY": 0, "NAME": "Berryville"}},
{"geometry": {"type": "Point", "coordinates": [-78.1630633, 39.1857732]}, "type": "Feature", "properties": {"STATE_FIPS": "51", "POP_2000": 23585, "POP_RANGE": "10,000 - 49,999", "FEATURE": "County Seat", "COUNTY": "Winchester City", "STATE": "VA", "OBJECTID": 2, "CITIESX020": 15098, "INURBAN": 1, "FIPS": "51840", "FIPS55": "86720", "DISPLAY": 0, "NAME": "Winchester"}},
{"geometry": {"type": "Point", "coordinates": [-78.3583418, 38.9888365]}, "type": "Feature", "properties": {"STATE_FIPS": "51", "POP_2000": 4017, "POP_RANGE": "0 - 9,999", "FEATURE": "Populated Place", "COUNTY": "Shenandoah County", "STATE": "VA", "OBJECTID": 3, "CITIESX020": 15725, "INURBAN": 1, "FIPS": "51171", "FIPS55": "76000", "DISPLAY": 0, "NAME": "Strasburg"}},
{"geometry": {"type": "Point", "coordinates": [-78.1941678, 38.9182902]}, "type": "Feature", "properties": {"STATE_FIPS": "51", "POP_2000": 13589, "POP_RANGE": "10,000 - 49,999", "FEATURE": "County Seat", "COUNTY": "Warren County", "STATE": "VA", "OBJECTID": 4, "CITIESX020": 15806, "INURBAN": 0, "FIPS": "51187", "FIPS55": "29968", "DISPLAY": 0, "NAME": "Front Royal"}},
{"geometry": {"type": "Point", "coordinates": [-78.4591825, 38.6655245]}, "type": "Feature", "properties": {"STATE_FIPS": "51", "POP_2000": 4871, "POP_RANGE": "0 - 9,999", "FEATURE": "County Seat", "COUNTY": "Page County", "STATE": "VA", "OBJECTID": 5, "CITIESX020": 16515, "INURBAN": 1, "FIPS": "51139", "FIPS55": "47528", "DISPLAY": 0, "NAME": "Luray"}},
{"geometry": {"type": "Point", "coordinates": [-78.8686711, 38.4496979]}, "type": "Feature", "properties": {"STATE_FIPS": "51", "POP_2000": 40468, "POP_RANGE": "10,000 - 49,999", "FEATURE": "County Seat", "COUNTY": "Harrisonburg City", "STATE": "VA", "OBJECTID": 6, "CITIESX020": 17173, "INURBAN": 1, "FIPS": "51660", "FIPS55": "35624", "DISPLAY": 0, "NAME": "Harrisonburg"}},
{"geometry": {"type": "Point", "coordinates": [-79.0714401, 38.1497135]}, "type": "Feature", "properties": {"STATE_FIPS": "51", "POP_2000": 23853, "POP_RANGE": "10,000 - 49,999", "FEATURE": "County Seat", "COUNTY": "Staunton City", "STATE": "VA", "OBJECTID": 7, "CITIESX020": 17975, "INURBAN": 1, "FIPS": "51790", "FIPS55": "75216", "DISPLAY": 0, "NAME": "Staunton"}},
{"geometry": {"type": "Point", "coordinates": [-78.8892141, 38.0686097]}, "type": "Feature", "properties": {"STATE_FIPS": "51", "POP_2000": 19520, "POP_RANGE": "10,000 - 49,999", "FEATURE": "Populated Place", "COUNTY": "Waynesboro City", "STATE": "VA", "OBJECTID": 8, "CITIESX020": 18094, "INURBAN": 1, "FIPS": "51820", "FIPS55": "83680", "DISPLAY": 0, "NAME": "Waynesboro"}},
{"geometry": {"type": "Point", "coordinates": [-79.4425884, 37.7841626]}, "type": "Feature", "properties": {"STATE_FIPS": "51", "POP_2000": 6867, "POP_RANGE": "0 - 9,999", "FEATURE": "County Seat", "COUNTY": "Lexington City", "STATE": "VA", "OBJECTID": 9, "CITIESX020": 18965, "INURBAN": 1, "FIPS": "51678", "FIPS55": "45512", "DISPLAY": 0, "NAME": "Lexington"}},
{"geometry": {"type": "Point", "coordinates": [-79.3536876, 37.7344437]}, "type": "Feature", "properties": {"STATE_FIPS": "51", "POP_2000": 6349, "POP_RANGE": "0 - 9,999", "FEATURE": "Populated Place", "COUNTY": "Buena Vista City", "STATE": "VA", "OBJECTID": 10, "CITIESX020": 19031, "INURBAN": 1, "FIPS": "51530", "FIPS55": "11032", "DISPLAY": 0, "NAME": "Buena Vista"}},
{"geometry": {"type": "Point", "coordinates": [-79.8770337, 37.4994412]}, "type": "Feature", "properties": {"STATE_FIPS": "51", "POP_2000": 359, "POP_RANGE": "0 - 9,999", "FEATURE": "County Seat", "COUNTY": "Botetourt County", "STATE": "VA", "OBJECTID": 11, "CITIESX020": 19684, "INURBAN": 0, "FIPS": "51023", "FIPS55": "27824", "DISPLAY": 0, "NAME": "Fincastle"}}
]}