{"type":"FeatureCollection","features":[
{"geometry": {"type": "Point", "coordinates": [-82.7548051, 36.8773903]}, "type": "Feature", "properties": {"City": "Big Stone Gap", "Zip": "24219", "NAICS": "622210", "Source": "Virginia Department of Health, Health Informatics and Integrated Surveillance Systems", "Type_": "General Acute Care Hospital", "Trauma": "0", "Alt_Name": null, "Method": "Imagery", "Website": "http://www.wellmont.org/hospitals/lonesome-pine-hospital.aspx", "Phone": "2765233110", "Address": "1990 Holton Avenue East", "Lat": 36.87739, "POC": null, "Date_Creat": 1351555200000, "Long_": -82.754805, "Name": "Wellmont Lonesome Pine Hospital", "OBJECTID": 4392, "Ttl_Staff": 0, "Beds": 60, "FIPS": "51195", "Helipad": null, "State_ID": "Wellmont Lonesome Pine Hospital", "ID": "0006624219", "NAICS_Des": "General Medical And Surgical Hospitals", "State": "VA", "County": "Wise", "Owner": null, "Date_Geol": 1362614400000, "ST_FIPS": "51"}},
{"geometry": {"type": "Point", "coordinates": [-81.9712498, 36.7141763]}, "type": "Feature", "properties": {"City": "Abington", "Zip": "24210", "NAICS": "622210", "Source": "Virginia Department of Health, Health Informatics and Integrated Surveillance Systems", "Type_": "General Acute Care Hospital", "Trauma": "0", "Alt_Name": null, "Method": "Imagery", "Website": "www.jmh.org", "Phone": "5406767000", "Address": "351 Court Street Ne", "Lat": 36.714176, "POC": null, "Date_Creat": 1351555200000, "Long_": -81.971249, "Name": "Johnston Memorial Hospital", "OBJECTID": 4393, "Ttl_Staff": 0, "Beds": 135, "FIPS": "51191", "Helipad": null, "State_ID": "Johnston Memorial Hospital", "ID": "0006724210", "NAICS_Des": "General Medical And Surgical Hospitals", "State": "VA", "County": "Washington", "Owner": null, "Date_Geol": 1362614400000, "ST_FIPS": "51"}},
{"geometry": {"type": "Point", "coordinates": [-82.0787844, 36.8987135]}, "type": "Feature", "properties": {"City": "Lebanon", "Zip": "24266", "NAICS": "622210", "Source": "Virginia Department of Health, Health Informatics and Integrated Surveillance Systems", "Type_": "General Acute Care Hospital", "Trauma": "0", "Alt_Name": null, "Method": "Imagery", "Website": "http://www.msha.com/Facility.cfm?id=967", "Phone": "2768838000", "Address": "58 Carroll Street", "Lat": 36.898713, "POC": null, "Date_Creat": 1351555200000, "Long_": -82.078784, "Name": "Russell County Medical Center", "OBJECTID": 4469, "Ttl_Staff": 0, "Beds": 78, "FIPS": "51167", "Helipad": null, "State_ID": "Russell County Medical Center", "ID": "0006224266", "NAICS_Des": "General Medical And Surgical Hospitals", "State": "VA", "County": "Russell", "Owner": null, "Date_Geol": 1362614400000, "ST_FIPS": "51"}},
{"geometry": {"type": "Point", "coordinates": [-81.8202818, 37.0947173]}, "type": "Feature", "properties": {"City": "Richlands", "Zip": "24641", "NAICS": "622210", "Source": "Virginia Department of Health, Health Informatics and Integrated Surveillance Systems", "Type_": "General Acute Care Hospital", "Trauma": "0", "Alt_Name": null, "Method": "Imagery", "Website": "www.clinchvalleymedicalcenter.com", "Phone": "2765966000", "Address": "2949 West Front Street", "Lat": 37.094717, "POC": null, "Date_Creat": 1351555200000, "Long_": -81.820281, "Name": "Clinch Valley Medical Center", "OBJECTID": 4470, "Ttl_Staff": 0, "Beds": 175, "FIPS": "51185", "Helipad": null, "State_ID": "Clinch Valley Medical Center", "ID": "0005924641", "NAICS_Des": "General Medical And Surgical Hospitals", "State": "VA", "County": "Tazewell", "Owner": null, "Date_Geol": 1362614400000, "ST_FIPS": "51"}},
{"geometry": {"type": "Point", "coordinates": [-83.050776, 36.7487388]}, "type": "Feature", "properties": {"City": "Pennington Gap", "Zip": "24277", "NAICS": "622210", "Source": "Virginia Department of Health, Health Informatics and Integrated Surveillance Systems", "Type_": "General Acute Care Hospital", "Trauma": "0", "Alt_Name": null, "Method": "Imagery", "Website": "http://www.wellmont.org/Hospitals/Lee-Regional-Medical-Center.aspx", "Phone": "2765461440", "Address": "1800 Combs Road", "Lat": 36.748738, "POC": null, "Date_Creat": 1351555200000, "Long_": -83.050776, "Name": "Lee Regional Medical Center", "OBJECTID": 4548, "Ttl_Staff": 0, "Beds": 70, "FIPS": "51105", "Helipad": null, "State_ID": "Lee Regional Medical Center", "ID": "0006324277", "NAICS_Des": "General Medical And Surgical Hospitals", "State": "VA", "County": "Lee", "Owner": null, "Date_Geol": 1362614400000, "ST_FIPS": "51"}},
{"geometry": {"type": "Point", "coordinates": [-82.0656034, 37.2854146]}, "type": "Feature", "properties": {"City": "Grundy", "Zip": "24614", "NAICS": "622210", "Source": "Virginia Department of Health, Health Informatics and Integrated Surveillance Systems", "Type_": "General Acute Care Hospital", "Trauma": "0", "Alt_Name": null, "Method": "Imagery", "Website": "http://www.bgh.org/", "Phone": "2769351100", "Address": "1535 Slate Creek Road", "Lat": 37.285414, "POC": null, "Date_Creat": 1351555200000, "Long_": -82.065603, "Name": "Buchanan General Hospital", "OBJECTID": 4549, "Ttl_Staff": 0, "Beds": 134, "FIPS": "51027", "Helipad": null, "State_ID": "Buchanan General Hospital", "ID": "0005724614", "NAICS_Des": "General Medical And Surgical Hospitals", "State": "VA", "County": "Buchanan", "Owner": null, "Date_Geol": 1362614400000, "ST_FIPS": "51"}},
{"geometry": {"type": "Point", "coordinates": [-82.6254286, 36.9445314]}, "type": "Feature", "properties": {"City": "Norton", "Zip": "24273", "NAICS": "622210", "Source": "Virginia Department of Health, Health Informatics and Integrated Surveillance Systems", "Type_": "General Acute Care Hospital", "Trauma": "0", "Alt_Name": null, "Method": "Imagery", "Website": "http://www.mountainviewregional.org/getpage.php?name=community", "Phone": "2766799100", "Address": "310 3Rd Street, Ne", "Lat": 36.944531, "POC": null, "Date_Creat": 1351555200000, "Long_": -82.625428, "Name": "Mountain View Regional Medical Center", "OBJECTID": 4620, "Ttl_Staff": 0, "Beds": 133, "FIPS": "51720", "Helipad": null, "State_ID": "Mountain View Regional Medical Center", "ID": "0006424273", "NAICS_Des": "General Medical And Surgical Hospitals", "State": "VA", "County": "Norton", "Owner": null, "Date_Geol": 1362614400000, "ST_FIPS": "51"}},
{"geometry": {"type": "Point", "coordinates": [-82.6419751, 36.9329568]}, "type": "Feature", "properties": {"City": "Norton", "Zip": "24273", "NAICS": "622210", "Source": "Virginia Department of Health, Health Informatics and Integrated Surveillance Systems", "Type_": "General Acute Care Hospital", "Trauma": "0", "Alt_Name": null, "Method": "Imagery", "Website": "http://www.nchosp.org/", "Phone": "2766799600", "Address": "100 15Th Street Northwest", "Lat": 36.932956, "POC": null, "Date_Creat": 1351555200000, "Long_": -82.641975, "Name": "Norton Community Hospital", "OBJECTID": 4621, "Ttl_Staff": 0, "Beds": 129, "FIPS": "51720", "Helipad": null, "State_ID": "Norton Community Hospital", "ID": "0006524273", "NAICS_Des": "General Medical And Surgical Hospitals", "State": "VA", "County": "Norton", "Owner": null, "Date_Geol": 1362614400000, "ST_FIPS": "51"}},
{"geometry": {"type": "Point", "coordinates": [-82.4490483, 37.1606785]}, "type": "Feature", "properties": {"City": "Clintwood", "Zip": "24228", "NAICS": "622210", "Source": "Virginia Department of Health, Health Informatics and Integrated Surveillance Systems", "Type_": "General Acute Care Hospital", "Trauma": "0", "Alt_Name": null, "Method": "Imagery", "Website": "http://www.msha.com/dch.cfm?id=1507", "Phone": "2769260300", "Address": "312 Hospital Drive", "Lat": 37.160678, "POC": null, "Date_Creat": 1351555200000, "Long_": -82.449048, "Name": "Dickenson Community Hospital", "OBJECTID": 4622, "Ttl_Staff": 0, "Beds": 25, "FIPS": "51051", "Helipad": null, "State_ID": "Dickenson Community Hospital", "ID": "0006024228", "NAICS_Des": "General Medical And Surgical Hospitals", "State": "VA", "County": "Dickenson", "Owner": null, "Date_Geol": 1362614400000, "ST_FIPS": "51"}},
{"geometry": {"type": "Point", "coordinates": [-76.937587, 36.6920308]}, "type": "Feature", "properties": {"City": "Franklin", "Zip": "23851", "NAICS": "622210", "Source": "Virginia Department of Health, Health Informatics and Integrated Surveillance Systems", "Type_": "General Acute Care Hospital", "Trauma": "0", "Alt_Name": null, "Method": "Imagery", "Website": "http://www.smhfranklin.com/pages/home.aspx", "Phone": "7575696100", "Address": "100 Fairview Drive", "Lat": 36.69203, "POC": null, "Date_Creat": 1351555200000, "Long_": -76.937587, "Name": "Southampton Memorial Hospital", "OBJECTID": 5427, "Ttl_Staff": 0, "Beds": 90, "FIPS": "51620", "Helipad": null, "State_ID": "Southampton Memorial Hospital", "ID": "0015923851", "NAICS_Des": "General Medical And Surgical Hospitals", "State": "VA", "County": "Franklin City", "Owner": null, "Date_Geol": 1362614400000, "ST_FIPS": "51"}},
{"geometry": {"type": "Point", "coordinates": [-77.3154727, 38.8496534]}, "type": "Feature", "properties": {"City": "Fairfax", "Zip": "22030", "NAICS": "622210", "Source": "Virginia Department of Health, Health Informatics and Integrated Surveillance Systems", "Type_": "General Acute Care Hospital", "Trauma": "0", "Alt_Name": null, "Method": "Imagery with Other", "Website": "http://www.fairfaxsurgicalcenter.com/", "Phone": "7036910670", "Address": "10730 Main Street", "Lat": 38.849653, "POC": null, "Date_Creat": 1351555200000, "Long_": -77.315472, "Name": "Fairfax Surgical Center", "OBJECTID": 5428, "Ttl_Staff": 0, "Beds": 0, "FIPS": "51600", "Helipad": null, "State_ID": "Fairfax Surgical Center", "ID": "0002822030", "NAICS_Des": "General Medical And Surgical Hospitals", "State": "VA", "County": "Fairfax City", "Owner": null, "Date_Geol": 1362614400000, "ST_FIPS": "51"}},
{"geometry": {"type": "Point", "coordinates": [-77.3640602, 37.1846693]}, "type": "Feature", "properties": {"City": "Petersburg", "Zip": "23805", "NAICS": "622310", "Source": "Virginia Department of Health, Health Informatics and Integrated Surveillance Systems", "Type_": "Rehabilitation Hospital", "Trauma": "0", "Alt_Name": null, "Method": "Geocode", "Website": "http://www.healthsouthpetersburg.com/", "Phone": "8045048100", "Address": "95 Pine Hill Boulevard", "Lat": 37.184669, "POC": null, "Date_Creat": 1351555200000, "Long_": -77.36406, "Name": "Healthsouth Rehabilitation Hospital Of Petersburg", "OBJECTID": 5429, "Ttl_Staff": 0, "Beds": 40, "FIPS": "51730", "Helipad": null, "State_ID": "Healthsouth Rehabilitation Hospital of Petersburg", "ID": "0009423805", "NAICS_Des": "Rehabilitation Hospitals (Except Alcoholism, Drug Addiction)", "State": "VA", "County": "Petersburg", "Owner": null, "Date_Geol": 1362614400000, "ST_FIPS": "51"}},
{"geometry": {"type": "Point", "coordinates": [-77.3592539, 37.182493]}, "type": "Feature", "properties": {"City": "Petersburg", "Zip": "23805", "NAICS": "622210", "Source": "Virginia Department of Health, Health Informatics and Integrated Surveillance Systems", "Type_": "General Acute Care Hospital", "Trauma": "III", "Alt_Name": null, "Method": "Imagery", "Website": "www.srmconline.com", "Phone": "8047655000", "Address": "200 Medical Park Boulevard", "Lat": 37.182493, "POC": null, "Date_Creat": 1351555200000, "Long_": -77.359253, "Name": "Southside Regional Medical Center", "OBJECTID": 5430, "Ttl_Staff": 0, "Beds": 388, "FIPS": "51730", "Helipad": null, "State_ID": "Southside Regional Medical Center", "ID": "0009723805", "NAICS_Des": "General Medical And Surgical Hospitals", "State": "VA", "County": "Petersburg", "Owner": null, "Date_Geol": 1362614400000, "ST_FIPS": "51"}},
{"geometry": {"type": "Point", "coordinates": [-75.8640726, 37.4754289]}, "type": "Feature", "properties": {"City": "Nassawadox", "Zip": "23413", "NAICS": "622210", "Source": "Virginia Department of Health, Health Informatics and Integrated Surveillance Systems", "Type_": "General Acute Care Hospital", "Trauma": "0", "Alt_Name": null, "Method": "Imagery", "Website": "www.shorehealthservices.org", "Phone": "7574148000", "Address": "9507 Hospital Avenue", "Lat": 37.475428, "POC": null, "Date_Creat": 1351555200000, "Long_": -75.864072, "Name": "Riverside Shore Memorial Hospital", "OBJECTID": 5431, "Ttl_Staff": 0, "Beds": 143, "FIPS": "51131", "Helipad": null, "State_ID": "Riverside Shore Memorial Hospital", "ID": "0012123413", "NAICS_Des": "General Medical And Surgical Hospitals", "State": "VA", "County": "Northampton", "Owner": null, "Date_Geol": 1362614400000, "ST_FIPS": "51"}},
{"geometry": {"type": "Point", "coordinates": [-78.4686561, 38.6622842]}, "type": "Feature", "properties": {"City": "Luray", "Zip": "22835", "NAICS": "622210", "Source": "Virginia Department of Health, Health Informatics and Integrated Surveillance Systems", "Type_": "General Acute Care Hospital", "Trauma": "0", "Alt_Name": null, "Method": "Imagery", "Website": "http://www.valleyhealthlink.com/page", "Phone": "5407434560", "Address": "200 Memorial Drive", "Lat": 38.662284, "POC": null, "Date_Creat": 1351555200000, "Long_": -78.468656, "Name": "Page Memorial Hospital", "OBJECTID": 5432, "Ttl_Staff": 0, "Beds": 25, "FIPS": "51139", "Helipad": null, "State_ID": "Page Memorial Hospital", "ID": "0000522835", "NAICS_Des": "General Medical And Surgical Hospitals", "State": "VA", "County": "Page", "Owner": null, "Date_Geol": 1362614400000, "ST_FIPS": "51"}},
{"geometry": {"type": "Point", "coordinates": [-76.2460395, 36.7455093]}, "type": "Feature", "properties": {"City": "Chesapeake", "Zip": "23327", "NAICS": "622210", "Source": "Virginia Department of Health, Health Informatics and Integrated Surveillance Systems", "Type_": "General Acute Care Hospital", "Trauma": "0", "Alt_Name": null, "Method": "Imagery", "Website": "http://www.chesapeakeregional.com", "Phone": "7573128120", "Address": "736 Battlefield Boulevard North", "Lat": 36.745509, "POC": null, "Date_Creat": 1351555200000, "Long_": -76.246039, "Name": "Chesapeake Regional Medical Center", "OBJECTID": 5433, "Ttl_Staff": 0, "Beds": 310, "FIPS": "51550", "Helipad": null, "State_ID": "Chesapeake Regional Medical Center", "ID": "0011923320", "NAICS_Des": "General Medical And Surgical Hospitals", "State": "VA", "County": "Chesapeake", "Owner": null, "Date_Geol": 1362614400000, "ST_FIPS": "51"}},
{"geometry": {"type": "Point", "coordinates": [-76.2472162, 36.7500102]}, "type": "Feature", "properties": {"City": "Chesapeake", "Zip": "23327", "NAICS": "622210", "Source": "Virginia Department of Health, Health Informatics and Integrated Surveillance Systems", "Type_": "General Acute Care Hospital", "Trauma": "0", "Alt_Name": null, "Method": "Imagery with Other", "Website": "http://www.chesapeakeregional.com/facilities/surgery-center-of-chesapeake", "Phone": "7573126800", "Address": "844 Battlefield Boulevard North", "Lat": 36.75001, "POC": null, "Date_Creat": 1351555200000, "Long_": -76.247216, "Name": "Surgery Center Of Chesapeake, L.L.C.", "OBJECTID": 5434, "Ttl_Staff": 0, "Beds": 0, "FIPS": "51550", "Helipad": null, "State_ID": "Surgery Center of Chesapeake, L.L.C.", "ID": "0012023320", "NAICS_Des": "General Medical And Surgical Hospitals", "State": "VA", "County": "Chesapeake", "Owner": null, "Date_Geol": 1362614400000, "ST_FIPS": "51"}},
{"geometry": {"type": "Point", "coordinates": [-77.6586395, 37.4666946]}, "type": "Feature", "properties": {"City": "Midlothian", "Zip": "23114", "NAICS": "622210", "Source": "Virginia Department of Health, Health Informatics and Integrated Surveillance Systems", "Type_": "General Acute Care Hospital", "Trauma": "0", "Alt_Name": null, "Method": "Imagery", "Website": "http://richmond.bonsecours.com/find-a-facility-st-francis-medical-center.html", "Phone": "8045947300", "Address": "13710 St. Francis Boulevard", "Lat": 37.466694, "POC": null, "Date_Creat": 1351555200000, "Long_": -77.658639, "Name": "Bon Secours St. Francis Medical Center", "OBJECTID": 5437, "Ttl_Staff": 0, "Beds": 130, "FIPS": "51041", "Helipad": null, "State_ID": "Bon Secours St. Francis Medical Center", "ID": "0008423114", "NAICS_Des": "General Medical And Surgical Hospitals", "State": "VA", "County": "Chesterfield", "Owner": null, "Date_Geol": 1362614400000, "ST_FIPS": "51"}},
{"geometry": {"type": "Point", "coordinates": [-77.5949411, 37.5106883]}, "type": "Feature", "properties": {"City": "Richmond", "Zip": "23235", "NAICS": "622210", "Source": "Virginia Department of Health, Health Informatics and Integrated Surveillance Systems", "Type_": "General Acute Care Hospital", "Trauma": "0", "Alt_Name": null, "Method": "Imagery", "Website": "www.cjwmedicalcenter.net", "Phone": "8043302000", "Address": "1401 Johnston-Willis Drive", "Lat": 37.510688, "POC": null, "Date_Creat": 1351555200000, "Long_": -77.594941, "Name": "Cjw Medical Center Johnston Willis Campus", "OBJECTID": 5438, "Ttl_Staff": 0, "Beds": 363, "FIPS": "51041", "Helipad": null, "State_ID": "CJW Medical Center Johnston Willis Campus", "ID": "0008523235", "NAICS_Des": "General Medical And Surgical Hospitals", "State": "VA", "County": "Chesterfield", "Owner": null, "Date_Geol": 1362614400000, "ST_FIPS": "51"}},
{"geometry": {"type": "Point", "coordinates": [-77.6589676, 37.4668082]}, "type": "Feature", "properties": {"City": "Midlothian", "Zip": "23114", "NAICS": "622310", "Source": "Virginia Department of Health, Health Informatics and Integrated Surveillance Systems", "Type_": "Rehabilitation Hospital", "Trauma": "0", "Alt_Name": null, "Method": "Imagery", "Website": "http://www.shelteringarms.com/", "Phone": "8047645290", "Address": "13700 St. Francis Boulevard", "Lat": 37.466808, "POC": null, "Date_Creat": 1351555200000, "Long_": -77.658967, "Name": "Sheltering Arms Hospital South", "OBJECTID": 5439, "Ttl_Staff": 0, "Beds": 28, "FIPS": "51041", "Helipad": null, "State_ID": "Sheltering Arms Hospital South", "ID": "0008623114", "NAICS_Des": "Rehabilitation Hospitals (Except Alcoholism, Drug Addiction)", "State": "VA", "County": "Chesterfield", "Owner": null, "Date_Geol": 1362614400000, "ST_FIPS": "51"}},
{"geometry": {"type": "Point", "coordinates": [-77.6591102, 37.4666799]}, "type": "Feature", "properties": {"City": "Midlothian", "Zip": "23114", "NAICS": "622210", "Source": "Virginia Department of Health, Health Informatics and Integrated Surveillance Systems", "Type_": "General Acute Care Hospital", "Trauma": "0", "Alt_Name": null, "Method": "Imagery", "Website": "http://www.sffm.net/", "Phone": "8045943000", "Address": "13700 St. Francis Boulevard", "Lat": 37.466679, "POC": null, "Date_Creat": 1351555200000, "Long_": -77.65911, "Name": "St. Francis Surgery Center- Midlothian", "OBJECTID": 5440, "Ttl_Staff": 0, "Beds": 0, "FIPS": "51041", "Helipad": null, "State_ID": "St. Francis Surgery Center- Midlothian", "ID": "0008723114", "NAICS_Des": "General Medical And Surgical Hospitals", "State": "VA", "County": "Chesterfield", "Owner": null, "Date_Geol": 1362614400000, "ST_FIPS": "51"}},
{"geometry": {"type": "Point", "coordinates": [-78.0127854, 38.4549813]}, "type": "Feature", "properties": {"City": "Culpeper", "Zip": "22701", "NAICS": "622210", "Source": "Virginia Department of Health, Health Informatics and Integrated Surveillance Systems", "Type_": "General Acute Care Hospital", "Trauma": "0", "Alt_Name": null, "Method": "Imagery", "Website": "www.culpeperhospital.com", "Phone": "5408294100", "Address": "501 Sunset Lane", "Lat": 38.454981, "POC": null, "Date_Creat": 1351555200000, "Long_": -78.012785, "Name": "Culpeper Regional Hospital", "OBJECTID": 5441, "Ttl_Staff": 0, "Beds": 70, "FIPS": "51047", "Helipad": null, "State_ID": "Culpeper Regional Hospital", "ID": "0001622701", "NAICS_Des": "General Medical And Surgical Hospitals", "State": "VA", "County": "Culpeper", "Owner": null, "Date_Geol": 1362614400000, "ST_FIPS": "51"}},
{"geometry": {"type": "Point", "coordinates": [-78.0123777, 38.45565]}, "type": "Feature", "properties": {"City": "Culpeper", "Zip": "22701", "NAICS": "622210", "Source": "Virginia Department of Health, Health Informatics and Integrated Surveillance Systems", "Type_": "General Acute Care Hospital", "Trauma": "0", "Alt_Name": null, "Method": "Imagery", "Website": "http://www.culpepersurgerycenter.com/", "Phone": "5408290700", "Address": "541 Sunset Lane", "Lat": 38.45565, "POC": null, "Date_Creat": 1351555200000, "Long_": -78.012377, "Name": "Culpeper Surgery Center", "OBJECTID": 5442, "Ttl_Staff": 0, "Beds": 0, "FIPS": "51047", "Helipad": null, "State_ID": "Culpeper Surgery Center", "ID": "0001722701", "NAICS_Des": "General Medical And Surgical Hospitals", "State": "VA", "County": "Culpeper", "Owner": null, "Date_Geol": 1362614400000, "ST_FIPS": "51"}},
{"geometry": {"type": "Point", "coordinates": [-76.7405978, 37.2555128]}, "type": "Feature", "properties": {"City": "Williamsburg", "Zip": "23185", "NAICS": "622210", "Source": "Virginia Department of Health, Health Informatics and Integrated Surveillance Systems", "Type_": "General Acute Care Hospital", "Trauma": "0", "Alt_Name": null, "Method": "Imagery", "Website": "http://www.riversideonline.com/facilities/outpatient-centers.cfm", "Phone": "7576453130", "Address": "120 Kings Way", "Lat": 37.255512, "POC": null, "Date_Creat": 1351555200000, "Long_": -76.740597, "Name": "Doctors Surgery Center- Williamsburg, L.L.C.", "OBJECTID": 5443, "Ttl_Staff": 0, "Beds": 0, "FIPS": "51095", "Helipad": null, "State_ID": "Doctors Surgery Center- Williamsburg, L.L.C.", "ID": "0013623185", "NAICS_Des": "General Medical And Surgical Hospitals", "State": "VA", "County": "James City", "Owner": null, "Date_Geol": 1362614400000, "ST_FIPS": "51"}},
{"geometry": {"type": "Point", "coordinates": [-80.2548917, 36.6462296]}, "type": "Feature", "properties": {"City": "Stuart", "Zip": "24171", "NAICS": "622210", "Source": "Virginia Department of Health, Health Informatics and Integrated Surveillance Systems", "Type_": "Critical Access", "Trauma": "0", "Alt_Name": null, "Method": "Geocode", "Website": ".", "Phone": "2766948680", "Address": "18688 Jeb Stuart Highway", "Lat": 36.646229, "POC": null, "Date_Creat": 1351555200000, "Long_": -80.254891, "Name": "Pioneer Community Hospital", "OBJECTID": 5444, "Ttl_Staff": 0, "Beds": 50, "FIPS": "51141", "Helipad": null, "State_ID": "Pioneer Community Hospital", "ID": "0008324171", "NAICS_Des": "General Medical And Surgical Hospitals", "State": "VA", "County": "Patrick", "Owner": null, "Date_Geol": 1362614400000, "ST_FIPS": "51"}},
{"geometry": {"type": "Point", "coordinates": [-78.4043159, 37.3026795]}, "type": "Feature", "properties": {"City": "Farmville", "Zip": "23901", "NAICS": "622210", "Source": "Virginia Department of Health, Health Informatics and Integrated Surveillance Systems", "Type_": "General Acute Care Hospital", "Trauma": "0", "Alt_Name": null, "Method": "Imagery", "Website": "http://centrasouthside.com/", "Phone": "4343928810", "Address": "800 Oak Street", "Lat": 37.302679, "POC": null, "Date_Creat": 1351555200000, "Long_": -78.404315, "Name": "Centra Southside Community Hospital", "OBJECTID": 5445, "Ttl_Staff": 0, "Beds": 40, "FIPS": "51147", "Helipad": null, "State_ID": "Centra Southside Community Hospital", "ID": "0010723901", "NAICS_Des": "General Medical And Surgical Hospitals", "State": "VA", "County": "Prince Edward", "Owner": null, "Date_Geol": 1362614400000, "ST_FIPS": "51"}},
{"geometry": {"type": "Point", "coordinates": [-79.2442888, 37.3772368]}, "type": "Feature", "properties": {"City": "Forest", "Zip": "24551", "NAICS": "622210", "Source": "Virginia Department of Health, Health Informatics and Integrated Surveillance Systems", "Type_": "General Acute Care Hospital", "Trauma": "0", "Alt_Name": null, "Method": "Imagery with Other", "Website": ".", "Phone": "4343855150", "Address": "1834 Graves Mill Road", "Lat": 37.377236, "POC": null, "Date_Creat": 1351555200000, "Long_": -79.244288, "Name": "Surgery Center Of Central Virginia", "OBJECTID": 5446, "Ttl_Staff": 0, "Beds": 0, "FIPS": "51019", "Helipad": null, "State_ID": "Surgery Center of Central Virginia", "ID": "0005424551", "NAICS_Des": "General Medical And Surgical Hospitals", "State": "VA", "County": "Bedford", "Owner": null, "Date_Geol": 1362614400000, "ST_FIPS": "51"}},
{"geometry": {"type": "Point", "coordinates": [-79.8811836, 37.7918335]}, "type": "Feature", "properties": {"City": "Low Moor", "Zip": "24457", "NAICS": "622210", "Source": "Virginia Department of Health, Health Informatics and Integrated Surveillance Systems", "Type_": "General Acute Care Hospital", "Trauma": "0", "Alt_Name": null, "Method": "Imagery", "Website": "www.alleghanyregional.com", "Phone": "5408626010", "Address": "1 Arh Lane", "Lat": 37.791833, "POC": null, "Date_Creat": 1351555200000, "Long_": -79.881183, "Name": "Alleghany Regional Hospital", "OBJECTID": 5447, "Ttl_Staff": 0, "Beds": 190, "FIPS": "51005", "Helipad": null, "State_ID": "Alleghany Regional Hospital", "ID": "0004424457", "NAICS_Des": "General Medical And Surgical Hospitals", "State": "VA", "County": "Alleghany", "Owner": null, "Date_Geol": 1362614400000, "ST_FIPS": "51"}},
{"geometry": {"type": "Point", "coordinates": [-78.4986871, 38.0313398]}, "type": "Feature", "properties": {"City": "Charlottesville", "Zip": "22906", "NAICS": "622210", "Source": "Virginia Department of Health, Health Informatics and Integrated Surveillance Systems", "Type_": "General Acute Care Hospital", "Trauma": "I", "Alt_Name": null, "Method": "Imagery", "Website": "www.med.virginia.edu", "Phone": "4349240210", "Address": "1215 Lee Street", "Lat": 38.031339, "POC": null, "Date_Creat": 1351555200000, "Long_": -78.498687, "Name": "University Of Virginia Medical Center", "OBJECTID": 5448, "Ttl_Staff": 0, "Beds": 614, "FIPS": "51540", "Helipad": null, "State_ID": "University of Virginia Medical Center", "ID": "0002222908", "NAICS_Des": "General Medical And Surgical Hospitals", "State": "VA", "County": "Charlottesville", "Owner": null, "Date_Geol": 1362614400000, "ST_FIPS": "51"}},
{"geometry": {"type": "Point", "coordinates": [-78.4443896, 38.0225812]}, "type": "Feature", "properties": {"City": "Charlottesville", "Zip": "22911", "NAICS": "622210", "Source": "Virginia Department of Health, Health Informatics and Integrated Surveillance Systems", "Type_": "General Acute Care Hospital", "Trauma": "0", "Alt_Name": null, "Method": "Imagery with Other", "Website": "www.marthajefferson.org", "Phone": "4349827000", "Address": "500 Martha Jefferson Dr.", "Lat": 38.022581, "POC": null, "Date_Creat": 1351555200000, "Long_": -78.444389, "Name": "Martha Jefferson Hospital", "OBJECTID": 5449, "Ttl_Staff": 0, "Beds": 176, "FIPS": "51003", "Helipad": null, "State_ID": "Martha Jefferson Hospital", "ID": "0001922911", "NAICS_Des": "General Medical And Surgical Hospitals", "State": "VA", "County": "Albemarle", "Owner": null, "Date_Geol": 1362614400000, "ST_FIPS": "51"}},
{"geometry": {"type": "Point", "coordinates": [-78.4400309, 38.0226352]}, "type": "Feature", "properties": {"City": "Charlottesville", "Zip": "22911", "NAICS": "622210", "Source": "Virginia Department of Health, Health Informatics and Integrated Surveillance Systems", "Type_": "General Acute Care Hospital", "Trauma": "0", "Alt_Name": null, "Method": "Imagery with Other", "Website": "http://www.marthajefferson.org/locOCC.php", "Phone": "4342935000", "Address": "595 Peter Jefferson Parkway", "Lat": 38.022635, "POC": null, "Date_Creat": 1351555200000, "Long_": -78.44003, "Name": "Martha Jefferson Outpatient Surgery Center, L.L.C.", "OBJECTID": 5450, "Ttl_Staff": 0, "Beds": 0, "FIPS": "51003", "Helipad": null, "State_ID": "Martha Jefferson Outpatient Surgery Center, L.L.C.", "ID": "0002022911", "NAICS_Des": "General Medical And Surgical Hospitals", "State": "VA", "County": "Albemarle", "Owner": null, "Date_Geol": 1362614400000, "ST_FIPS": "51"}},
{"geometry": {"type": "Point", "coordinates": [-78.4432095, 38.0285368]}, "type": "Feature", "properties": {"City": "Charlottesville", "Zip": "22911", "NAICS": "622210", "Source": "Virginia Department of Health, Health Informatics and Integrated Surveillance Systems", "Type_": "General Acute Care Hospital", "Trauma": "0", "Alt_Name": null, "Method": "Imagery with Other", "Website": "http://www.charlottesvillesurgicalcenter.com/", "Phone": "4349747200", "Address": "2050 Abbey Road", "Lat": 38.028536, "POC": null, "Date_Creat": 1351555200000, "Long_": -78.443209, "Name": "Osteopathic Surgical Centers", "OBJECTID": 5451, "Ttl_Staff": 0, "Beds": 0, "FIPS": "51003", "Helipad": null, "State_ID": "Osteopathic Surgical Centers", "ID": "0002122911", "NAICS_Des": "General Medical And Surgical Hospitals", "State": "VA", "County": "Albemarle", "Owner": null, "Date_Geol": 1362614400000, "ST_FIPS": "51"}},
{"geometry": {"type": "Point", "coordinates": [-78.5250748, 38.0249237]}, "type": "Feature", "properties": {"City": "Charlottesville", "Zip": "22903", "NAICS": "622310", "Source": "Virginia Department of Health, Health Informatics and Integrated Surveillance Systems", "Type_": "Rehabilitation Hospital", "Trauma": "0", "Alt_Name": null, "Method": "Imagery", "Website": "http://www.healthsystem.virginia.edu/internet/healthsouthrehab/", "Phone": "4342442000", "Address": "515 Ray C. Hunt Drive", "Lat": 38.024923, "POC": null, "Date_Creat": 1351555200000, "Long_": -78.525074, "Name": "Uva Healthsouth Rehabilitation Hospital", "OBJECTID": 5452, "Ttl_Staff": 0, "Beds": 50, "FIPS": "51003", "Helipad": null, "State_ID": "UVA HealthSouth Rehabilitation Hospital", "ID": "0002322903", "NAICS_Des": "Rehabilitation Hospitals (Except Alcoholism, Drug Addiction)", "State": "VA", "County": "Albemarle", "Owner": null, "Date_Geol": 1362614400000, "ST_FIPS": "51"}},
{"geometry": {"type": "Point", "coordinates": [-78.5206042, 38.0452665]}, "type": "Feature", "properties": {"City": "Charlottesville", "Zip": "22901", "NAICS": "622210", "Source": "Virginia Department of Health, Health Informatics and Integrated Surveillance Systems", "Type_": "Children", "Trauma": "0", "Alt_Name": null, "Method": "Imagery with Other", "Website": "http://www.healthsystem.virginia.edu/internet/pediatrics/kcrc/", "Phone": "8002514900", "Address": "2270 Ivy Road", "Lat": 38.045266, "POC": null, "Date_Creat": 1351555200000, "Long_": -78.520604, "Name": "Uva Kluge Childrens Rehabilitation Center", "OBJECTID": 5453, "Ttl_Staff": 0, "Beds": 19, "FIPS": "51003", "Helipad": null, "State_ID": "UVA Kluge Childrens Rehabilitation Center", "ID": "0002422903", "NAICS_Des": "Children'S Hospitals, General", "State": "VA", "County": "Albemarle", "Owner": null, "Date_Geol": 1362614400000, "ST_FIPS": "51"}},
{"geometry": {"type": "Point", "coordinates": [-79.8671805, 36.6992436]}, "type": "Feature", "properties": {"City": "Martinsville", "Zip": "24115", "NAICS": "622210", "Source": "Virginia Department of Health, Health Informatics and Integrated Surveillance Systems", "Type_": "General Acute Care Hospital", "Trauma": "0", "Alt_Name": null, "Method": "Imagery", "Website": "http://www.aasdfw.com/", "Phone": "2766667200", "Address": "320 Hospital Drive", "Lat": 36.699243, "POC": null, "Date_Creat": 1351555200000, "Long_": -79.86718, "Name": "Memorial Hospital Of Martinsville And Henry County", "OBJECTID": 5454, "Ttl_Staff": 0, "Beds": 223, "FIPS": "51690", "Helipad": null, "State_ID": "Memorial Hospital of Martinsville and Henry County", "ID": "0008224112", "NAICS_Des": "General Medical And Surgical Hospitals", "State": "VA", "County": "Martinsville", "Owner": null, "Date_Geol": 1362614400000, "ST_FIPS": "51"}},
{"geometry": {"type": "Point", "coordinates": [-79.9394629, 37.2661846]}, "type": "Feature", "properties": {"City": "Roanoke", "Zip": "24013", "NAICS": "622210", "Source": "Virginia Department of Health, Health Informatics and Integrated Surveillance Systems", "Type_": "General Acute Care Hospital", "Trauma": "0", "Alt_Name": null, "Method": "Imagery", "Website": "http://www.carilionclinic.org/Carilion/Carilion+Roanoke+Community+Hospital", "Phone": "5409817750", "Address": "101 Elm Avenue Se", "Lat": 37.266184, "POC": null, "Date_Creat": 1351555200000, "Long_": -79.939462, "Name": "Carilion Roanoke Community Hospital", "OBJECTID": 5455, "Ttl_Staff": 0, "Beds": 197, "FIPS": "51770", "Helipad": null, "State_ID": "Carilion Roanoke Community Hospital", "ID": "0007824013", "NAICS_Des": "General Medical And Surgical Hospitals", "State": "VA", "County": "Roanoke City", "Owner": null, "Date_Geol": 1362614400000, "ST_FIPS": "51"}},
{"geometry": {"type": "Point", "coordinates": [-79.9425438, 37.2511982]}, "type": "Feature", "properties": {"City": "Roanoke", "Zip": "24033", "NAICS": "622210", "Source": "Virginia Department of Health, Health Informatics and Integrated Surveillance Systems", "Type_": "General Acute Care Hospital", "Trauma": "I", "Alt_Name": null, "Method": "Imagery", "Website": "http://www.carilionclinic.org/Carilion/Carilion+Roanoke+Memorial+Hospital", "Phone": "5409817000", "Address": "1906 Bellview Ave", "Lat": 37.251198, "POC": null, "Date_Creat": 1351555200000, "Long_": -79.942543, "Name": "Carilion Roanoke Memorial Hospital", "OBJECTID": 5456, "Ttl_Staff": 0, "Beds": 731, "FIPS": "51770", "Helipad": null, "State_ID": "Carilion Roanoke Memorial Hospital", "ID": "0007924014", "NAICS_Des": "General Medical And Surgical Hospitals", "State": "VA", "County": "Roanoke City", "Owner": null, "Date_Geol": 1362614400000, "ST_FIPS": "51"}},
{"geometry": {"type": "Point", "coordinates": [-79.9411067, 37.2627167]}, "type": "Feature", "properties": {"City": "Roanoke", "Zip": "24016", "NAICS": "622210", "Source": "Virginia Department of Health, Health Informatics and Integrated Surveillance Systems", "Type_": "General Acute Care Hospital", "Trauma": "0", "Alt_Name": null, "Method": "Imagery with Other", "Website": ".", "Phone": "5403420710", "Address": "1102 Jefferson Street Se", "Lat": 37.262716, "POC": null, "Date_Creat": 1351555200000, "Long_": -79.941106, "Name": "Roanoke Ambulatory Surgery Center", "OBJECTID": 5457, "Ttl_Staff": 0, "Beds": 0, "FIPS": "51770", "Helipad": null, "State_ID": "Roanoke Ambulatory Surgery Center", "ID": "0008024016", "NAICS_Des": "General Medical And Surgical Hospitals", "State": "VA", "County": "Roanoke City", "Owner": null, "Date_Geol": 1362614400000, "ST_FIPS": "51"}},
{"geometry": {"type": "Point", "coordinates": [-77.4072077, 38.415257]}, "type": "Feature", "properties": {"City": "Stafford", "Zip": "22554", "NAICS": "622210", "Source": "Virginia Department of Health, Health Informatics and Integrated Surveillance Systems", "Type_": "General Acute Care Hospital", "Trauma": "0", "Alt_Name": null, "Method": "Imagery", "Website": "http://www.marywashingtonhealthcare.com/locations/stafford-hospital", "Phone": "5407419050", "Address": "101 Hospital Center Boulevard", "Lat": 38.415256, "POC": null, "Date_Creat": 1351555200000, "Long_": -77.407207, "Name": "Stafford Hospital", "OBJECTID": 5472, "Ttl_Staff": 0, "Beds": 0, "FIPS": "51179", "Helipad": null, "State_ID": "Stafford Hospital", "ID": "0001422554", "NAICS_Des": "General Medical And Surgical Hospitals", "State": "VA", "County": "Stafford", "Owner": null, "Date_Geol": 1362614400000, "ST_FIPS": "51"}},
{"geometry": {"type": "Point", "coordinates": [-77.4517616, 38.3059966]}, "type": "Feature", "properties": {"City": "Fredericksburg", "Zip": "22405", "NAICS": "622210", "Source": "Virginia Department of Health, Health Informatics and Integrated Surveillance Systems", "Type_": "General Acute Care Hospital", "Trauma": "0", "Alt_Name": null, "Method": "Imagery with Other", "Website": "http://www.centralvirginia-sc.com/", "Phone": "5403715350", "Address": "12 Chatham Heights Road", "Lat": 38.305996, "POC": null, "Date_Creat": 1351555200000, "Long_": -77.451761, "Name": "Surgi-Center Of Central Virginia, Inc.", "OBJECTID": 5473, "Ttl_Staff": 0, "Beds": 0, "FIPS": "51179", "Helipad": null, "State_ID": "Surgi-Center of Central Virginia, Inc.", "ID": "0001522405", "NAICS_Des": "General Medical And Surgical Hospitals", "State": "VA", "County": "Stafford", "Owner": null, "Date_Geol": 1362614400000, "ST_FIPS": "51"}},
{"geometry": {"type": "Point", "coordinates": [-81.5082579, 36.8512078]}, "type": "Feature", "properties": {"City": "Marion", "Zip": "24354", "NAICS": "622210", "Source": "Virginia Department of Health, Health Informatics and Integrated Surveillance Systems", "Type_": "General Acute Care Hospital", "Trauma": "0", "Alt_Name": null, "Method": "Imagery", "Website": "http://www.scchosp.org/", "Phone": "2767821230", "Address": "565 Radio Hill Road", "Lat": 36.851207, "POC": null, "Date_Creat": 1351555200000, "Long_": -81.508257, "Name": "Smyth County Community Hospital", "OBJECTID": 5474, "Ttl_Staff": 0, "Beds": 154, "FIPS": "51173", "Helipad": null, "State_ID": "Smyth County Community Hospital", "ID": "0006824354", "NAICS_Des": "General Medical And Surgical Hospitals", "State": "VA", "County": "Smyth", "Owner": null, "Date_Geol": 1362614400000, "ST_FIPS": "51"}},
{"geometry": {"type": "Point", "coordinates": [-77.4959514, 38.2175161]}, "type": "Feature", "properties": {"City": "Fredericksburg", "Zip": "22408", "NAICS": "622210", "Source": "Virginia Department of Health, Health Informatics and Integrated Surveillance Systems", "Type_": "General Acute Care Hospital", "Trauma": "0", "Alt_Name": null, "Method": "Imagery", "Website": "http://www.spotsrmc.com/", "Phone": "5404984000", "Address": "4600 Spotsylvania Parkway", "Lat": 38.217516, "POC": null, "Date_Creat": 1351555200000, "Long_": -77.495951, "Name": "Spotsylvania Regional Medical Center", "OBJECTID": 5475, "Ttl_Staff": 0, "Beds": 0, "FIPS": "51177", "Helipad": null, "State_ID": "Spotsylvania Regional Medical Center", "ID": "0001322408", "NAICS_Des": "General Medical And Surgical Hospitals", "State": "VA", "County": "Spotsylvania", "Owner": null, "Date_Geol": 1362614400000, "ST_FIPS": "51"}},
{"geometry": {"type": "Point", "coordinates": [-81.0971154, 36.9544468]}, "type": "Feature", "properties": {"City": "Wytheville", "Zip": "24382", "NAICS": "622210", "Source": "Virginia Department of Health, Health Informatics and Integrated Surveillance Systems", "Type_": "General Acute Care Hospital", "Trauma": "0", "Alt_Name": null, "Method": "Imagery", "Website": "http://www.wcch.org/", "Phone": "2762280200", "Address": "600 West Ridge Road", "Lat": 36.954446, "POC": null, "Date_Creat": 1351555200000, "Long_": -81.097115, "Name": "Wythe County Community Hospital", "OBJECTID": 5501, "Ttl_Staff": 0, "Beds": 108, "FIPS": "51197", "Helipad": null, "State_ID": "Wythe County Community Hospital", "ID": "0007024382", "NAICS_Des": "General Medical And Surgical Hospitals", "State": "VA", "County": "Wythe", "Owner": null, "Date_Geol": 1362614400000, "ST_FIPS": "51"}},
{"geometry": {"type": "Point", "coordinates": [-76.7410255, 37.3366186]}, "type": "Feature", "properties": {"City": "Williamsburg", "Zip": "23188", "NAICS": "622210", "Source": "Virginia Department of Health, Health Informatics and Integrated Surveillance Systems", "Type_": "General Acute Care Hospital", "Trauma": "0", "Alt_Name": null, "Method": "Imagery", "Website": "http://www.sentara.com/HospitalsFacilities/Hospitals/Williamsburg/Pages/williamsburgregionalmedical.aspx", "Phone": "7579846000", "Address": "100 Sentara Circle", "Lat": 37.336618, "POC": null, "Date_Creat": 1351555200000, "Long_": -76.741025, "Name": "Sentara Williamsburg Regional Medical Center", "OBJECTID": 5502, "Ttl_Staff": 0, "Beds": 145, "FIPS": "51199", "Helipad": null, "State_ID": "Sentara Williamsburg Regional Medical Center", "ID": "0014423188", "NAICS_Des": "General Medical And Surgical Hospitals", "State": "VA", "County": "York", "Owner": null, "Date_Geol": 1362614400000, "ST_FIPS": "51"}},
{"geometry": {"type": "Point", "coordinates": [-76.7415957, 37.3374596]}, "type": "Feature", "properties": {"City": "Williamsburg", "Zip": "23188", "NAICS": "622210", "Source": "Virginia Department of Health, Health Informatics and Integrated Surveillance Systems", "Type_": "General Acute Care Hospital", "Trauma": "0", "Alt_Name": null, "Method": "Imagery", "Website": "http://www.sentara.com/HospitalsFacilities/Hospitals/Williamsburg/Williamsburg/Pages/geddyoutpatientcenter.aspx", "Phone": "7573454310", "Address": "6601 Mooretown Road", "Lat": 37.337459, "POC": null, "Date_Creat": 1351555200000, "Long_": -76.741595, "Name": "Vernon M. Geddy Jr. Outpatient Center", "OBJECTID": 5503, "Ttl_Staff": 0, "Beds": 0, "FIPS": "51199", "Helipad": null, "State_ID": "Vernon M. Geddy Jr. Outpatient Center", "ID": "0014523188", "NAICS_Des": "General Medical And Surgical Hospitals", "State": "VA", "County": "York", "Owner": null, "Date_Geol": 1362614400000, "ST_FIPS": "51"}},
{"geometry": {"type": "Point", "coordinates": [-77.1055347, 38.8221236]}, "type": "Feature", "properties": {"City": "Alexandria", "Zip": "22304", "NAICS": "622210", "Source": "Virginia Department of Health, Health Informatics and Integrated Surveillance Systems", "Type_": "General Acute Care Hospital", "Trauma": "0", "Alt_Name": null, "Method": "Imagery", "Website": "http://www.inova.org/patient-and-visitor-information/facilities/inova-alexandria-hospital/index.jsp", "Phone": "7035043000", "Address": "4320 Seminary Road", "Lat": 38.822123, "POC": null, "Date_Creat": 1351555200000, "Long_": -77.105534, "Name": "Inova Alexandria Hospital", "OBJECTID": 5504, "Ttl_Staff": 0, "Beds": 318, "FIPS": "51510", "Helipad": null, "State_ID": "Inova Alexandria Hospital", "ID": "0002522304", "NAICS_Des": "General Medical And Surgical Hospitals", "State": "VA", "County": "Alexandria", "Owner": null, "Date_Geol": 1362614400000, "ST_FIPS": "51"}},
{"geometry": {"type": "Point", "coordinates": [-80.9241643, 36.6705549]}, "type": "Feature", "properties": {"City": "Galax", "Zip": "24333", "NAICS": "622210", "Source": "Virginia Department of Health, Health Informatics and Integrated Surveillance Systems", "Type_": "General Acute Care Hospital", "Trauma": "0", "Alt_Name": null, "Method": "Imagery", "Website": "www.tcrh.org/", "Phone": "2762368180", "Address": "200 Hospital Drive", "Lat": 36.670554, "POC": null, "Date_Creat": 1351555200000, "Long_": -80.924164, "Name": "Twin County Regional Hospital", "OBJECTID": 5505, "Ttl_Staff": 0, "Beds": 141, "FIPS": "51640", "Helipad": null, "State_ID": "Twin County Regional Hospital", "ID": "0006924333", "NAICS_Des": "General Medical And Surgical Hospitals", "State": "VA", "County": "Galax", "Owner": null, "Date_Geol": 1362614400000, "ST_FIPS": "51"}},
{"geometry": {"type": "Point", "coordinates": [-76.3474319, 36.8366364]}, "type": "Feature", "properties": {"City": "Portsmouth", "Zip": "23707", "NAICS": "622210", "Source": "Virginia Department of Health, Health Informatics and Integrated Surveillance Systems", "Type_": "General Acute Care Hospital", "Trauma": "0", "Alt_Name": null, "Method": "Imagery", "Website": "http://www.bonsecourshamptonroads.com/find-a-facility-maryview-medical-center.html", "Phone": "7573982200", "Address": "3636 High Street", "Lat": 36.836636, "POC": null, "Date_Creat": 1351555200000, "Long_": -76.347431, "Name": "Bon Secours Maryview Medical Center", "OBJECTID": 5506, "Ttl_Staff": 0, "Beds": 346, "FIPS": "51740", "Helipad": null, "State_ID": "Bon Secours Maryview Medical Center", "ID": "0014623707", "NAICS_Des": "General Medical And Surgical Hospitals", "State": "VA", "County": "Portsmouth", "Owner": null, "Date_Geol": 1362614400000, "ST_FIPS": "51"}},
{"geometry": {"type": "Point", "coordinates": [-76.3067201, 36.84366]}, "type": "Feature", "properties": {"City": "Portsmouth", "Zip": "23708", "NAICS": "622210", "Source": "Virginia Department of Health, Health Informatics and Integrated Surveillance Systems", "Type_": "Military Hospital", "Trauma": "0", "Alt_Name": null, "Method": "Imagery", "Website": "http://www.med.navy.mil/sites/nmcp/Pages/default.aspx", "Phone": "7579537420", "Address": "620 John Paul Jones Circle", "Lat": 36.843659, "POC": null, "Date_Creat": 1351555200000, "Long_": -76.30672, "Name": "Naval Medical Center", "OBJECTID": 5507, "Ttl_Staff": 0, "Beds": 274, "FIPS": "51740", "Helipad": null, "State_ID": "Naval Medical Center", "ID": "0014723708", "NAICS_Des": "General Medical And Surgical Hospitals", "State": "VA", "County": "Portsmouth", "Owner": null, "Date_Geol": 1362614400000, "ST_FIPS": "51"}},
{"geometry": {"type": "Point", "coordinates": [-77.3859604, 37.6289545]}, "type": "Feature", "properties": {"City": "Mechanicsville", "Zip": "23116", "NAICS": "622210", "Source": "Virginia Department of Health, Health Informatics and Integrated Surveillance Systems", "Type_": "General Acute Care Hospital", "Trauma": "0", "Alt_Name": null, "Method": "Imagery", "Website": "http://richmond.bonsecours.com/find-a-facility-memorial-regional-medical-center.html", "Phone": "8047646000", "Address": "8260 Atlee Road", "Lat": 37.628954, "POC": null, "Date_Creat": 1351555200000, "Long_": -77.38596, "Name": "Bon Secours Memorial Regional Medical Center", "OBJECTID": 5550, "Ttl_Staff": 0, "Beds": 225, "FIPS": "51085", "Helipad": null, "State_ID": "Bon Secours Memorial Regional Medical Center", "ID": "0008823116", "NAICS_Des": "General Medical And Surgical Hospitals", "State": "VA", "County": "Hanover", "Owner": null, "Date_Geol": 1362614400000, "ST_FIPS": "51"}},
{"geometry": {"type": "Point", "coordinates": [-77.3374158, 37.6168941]}, "type": "Feature", "properties": {"City": "Mechanicsville", "Zip": "23111", "NAICS": "622210", "Source": "Virginia Department of Health, Health Informatics and Integrated Surveillance Systems", "Type_": "General Acute Care Hospital", "Trauma": "0", "Alt_Name": null, "Method": "Imagery with Other", "Website": "http://www.hanoveroutpatient.com/", "Phone": "8047309000", "Address": "7016 Lee Park Road", "Lat": 37.616894, "POC": null, "Date_Creat": 1351555200000, "Long_": -77.337415, "Name": "Hanover Outpatient Surgery Center, L.P.", "OBJECTID": 5551, "Ttl_Staff": 0, "Beds": 0, "FIPS": "51085", "Helipad": null, "State_ID": "Hanover Outpatient Surgery Center, L.P.", "ID": "0009023111", "NAICS_Des": "General Medical And Surgical Hospitals", "State": "VA", "County": "Hanover", "Owner": null, "Date_Geol": 1362614400000, "ST_FIPS": "51"}},
{"geometry": {"type": "Point", "coordinates": [-77.3860391, 37.6287411]}, "type": "Feature", "properties": {"City": "Mechanicsville", "Zip": "23116", "NAICS": "622210", "Source": "Virginia Department of Health, Health Informatics and Integrated Surveillance Systems", "Type_": "General Acute Care Hospital", "Trauma": "0", "Alt_Name": null, "Method": "Imagery", "Website": ".", "Phone": "8046473970", "Address": "8262 Atlee Road", "Lat": 37.628741, "POC": null, "Date_Creat": 1351555200000, "Long_": -77.386039, "Name": "Memorial Ambulatory Surgery Center, L.L.C.", "OBJECTID": 5552, "Ttl_Staff": 0, "Beds": 0, "FIPS": "51085", "Helipad": null, "State_ID": "Memorial Ambulatory Surgery Center, L.L.C.", "ID": "0009123116", "NAICS_Des": "General Medical And Surgical Hospitals", "State": "VA", "County": "Hanover", "Owner": null, "Date_Geol": 1362614400000, "ST_FIPS": "51"}},
{"geometry": {"type": "Point", "coordinates": [-77.3877067, 37.6274651]}, "type": "Feature", "properties": {"City": "Mechanicsville", "Zip": "23111", "NAICS": "622210", "Source": "Virginia Department of Health, Health Informatics and Integrated Surveillance Systems", "Type_": "General Acute Care Hospital", "Trauma": "0", "Alt_Name": null, "Method": "Imagery", "Website": "http://www.uro.com/locations/hanover-medical-park/", "Phone": "8042876100", "Address": "8228 Meadowbridge Road", "Lat": 37.627465, "POC": null, "Date_Creat": 1351555200000, "Long_": -77.387706, "Name": "Urosurgical Center Of Richmond - North", "OBJECTID": 5553, "Ttl_Staff": 0, "Beds": 0, "FIPS": "51085", "Helipad": null, "State_ID": "Urosurgical Center Of Richmond - North", "ID": "0009323116", "NAICS_Des": "General Medical And Surgical Hospitals", "State": "VA", "County": "Hanover", "Owner": null, "Date_Geol": 1362614400000, "ST_FIPS": "51"}},
{"geometry": {"type": "Point", "coordinates": [-77.5120926, 37.5836146]}, "type": "Feature", "properties": {"City": "Richmond", "Zip": "23226", "NAICS": "622210", "Source": "Virginia Department of Health, Health Informatics and Integrated Surveillance Systems", "Type_": "General Acute Care Hospital", "Trauma": "0", "Alt_Name": null, "Method": "Imagery", "Website": "http://richmond.bonsecours.com/find-a-facility-st-marys-hospital.", "Phone": "8042852010", "Address": "5801 Bremo Road", "Lat": 37.583614, "POC": null, "Date_Creat": 1351555200000, "Long_": -77.512092, "Name": "Bon Secours St. Marys Hospital", "OBJECTID": 5554, "Ttl_Staff": 0, "Beds": 391, "FIPS": "51087", "Helipad": null, "State_ID": "Bon Secours St. Marys Hospital", "ID": "0009823226", "NAICS_Des": "General Medical And Surgical Hospitals", "State": "VA", "County": "Henrico", "Owner": null, "Date_Geol": 1362614400000, "ST_FIPS": "51"}},
{"geometry": {"type": "Point", "coordinates": [-77.5071059, 37.5905649]}, "type": "Feature", "properties": {"City": "Richmond", "Zip": "23226", "NAICS": "622210", "Source": "Virginia Department of Health, Health Informatics and Integrated Surveillance Systems", "Type_": "General Acute Care Hospital", "Trauma": "0", "Alt_Name": null, "Method": "Imagery with Other", "Website": ".", "Phone": "8042850680", "Address": "2010 Bremo Road", "Lat": 37.590564, "POC": null, "Date_Creat": 1351555200000, "Long_": -77.507105, "Name": "Cataract And Refractive Surgery Center", "OBJECTID": 5555, "Ttl_Staff": 0, "Beds": 0, "FIPS": "51087", "Helipad": null, "State_ID": "Cataract and Refractive Surgery Center", "ID": "0009923226", "NAICS_Des": "General Medical And Surgical Hospitals", "State": "VA", "County": "Henrico", "Owner": null, "Date_Geol": 1362614400000, "ST_FIPS": "51"}},
{"geometry": {"type": "Point", "coordinates": [-77.5067126, 37.585944]}, "type": "Feature", "properties": {"City": "Richmond", "Zip": "23226", "NAICS": "622310", "Source": "Virginia Department of Health, Health Informatics and Integrated Surveillance Systems", "Type_": "Rehabilitation Hospital", "Trauma": "0", "Alt_Name": null, "Method": "Imagery with Other", "Website": "http://www.healthsouthrichmond.com/", "Phone": "8042885700", "Address": "5700 Fitzhugh Avenue", "Lat": 37.585943, "POC": null, "Date_Creat": 1351555200000, "Long_": -77.506712, "Name": "Healthsouth Rehabilitation Hospital Of Virginia", "OBJECTID": 5556, "Ttl_Staff": 0, "Beds": 40, "FIPS": "51087", "Helipad": null, "State_ID": "Healthsouth Rehabilitation Hospital of Virginia", "ID": "0010023226", "NAICS_Des": "Rehabilitation Hospitals (Except Alcoholism, Drug Addiction)", "State": "VA", "County": "Henrico", "Owner": null, "Date_Geol": 1362614400000, "ST_FIPS": "51"}},
{"geometry": {"type": "Point", "coordinates": [-77.5398857, 37.6043794]}, "type": "Feature", "properties": {"City": "Richmond", "Zip": "23229", "NAICS": "622210", "Source": "Virginia Department of Health, Health Informatics and Integrated Surveillance Systems", "Type_": "General Acute Care Hospital", "Trauma": "0", "Alt_Name": null, "Method": "Imagery", "Website": "http://www.henricodoctors.com/CustomPage.asp?guidCustomContentID={385BB3E1-06D2-4E36-8C21-862DF8DEAE0C}", "Phone": "8042894500", "Address": "1602 Skipwith Road", "Lat": 37.604379, "POC": null, "Date_Creat": 1351555200000, "Long_": -77.539885, "Name": "Henrico Doctors Hospital Main Campus (Forest)", "OBJECTID": 5557, "Ttl_Staff": 0, "Beds": 340, "FIPS": "51087", "Helipad": null, "State_ID": "Henrico Doctors Hospital Main Campus (Forest)", "ID": "0010123229", "NAICS_Des": "General Medical And Surgical Hospitals", "State": "VA", "County": "Henrico", "Owner": null, "Date_Geol": 1362614400000, "ST_FIPS": "51"}},
{"geometry": {"type": "Point", "coordinates": [-77.4907328, 37.590626]}, "type": "Feature", "properties": {"City": "Richmond", "Zip": "23230", "NAICS": "622210", "Source": "Virginia Department of Health, Health Informatics and Integrated Surveillance Systems", "Type_": "General Acute Care Hospital", "Trauma": "0", "Alt_Name": null, "Method": "Imagery with Other", "Website": "http://www.kindredrichmond.com/", "Phone": "8046787000", "Address": "2220 Edward Holland Drive", "Lat": 37.590626, "POC": null, "Date_Creat": 1351555200000, "Long_": -77.490732, "Name": "Kindred Hospital Richmond", "OBJECTID": 5558, "Ttl_Staff": 0, "Beds": 60, "FIPS": "51087", "Helipad": null, "State_ID": "Kindred Hospital Richmond", "ID": "0010223230", "NAICS_Des": "General Medical And Surgical Hospitals", "State": "VA", "County": "Henrico", "Owner": null, "Date_Geol": 1362614400000, "ST_FIPS": "51"}},
{"geometry": {"type": "Point", "coordinates": [-77.526021, 37.63171]}, "type": "Feature", "properties": {"City": "Richmond", "Zip": "23294", "NAICS": "622210", "Source": "Virginia Department of Health, Health Informatics and Integrated Surveillance Systems", "Type_": "General Acute Care Hospital", "Trauma": "0", "Alt_Name": null, "Method": "Imagery", "Website": "http://www.henricodoctors.com/CustomPage.asp?guidCustomContentID={BCA23667-30FE-4F33-AD85-771DF73BE7D7}", "Phone": "8042894500", "Address": "7700 East Parham Road", "Lat": 37.63171, "POC": null, "Date_Creat": 1351555200000, "Long_": -77.526021, "Name": "Parham Doctors Hospital", "OBJECTID": 5559, "Ttl_Staff": 0, "Beds": 200, "FIPS": "51087", "Helipad": null, "State_ID": "Parham Doctors Hospital", "ID": "0010323294", "NAICS_Des": "General Medical And Surgical Hospitals", "State": "VA", "County": "Henrico", "Owner": null, "Date_Geol": 1362614400000, "ST_FIPS": "51"}},
{"geometry": {"type": "Point", "coordinates": [-77.513805, 37.5852533]}, "type": "Feature", "properties": {"City": "Richmond", "Zip": "23226", "NAICS": "622210", "Source": "Virginia Department of Health, Health Informatics and Integrated Surveillance Systems", "Type_": "General Acute Care Hospital", "Trauma": "0", "Alt_Name": null, "Method": "Imagery", "Website": ".", "Phone": "8042877880", "Address": "1501 Maple Avenue", "Lat": 37.585253, "POC": null, "Date_Creat": 1351555200000, "Long_": -77.513805, "Name": "St. Mary\u2019S Ambulatory Surgery Center", "OBJECTID": 5560, "Ttl_Staff": 0, "Beds": 0, "FIPS": "51087", "Helipad": null, "State_ID": "St. Mary\u2019s Ambulatory Surgery Center", "ID": "0010423226", "NAICS_Des": "General Medical And Surgical Hospitals", "State": "VA", "County": "Henrico", "Owner": null, "Date_Geol": 1362614400000, "ST_FIPS": "51"}},
{"geometry": {"type": "Point", "coordinates": [-77.5608644, 37.605049]}, "type": "Feature", "properties": {"City": "Richmond", "Zip": "23229", "NAICS": "622210", "Source": "Virginia Department of Health, Health Informatics and Integrated Surveillance Systems", "Type_": "General Acute Care Hospital", "Trauma": "0", "Alt_Name": null, "Method": "Imagery with Other", "Website": "http://www.hcavirginia.com/CustomPage.asp?guidCustomContentID={D4ADD2D5-48D5-4205-9B7E-10702ADE578C}", "Phone": "8042854760", "Address": "8919 Three Chopt Road", "Lat": 37.605049, "POC": null, "Date_Creat": 1351555200000, "Long_": -77.560864, "Name": "Tuckahoe Surgery Center", "OBJECTID": 5561, "Ttl_Staff": 0, "Beds": 0, "FIPS": "51087", "Helipad": null, "State_ID": "Tuckahoe Surgery Center", "ID": "0010523229", "NAICS_Des": "General Medical And Surgical Hospitals", "State": "VA", "County": "Henrico", "Owner": null, "Date_Geol": 1362614400000, "ST_FIPS": "51"}},
{"geometry": {"type": "Point", "coordinates": [-77.5040999, 37.5807069]}, "type": "Feature", "properties": {"City": "Richmond", "Zip": "23226", "NAICS": "622210", "Source": "Virginia Department of Health, Health Informatics and Integrated Surveillance Systems", "Type_": "General Acute Care Hospital", "Trauma": "0", "Alt_Name": null, "Method": "Imagery with Other", "Website": "http://www.uro.com/locations/monument-avenue/", "Phone": "8042876100", "Address": "5224 Monument Avenue", "Lat": 37.580706, "POC": null, "Date_Creat": 1351555200000, "Long_": -77.504099, "Name": "Urosurgical Center Of Richmond - Monument", "OBJECTID": 5562, "Ttl_Staff": 0, "Beds": 0, "FIPS": "51087", "Helipad": null, "State_ID": "Urosurgical Center Of Richmond - Monument", "ID": "0010623226", "NAICS_Des": "General Medical And Surgical Hospitals", "State": "VA", "County": "Henrico", "Owner": null, "Date_Geol": 1362614400000, "ST_FIPS": "51"}},
{"geometry": {"type": "Point", "coordinates": [-77.5398156, 37.5664764]}, "type": "Feature", "properties": {"City": "Richmond", "Zip": "23226", "NAICS": "622210", "Source": "Virginia Department of Health, Health Informatics and Integrated Surveillance Systems", "Type_": "General Acute Care Hospital", "Trauma": "0", "Alt_Name": null, "Method": "Imagery with Other", "Website": "http://www.vaeye.com/", "Phone": "8042874250", "Address": "402 Westhampton Station", "Lat": 37.566476, "POC": null, "Date_Creat": 1351555200000, "Long_": -77.539815, "Name": "Virginia Eye Institute Surgery Pavilion, Inc.", "OBJECTID": 5563, "Ttl_Staff": 0, "Beds": 0, "FIPS": "51087", "Helipad": null, "State_ID": "Virginia Eye Institute Surgery Pavilion, Inc.", "ID": "0011623226", "NAICS_Des": "General Medical And Surgical Hospitals", "State": "VA", "County": "Henrico", "Owner": null, "Date_Geol": 1362614400000, "ST_FIPS": "51"}},
{"geometry": {"type": "Point", "coordinates": [-78.9143516, 36.7122508]}, "type": "Feature", "properties": {"City": "South Boston", "Zip": "24592", "NAICS": "622210", "Source": "Virginia Department of Health, Health Informatics and Integrated Surveillance Systems", "Type_": "General Acute Care Hospital", "Trauma": "0", "Alt_Name": null, "Method": "Imagery", "Website": "http://www.hrhs.org/", "Phone": "4345173100", "Address": "2204 Wilborn Avenue", "Lat": 36.71225, "POC": null, "Date_Creat": 1351555200000, "Long_": -78.914351, "Name": "Halifax Regional Health System", "OBJECTID": 5564, "Ttl_Staff": 0, "Beds": 192, "FIPS": "51083", "Helipad": null, "State_ID": "Halifax Regional Health System", "ID": "0011824592", "NAICS_Des": "General Medical And Surgical Hospitals", "State": "VA", "County": "Halifax", "Owner": null, "Date_Geol": 1362614400000, "ST_FIPS": "51"}},
{"geometry": {"type": "Point", "coordinates": [-77.2863494, 38.6370725]}, "type": "Feature", "properties": {"City": "Woodbridge", "Zip": "22191", "NAICS": "622210", "Source": "Virginia Department of Health, Health Informatics and Integrated Surveillance Systems", "Type_": "General Acute Care Hospital", "Trauma": "0", "Alt_Name": null, "Method": "Imagery", "Website": "www.potomachospital.com", "Phone": "7036701310", "Address": "2300 Opitz Boulevard", "Lat": 38.637072, "POC": null, "Date_Creat": 1351555200000, "Long_": -77.286349, "Name": "Sentara Potomac Hospital", "OBJECTID": 5565, "Ttl_Staff": 0, "Beds": 183, "FIPS": "51153", "Helipad": null, "State_ID": "Sentara Potomac Hospital", "ID": "0004322191", "NAICS_Des": "General Medical And Surgical Hospitals", "State": "VA", "County": "Prince William", "Owner": null, "Date_Geol": 1362614400000, "ST_FIPS": "51"}},
{"geometry": {"type": "Point", "coordinates": [-77.3084054, 38.5126535]}, "type": "Feature", "properties": {"City": "Quantico", "Zip": "22134", "NAICS": "622210", "Source": "Virginia Department of Health, Health Informatics and Integrated Surveillance Systems", "Type_": "General Acute Care Hospital", "Trauma": "0", "Alt_Name": null, "Method": "Imagery", "Website": "http://www.tricare.mil/mtf/facility.aspx?fid=304", "Phone": "0", "Address": "3259 Catlin Avenue", "Lat": 38.512653, "POC": null, "Date_Creat": 1351555200000, "Long_": -77.308405, "Name": "Naval Health Clinic Quantico", "OBJECTID": 5566, "Ttl_Staff": 0, "Beds": 0, "FIPS": "51153", "Helipad": null, "State_ID": "Naval Health Clinic Quantico", "ID": "0016222134", "NAICS_Des": "General Medical And Surgical Hospitals", "State": "VA", "County": "Prince William", "Owner": null, "Date_Geol": 1362614400000, "ST_FIPS": "51"}},
{"geometry": {"type": "Point", "coordinates": [-80.7572255, 37.0680539]}, "type": "Feature", "properties": {"City": "Pulaski", "Zip": "24301", "NAICS": "622210", "Source": "Virginia Department of Health, Health Informatics and Integrated Surveillance Systems", "Type_": "General Acute Care Hospital", "Trauma": "0", "Alt_Name": null, "Method": "Imagery", "Website": "http://www.pch-va.com/", "Phone": "5409948100", "Address": "2400 Lee Highway", "Lat": 37.068053, "POC": null, "Date_Creat": 1351555200000, "Long_": -80.757225, "Name": "Pulaski Community Hospital", "OBJECTID": 5567, "Ttl_Staff": 0, "Beds": 147, "FIPS": "51155", "Helipad": null, "State_ID": "Pulaski Community Hospital", "ID": "0007524301", "NAICS_Des": "General Medical And Surgical Hospitals", "State": "VA", "County": "Pulaski", "Owner": null, "Date_Geol": 1362614400000, "ST_FIPS": "51"}},
{"geometry": {"type": "Point", "coordinates": [-76.2816201, 36.8994847]}, "type": "Feature", "properties": {"City": "Norfolk", "Zip": "23505", "NAICS": "622210", "Source": "Virginia Department of Health, Health Informatics and Integrated Surveillance Systems", "Type_": "General Acute Care Hospital", "Trauma": "0", "Alt_Name": null, "Method": "Imagery", "Website": "http://www.bonsecourshamptonroads.com/find-a-facility-depaul-medical-center.html", "Phone": "7578895000", "Address": "150 Kingsley Lane", "Lat": 36.899484, "POC": null, "Date_Creat": 1351555200000, "Long_": -76.28162, "Name": "Bon Secours Depaul Medical Center", "OBJECTID": 5568, "Ttl_Staff": 0, "Beds": 366, "FIPS": "51710", "Helipad": null, "State_ID": "Bon Secours DePaul Medical Center", "ID": "0012623505", "NAICS_Des": "General Medical And Surgical Hospitals", "State": "VA", "County": "Norfolk", "Owner": null, "Date_Geol": 1362614400000, "ST_FIPS": "51"}},
{"geometry": {"type": "Point", "coordinates": [-76.3020879, 36.8621353]}, "type": "Feature", "properties": {"City": "Norfolk", "Zip": "23507", "NAICS": "622210", "Source": "Virginia Department of Health, Health Informatics and Integrated Surveillance Systems", "Type_": "Children", "Trauma": "0", "Alt_Name": null, "Method": "Imagery", "Website": "www.chkd.org", "Phone": "7576687000", "Address": "601 Childrens Lane", "Lat": 36.862135, "POC": null, "Date_Creat": 1351555200000, "Long_": -76.302087, "Name": "Children'S Hospital Of The Kings Daughters", "OBJECTID": 5569, "Ttl_Staff": 0, "Beds": 186, "FIPS": "51710", "Helipad": null, "State_ID": "Children's Hospital of the Kings Daughters", "ID": "0012723507", "NAICS_Des": "Children'S Hospitals, General", "State": "VA", "County": "Norfolk", "Owner": null, "Date_Geol": 1362614400000, "ST_FIPS": "51"}},
{"geometry": {"type": "Point", "coordinates": [-76.3045545, 36.8627715]}, "type": "Feature", "properties": {"City": "Norfolk", "Zip": "23507", "NAICS": "622210", "Source": "Virginia Department of Health, Health Informatics and Integrated Surveillance Systems", "Type_": "General Acute Care Hospital", "Trauma": "0", "Alt_Name": null, "Method": "Imagery", "Website": "http://www.sentara.com/HospitalsFacilities/Hospitals/NorfolkGeneral/Pages/hospital_for_extended_recovery.aspx", "Phone": "7576681700", "Address": "600 Gresham Drive", "Lat": 36.862771, "POC": null, "Date_Creat": 1351555200000, "Long_": -76.304554, "Name": "Hospital For Extended Recovery", "OBJECTID": 5570, "Ttl_Staff": 0, "Beds": 35, "FIPS": "51710", "Helipad": null, "State_ID": "Hospital for Extended Recovery", "ID": "0012823507", "NAICS_Des": "General Medical And Surgical Hospitals", "State": "VA", "County": "Norfolk", "Owner": null, "Date_Geol": 1362614400000, "ST_FIPS": "51"}},
{"geometry": {"type": "Point", "coordinates": [-76.2063305, 36.8671946]}, "type": "Feature", "properties": {"City": "Norfolk", "Zip": "23502", "NAICS": "622210", "Source": "Virginia Department of Health, Health Informatics and Integrated Surveillance Systems", "Type_": "General Acute Care Hospital", "Trauma": "0", "Alt_Name": null, "Method": "Imagery", "Website": "www.laketaylor.org", "Phone": "7574615000", "Address": "1309 Kempsville Road", "Lat": 36.867194, "POC": null, "Date_Creat": 1351555200000, "Long_": -76.20633, "Name": "Lake Taylor Transitional Care Hospital", "OBJECTID": 5571, "Ttl_Staff": 0, "Beds": 104, "FIPS": "51710", "Helipad": null, "State_ID": "Lake Taylor Transitional Care Hospital", "ID": "0012923502", "NAICS_Des": "General Medical And Surgical Hospitals", "State": "VA", "County": "Norfolk", "Owner": null, "Date_Geol": 1362614400000, "ST_FIPS": "51"}},
{"geometry": {"type": "Point", "coordinates": [-76.1904156, 36.8521668]}, "type": "Feature", "properties": {"City": "Norfolk", "Zip": "23502", "NAICS": "622210", "Source": "Virginia Department of Health, Health Informatics and Integrated Surveillance Systems", "Type_": "General Acute Care Hospital", "Trauma": "0", "Alt_Name": null, "Method": "Imagery", "Website": "http://www.sentara.com/HospitalsFacilities/Hospitals/Leigh/AmbulatorySurgeryCenter/Pages/ambulatorysurgerycenter.aspx", "Phone": "7574666600", "Address": "838 Kempsville Road", "Lat": 36.852166, "POC": null, "Date_Creat": 1351555200000, "Long_": -76.190415, "Name": "Sentara Leigh Ambulatory Surgery Center", "OBJECTID": 5572, "Ttl_Staff": 0, "Beds": 0, "FIPS": "51710", "Helipad": null, "State_ID": "Sentara Leigh Ambulatory Surgery Center", "ID": "0013023502", "NAICS_Des": "General Medical And Surgical Hospitals", "State": "VA", "County": "Norfolk", "Owner": null, "Date_Geol": 1362614400000, "ST_FIPS": "51"}},
{"geometry": {"type": "Point", "coordinates": [-76.1896295, 36.8508427]}, "type": "Feature", "properties": {"City": "Norfolk", "Zip": "23502", "NAICS": "622210", "Source": "Virginia Department of Health, Health Informatics and Integrated Surveillance Systems", "Type_": "General Acute Care Hospital", "Trauma": "0", "Alt_Name": null, "Method": "Imagery", "Website": "http://www.sentara.com/HospitalsFacilities/Hospitals/Leigh/Pages/leigh.aspx", "Phone": "7572616000", "Address": "830 Kempsville Road", "Lat": 36.850842, "POC": null, "Date_Creat": 1351555200000, "Long_": -76.189629, "Name": "Sentara Leigh Hospital", "OBJECTID": 5573, "Ttl_Staff": 0, "Beds": 250, "FIPS": "51710", "Helipad": null, "State_ID": "Sentara Leigh Hospital", "ID": "0013123502", "NAICS_Des": "General Medical And Surgical Hospitals", "State": "VA", "County": "Norfolk", "Owner": null, "Date_Geol": 1362614400000, "ST_FIPS": "51"}},
{"geometry": {"type": "Point", "coordinates": [-76.3028442, 36.8621799]}, "type": "Feature", "properties": {"City": "Norfolk", "Zip": "23507", "NAICS": "622210", "Source": "Virginia Department of Health, Health Informatics and Integrated Surveillance Systems", "Type_": "General Acute Care Hospital", "Trauma": "I", "Alt_Name": null, "Method": "Imagery", "Website": "http://www.sentara.com/HospitalsFacilities/Hospitals/NorfolkGeneral/Pages/norfolkgeneral.aspx", "Phone": "7573883000", "Address": "600 Gresham Drive", "Lat": 36.862179, "POC": null, "Date_Creat": 1351555200000, "Long_": -76.302844, "Name": "Sentara Norfolk General Hospital", "OBJECTID": 5574, "Ttl_Staff": 0, "Beds": 543, "FIPS": "51710", "Helipad": null, "State_ID": "Sentara Norfolk General Hospital", "ID": "0013223507", "NAICS_Des": "General Medical And Surgical Hospitals", "State": "VA", "County": "Norfolk", "Owner": null, "Date_Geol": 1362614400000, "ST_FIPS": "51"}},
{"geometry": {"type": "Point", "coordinates": [-76.2142036, 36.8375409]}, "type": "Feature", "properties": {"City": "Norfolk", "Zip": "23502", "NAICS": "622210", "Source": "Virginia Department of Health, Health Informatics and Integrated Surveillance Systems", "Type_": "General Acute Care Hospital", "Trauma": "0", "Alt_Name": null, "Method": "Imagery with Other", "Website": ".", "Phone": "7579654210", "Address": "241 Corporate Boulevard", "Lat": 36.83754, "POC": null, "Date_Creat": 1351555200000, "Long_": -76.214203, "Name": "Virginia Surgery Center, L.L.C.", "OBJECTID": 5575, "Ttl_Staff": 0, "Beds": 0, "FIPS": "51710", "Helipad": null, "State_ID": "Virginia Surgery Center, L.L.C.", "ID": "0013323502", "NAICS_Des": "General Medical And Surgical Hospitals", "State": "VA", "County": "Norfolk", "Owner": null, "Date_Geol": 1362614400000, "ST_FIPS": "51"}},
{"geometry": {"type": "Point", "coordinates": [-77.4068899, 37.5403374]}, "type": "Feature", "properties": {"City": "Richmond", "Zip": "23223", "NAICS": "622210", "Source": "Virginia Department of Health, Health Informatics and Integrated Surveillance Systems", "Type_": "General Acute Care Hospital", "Trauma": "0", "Alt_Name": null, "Method": "Imagery", "Website": "http://richmond.bonsecours.com/find-a-facility-richmond-community-hospital.html", "Phone": "8042251700", "Address": "1500 North 28Th Street", "Lat": 37.540337, "POC": null, "Date_Creat": 1351555200000, "Long_": -77.406889, "Name": "Bon Secours Richmond Community Hospital", "OBJECTID": 5576, "Ttl_Staff": 0, "Beds": 104, "FIPS": "51760", "Helipad": null, "State_ID": "Bon Secours Richmond Community Hospital", "ID": "0010823223", "NAICS_Des": "General Medical And Surgical Hospitals", "State": "VA", "County": "Richmond City", "Owner": null, "Date_Geol": 1362614400000, "ST_FIPS": "51"}},
{"geometry": {"type": "Point", "coordinates": [-77.4507047, 37.5709941]}, "type": "Feature", "properties": {"City": "Richmond", "Zip": "23220", "NAICS": "622210", "Source": "Virginia Department of Health, Health Informatics and Integrated Surveillance Systems", "Type_": "Children", "Trauma": "0", "Alt_Name": null, "Method": "Imagery with Other", "Website": "www.childrenshosp-richmond.org", "Phone": "8043217470", "Address": "2924 Brook Road", "Lat": 37.570994, "POC": null, "Date_Creat": 1351555200000, "Long_": -77.450704, "Name": "Children'S Hospital", "OBJECTID": 5577, "Ttl_Staff": 0, "Beds": 36, "FIPS": "51760", "Helipad": null, "State_ID": "Children's Hospital", "ID": "0010923220", "NAICS_Des": "Children'S Hospitals, General", "State": "VA", "County": "Richmond City", "Owner": null, "Date_Geol": 1362614400000, "ST_FIPS": "51"}},
{"geometry": {"type": "Point", "coordinates": [-77.5263939, 37.5138982]}, "type": "Feature", "properties": {"City": "Richmond", "Zip": "23225", "NAICS": "622210", "Source": "Virginia Department of Health, Health Informatics and Integrated Surveillance Systems", "Type_": "General Acute Care Hospital", "Trauma": "III", "Alt_Name": null, "Method": "Imagery", "Website": "www.cjwmedicalcenter.net", "Phone": "8043203910", "Address": "7101 Jahnke Road", "Lat": 37.513898, "POC": null, "Date_Creat": 1351555200000, "Long_": -77.526393, "Name": "Cjw Medical Center Chippenham Campus", "OBJECTID": 5578, "Ttl_Staff": 0, "Beds": 385, "FIPS": "51760", "Helipad": null, "State_ID": "CJW Medical Center Chippenham Campus", "ID": "0011023225", "NAICS_Des": "General Medical And Surgical Hospitals", "State": "VA", "County": "Richmond City", "Owner": null, "Date_Geol": 1362614400000, "ST_FIPS": "51"}},
{"geometry": {"type": "Point", "coordinates": [-77.47309, 37.5541057]}, "type": "Feature", "properties": {"City": "Richmond", "Zip": "23220", "NAICS": "622210", "Source": "Virginia Department of Health, Health Informatics and Integrated Surveillance Systems", "Type_": "General Acute Care Hospital", "Trauma": "0", "Alt_Name": null, "Method": "Imagery", "Website": "http://henricodoctors.com/CustomPage.asp?guidCustomContentID={62CDE936-81BC-4FE5-9BB6-5900593C11CA}", "Phone": "8042545100", "Address": "2621 Grove Avenue", "Lat": 37.554105, "POC": null, "Date_Creat": 1351555200000, "Long_": -77.473089, "Name": "Retreat Doctors Hospital", "OBJECTID": 5579, "Ttl_Staff": 0, "Beds": 227, "FIPS": "51760", "Helipad": null, "State_ID": "Retreat Doctors Hospital", "ID": "0011123220", "NAICS_Des": "General Medical And Surgical Hospitals", "State": "VA", "County": "Richmond City", "Owner": null, "Date_Geol": 1362614400000, "ST_FIPS": "51"}},
{"geometry": {"type": "Point", "coordinates": [-77.5629559, 37.5524505]}, "type": "Feature", "properties": {"City": "Richmond", "Zip": "23235", "NAICS": "622210", "Source": "Virginia Department of Health, Health Informatics and Integrated Surveillance Systems", "Type_": "General Acute Care Hospital", "Trauma": "0", "Alt_Name": null, "Method": "Imagery with Other", "Website": "http://www.stonypointsc.com/", "Phone": "8047754520", "Address": "8700 Stony Point Parkway", "Lat": 37.55245, "POC": null, "Date_Creat": 1351555200000, "Long_": -77.562955, "Name": "Stony Point Surgery Center", "OBJECTID": 5580, "Ttl_Staff": 0, "Beds": 0, "FIPS": "51760", "Helipad": null, "State_ID": "Stony Point Surgery Center", "ID": "0011223235", "NAICS_Des": "General Medical And Surgical Hospitals", "State": "VA", "County": "Richmond City", "Owner": null, "Date_Geol": 1362614400000, "ST_FIPS": "51"}},
{"geometry": {"type": "Point", "coordinates": [-77.5650792, 37.548041]}, "type": "Feature", "properties": {"City": "Richmond", "Zip": "23235", "NAICS": "622210", "Source": "Virginia Department of Health, Health Informatics and Integrated Surveillance Systems", "Type_": "General Acute Care Hospital", "Trauma": "0", "Alt_Name": null, "Method": "Imagery with Other", "Website": "http://www.uro.com/locations/stony-point/", "Phone": "8042876100", "Address": "9105 Stoney Point Drive", "Lat": 37.548041, "POC": null, "Date_Creat": 1351555200000, "Long_": -77.565079, "Name": "Urosurgical Center Of Richmond - South", "OBJECTID": 5581, "Ttl_Staff": 0, "Beds": 0, "FIPS": "51760", "Helipad": null, "State_ID": "Urosurgical Center Of Richmond - South", "ID": "0011323235", "NAICS_Des": "General Medical And Surgical Hospitals", "State": "VA", "County": "Richmond City", "Owner": null, "Date_Geol": 1362614400000, "ST_FIPS": "51"}},
{"geometry": {"type": "Point", "coordinates": [-77.4295243, 37.5399241]}, "type": "Feature", "properties": {"City": "Richmond", "Zip": "23219", "NAICS": "622210", "Source": "Virginia Department of Health, Health Informatics and Integrated Surveillance Systems", "Type_": "General Acute Care Hospital", "Trauma": "I", "Alt_Name": null, "Method": "Imagery", "Website": "http://www.vcuhealth.org/", "Phone": "8048280940", "Address": "1250 East Marshall Street", "Lat": 37.539924, "POC": null, "Date_Creat": 1351555200000, "Long_": -77.429524, "Name": "Vcu Health System", "OBJECTID": 5582, "Ttl_Staff": 0, "Beds": 779, "FIPS": "51760", "Helipad": null, "State_ID": "VCU Health System", "ID": "0011423298", "NAICS_Des": "General Medical And Surgical Hospitals", "State": "VA", "County": "Richmond City", "Owner": null, "Date_Geol": 1362614400000, "ST_FIPS": "51"}},
{"geometry": {"type": "Point", "coordinates": [-77.4674618, 37.4979383]}, "type": "Feature", "properties": {"City": "Richmond", "Zip": "23249", "NAICS": "622210", "Source": "Virginia Department of Health, Health Informatics and Integrated Surveillance Systems", "Type_": "Military Hospital", "Trauma": "0", "Alt_Name": null, "Method": "Imagery", "Website": "http://www.richmond.va.gov/", "Phone": "8046755000", "Address": "1201 Broad Rock Boulevard", "Lat": 37.497938, "POC": null, "Date_Creat": 1351555200000, "Long_": -77.467461, "Name": "Veterans Affairs Medical Center Richmond", "OBJECTID": 5583, "Ttl_Staff": 0, "Beds": 439, "FIPS": "51760", "Helipad": null, "State_ID": "Veterans Affairs Medical Center Richmond", "ID": "0011523249", "NAICS_Des": "General Medical And Surgical Hospitals", "State": "VA", "County": "Richmond City", "Owner": null, "Date_Geol": 1362614400000, "ST_FIPS": "51"}},
{"geometry": {"type": "Point", "coordinates": [-80.0053065, 37.2358825]}, "type": "Feature", "properties": {"City": "Roanoke", "Zip": "24018", "NAICS": "622210", "Source": "Virginia Department of Health, Health Informatics and Integrated Surveillance Systems", "Type_": "General Acute Care Hospital", "Trauma": "0", "Alt_Name": null, "Method": "Imagery with Other", "Website": "http://www.carilionclinic.org/Carilion/Carilion+Clinic+-+Brambleton+Center", "Phone": "5407727440", "Address": "3707 Brambleton Avenue Sw", "Lat": 37.235882, "POC": null, "Date_Creat": 1351555200000, "Long_": -80.005306, "Name": "Carilion Brambleton Ambulatory Surgical Center", "OBJECTID": 5584, "Ttl_Staff": 0, "Beds": 0, "FIPS": "51161", "Helipad": null, "State_ID": "Carilion Brambleton Ambulatory Surgical Center", "ID": "0004624018", "NAICS_Des": "General Medical And Surgical Hospitals", "State": "VA", "County": "Roanoke", "Owner": null, "Date_Geol": 1362614400000, "ST_FIPS": "51"}},
{"geometry": {"type": "Point", "coordinates": [-80.1098975, 37.3914313]}, "type": "Feature", "properties": {"City": "Catawba", "Zip": "24070", "NAICS": "622210", "Source": "Virginia Department of Health, Health Informatics and Integrated Surveillance Systems", "Type_": "General Acute Care Hospital", "Trauma": "0", "Alt_Name": null, "Method": "Imagery", "Website": "http://www.catawba.dmhmrsas.virginia.gov/", "Phone": "5403754200", "Address": "5525 Catawba Hospital Drive", "Lat": 37.391431, "POC": null, "Date_Creat": 1351555200000, "Long_": -80.109897, "Name": "Catawba Hospital", "OBJECTID": 5585, "Ttl_Staff": 0, "Beds": 110, "FIPS": "51161", "Helipad": null, "State_ID": "Catawba Hospital", "ID": "0004724070", "NAICS_Des": "General Medical And Surgical Hospitals", "State": "VA", "County": "Roanoke", "Owner": null, "Date_Geol": 1362614400000, "ST_FIPS": "51"}},
{"geometry": {"type": "Point", "coordinates": [-81.4889516, 37.1238875]}, "type": "Feature", "properties": {"City": "Tazewell", "Zip": "24651", "NAICS": "622210", "Source": "Virginia Department of Health, Health Informatics and Integrated Surveillance Systems", "Type_": "General Acute Care Hospital", "Trauma": "0", "Alt_Name": null, "Method": "Imagery", "Website": "http://www.carilionclinic.org/Carilion/Carilion+Tazewell+Community+Hospital", "Phone": "2769888700", "Address": "141 Ben Bolt Avenue", "Lat": 37.123887, "POC": null, "Date_Creat": 1351555200000, "Long_": -81.488951, "Name": "Carilion Tazewell Community Hospital", "OBJECTID": 5586, "Ttl_Staff": 0, "Beds": 56, "FIPS": "51185", "Helipad": null, "State_ID": "Carilion Tazewell Community Hospital", "ID": "0005824651", "NAICS_Des": "General Medical And Surgical Hospitals", "State": "VA", "County": "Tazewell", "Owner": null, "Date_Geol": 1362614400000, "ST_FIPS": "51"}},
{"geometry": {"type": "Point", "coordinates": [-81.2882383, 37.2398612]}, "type": "Feature", "properties": {"City": "Bluefield", "Zip": "24605", "NAICS": "622210", "Source": "Virginia Department of Health, Health Informatics and Integrated Surveillance Systems", "Type_": "General Acute Care Hospital", "Trauma": "0", "Alt_Name": null, "Method": "Geocode", "Website": ".", "Phone": "2763222220", "Address": "120 Hockman Pike", "Lat": 37.239861, "POC": null, "Date_Creat": 1351555200000, "Long_": -81.288238, "Name": "Regional Surgical Services, L.L.C.", "OBJECTID": 5587, "Ttl_Staff": 0, "Beds": 0, "FIPS": "51185", "Helipad": null, "State_ID": "Regional Surgical Services, L.L.C.", "ID": "0006124605", "NAICS_Des": "General Medical And Surgical Hospitals", "State": "VA", "County": "Tazewell", "Owner": null, "Date_Geol": 1362614400000, "ST_FIPS": "51"}},
{"geometry": {"type": "Point", "coordinates": [-78.1983515, 38.9303431]}, "type": "Feature", "properties": {"City": "Front Royal", "Zip": "22630", "NAICS": "622210", "Source": "Virginia Department of Health, Health Informatics and Integrated Surveillance Systems", "Type_": "General Acute Care Hospital", "Trauma": "0", "Alt_Name": null, "Method": "Imagery", "Website": "http://www.valleyhealthlink.com/WMH", "Phone": "5406360300", "Address": "1000 Shenandoah Avenue", "Lat": 38.930343, "POC": null, "Date_Creat": 1351555200000, "Long_": -78.198351, "Name": "Warren Memorial Hospital", "OBJECTID": 5588, "Ttl_Staff": 0, "Beds": 196, "FIPS": "51187", "Helipad": null, "State_ID": "Warren Memorial Hospital", "ID": "0000822630", "NAICS_Des": "General Medical And Surgical Hospitals", "State": "VA", "County": "Warren", "Owner": null, "Date_Geol": 1362614400000, "ST_FIPS": "51"}},
{"geometry": {"type": "Point", "coordinates": [-76.5116719, 37.1444726]}, "type": "Feature", "properties": {"City": "Newport News", "Zip": "23602", "NAICS": "622210", "Source": "Virginia Department of Health, Health Informatics and Integrated Surveillance Systems", "Type_": "General Acute Care Hospital", "Trauma": "0", "Alt_Name": null, "Method": "Imagery", "Website": "http://www.bonsecourshamptonroads.com/find-a-facility-mary-immaculate-hospital.html", "Phone": "7578866200", "Address": "2 Bernardine Drive", "Lat": 37.144472, "POC": null, "Date_Creat": 1351555200000, "Long_": -76.511671, "Name": "Bon Secours Mary Immaculate Hospital", "OBJECTID": 5589, "Ttl_Staff": 0, "Beds": 110, "FIPS": "51700", "Helipad": null, "State_ID": "Bon Secours Mary Immaculate Hospital", "ID": "0013423602", "NAICS_Des": "General Medical And Surgical Hospitals", "State": "VA", "County": "Newport News", "Owner": null, "Date_Geol": 1362614400000, "ST_FIPS": "51"}},
{"geometry": {"type": "Point", "coordinates": [-76.3929405, 36.9860924]}, "type": "Feature", "properties": {"City": "Newport News", "Zip": "23607", "NAICS": "622210", "Source": "Virginia Department of Health, Health Informatics and Integrated Surveillance Systems", "Type_": "General Acute Care Hospital", "Trauma": "0", "Alt_Name": null, "Method": "Imagery with Other", "Website": "http://www.hamptonroadsspecialtyhospital.com/", "Phone": "7575345000", "Address": "245 Chesapeake Avenue", "Lat": 36.986092, "POC": null, "Date_Creat": 1351555200000, "Long_": -76.39294, "Name": "Hampton Roads Specialty Hospital", "OBJECTID": 5590, "Ttl_Staff": 0, "Beds": 25, "FIPS": "51700", "Helipad": null, "State_ID": "Hampton Roads Specialty Hospital", "ID": "0013723607", "NAICS_Des": "General Medical And Surgical Hospitals", "State": "VA", "County": "Newport News", "Owner": null, "Date_Geol": 1362614400000, "ST_FIPS": "51"}},
{"geometry": {"type": "Point", "coordinates": [-76.5106351, 37.1449812]}, "type": "Feature", "properties": {"City": "Newport News", "Zip": "23602", "NAICS": "622210", "Source": "Virginia Department of Health, Health Informatics and Integrated Surveillance Systems", "Type_": "General Acute Care Hospital", "Trauma": "0", "Alt_Name": null, "Method": "Imagery", "Website": "http://mi-asc.com/", "Phone": "7573697000", "Address": "12720 Mcmanus Boulevard", "Lat": 37.144981, "POC": null, "Date_Creat": 1351555200000, "Long_": -76.510635, "Name": "Mary Immaculate Ambulatory Surgery Center", "OBJECTID": 5591, "Ttl_Staff": 0, "Beds": 0, "FIPS": "51700", "Helipad": null, "State_ID": "Mary Immaculate Ambulatory Surgery Center", "ID": "0013823602", "NAICS_Des": "General Medical And Surgical Hospitals", "State": "VA", "County": "Newport News", "Owner": null, "Date_Geol": 1362614400000, "ST_FIPS": "51"}},
{"geometry": {"type": "Point", "coordinates": [-76.5732263, 37.1619543]}, "type": "Feature", "properties": {"City": "Fort Eustis", "Zip": "23604", "NAICS": "622210", "Source": "Virginia Department of Health, Health Informatics and Integrated Surveillance Systems", "Type_": "Military Hospital", "Trauma": "0", "Alt_Name": null, "Method": "Geocode", "Website": "http://mcdonald.narmc.amedd.army.mil/default.aspx", "Phone": "7573147500", "Address": "576 Jefferson Avenue", "Lat": 37.161954, "POC": null, "Date_Creat": 1351555200000, "Long_": -76.573226, "Name": "Mcdonald Army Community Hospital", "OBJECTID": 5592, "Ttl_Staff": 0, "Beds": 30, "FIPS": "51700", "Helipad": null, "State_ID": "McDonald Army Community Hospital", "ID": "0013923604", "NAICS_Des": "General Medical And Surgical Hospitals", "State": "VA", "County": "Newport News", "Owner": null, "Date_Geol": 1362614400000, "ST_FIPS": "51"}},
{"geometry": {"type": "Point", "coordinates": [-76.4828262, 37.0604224]}, "type": "Feature", "properties": {"City": "Newport News", "Zip": "23601", "NAICS": "622210", "Source": "Virginia Department of Health, Health Informatics and Integrated Surveillance Systems", "Type_": "General Acute Care Hospital", "Trauma": "0", "Alt_Name": null, "Method": "Imagery with Other", "Website": "http://www.peninsulasurgerycenter.com/", "Phone": "7575941720", "Address": "12000 Warwick Boulevard", "Lat": 37.060422, "POC": null, "Date_Creat": 1351555200000, "Long_": -76.482826, "Name": "Peninsula Surgery Center", "OBJECTID": 5593, "Ttl_Staff": 0, "Beds": 0, "FIPS": "51700", "Helipad": null, "State_ID": "Peninsula Surgery Center", "ID": "0014023601", "NAICS_Des": "General Medical And Surgical Hospitals", "State": "VA", "County": "Newport News", "Owner": null, "Date_Geol": 1362614400000, "ST_FIPS": "51"}},
{"geometry": {"type": "Point", "coordinates": [-76.4830343, 37.0642435]}, "type": "Feature", "properties": {"City": "Newport News", "Zip": "23601", "NAICS": "622210", "Source": "Virginia Department of Health, Health Informatics and Integrated Surveillance Systems", "Type_": "General Acute Care Hospital", "Trauma": "II", "Alt_Name": null, "Method": "Imagery", "Website": "www.riverside-online.com/rrmc", "Phone": "7575942000", "Address": "500 J. Clyde Morris Blvd", "Lat": 37.064243, "POC": null, "Date_Creat": 1351555200000, "Long_": -76.483034, "Name": "Riverside Regional Medical Center", "OBJECTID": 5594, "Ttl_Staff": 0, "Beds": 570, "FIPS": "51700", "Helipad": null, "State_ID": "Riverside Regional Medical Center", "ID": "0014123601", "NAICS_Des": "General Medical And Surgical Hospitals", "State": "VA", "County": "Newport News", "Owner": null, "Date_Geol": 1362614400000, "ST_FIPS": "51"}},
{"geometry": {"type": "Point", "coordinates": [-76.3927874, 36.9861813]}, "type": "Feature", "properties": {"City": "Newport News", "Zip": "23607", "NAICS": "622310", "Source": "Virginia Department of Health, Health Informatics and Integrated Surveillance Systems", "Type_": "Rehabilitation Hospital", "Trauma": "0", "Alt_Name": null, "Method": "Imagery with Other", "Website": "http://www.riversideonline.com/rri/index.cfm", "Phone": "7579288000", "Address": "245 Chesapeake Avenue", "Lat": 36.986181, "POC": null, "Date_Creat": 1351555200000, "Long_": -76.392787, "Name": "Riverside Rehabilitation Institute", "OBJECTID": 5595, "Ttl_Staff": 0, "Beds": 50, "FIPS": "51700", "Helipad": null, "State_ID": "Riverside Rehabilitation Institute", "ID": "0014223607", "NAICS_Des": "Rehabilitation Hospitals (Except Alcoholism, Drug Addiction)", "State": "VA", "County": "Newport News", "Owner": null, "Date_Geol": 1362614400000, "ST_FIPS": "51"}},
{"geometry": {"type": "Point", "coordinates": [-76.0315603, 36.8684517]}, "type": "Feature", "properties": {"City": "Virginia Beach", "Zip": "23454", "NAICS": "622210", "Source": "Virginia Department of Health, Health Informatics and Integrated Surveillance Systems", "Type_": "General Acute Care Hospital", "Trauma": "0", "Alt_Name": null, "Method": "Imagery with Other", "Website": "http://www.beacheyecare.com/", "Phone": "7573954870", "Address": "1201 First Colonial Road", "Lat": 36.868451, "POC": null, "Date_Creat": 1351555200000, "Long_": -76.03156, "Name": "Beach Surgicenter For Eyes", "OBJECTID": 5599, "Ttl_Staff": 0, "Beds": 0, "FIPS": "51810", "Helipad": null, "State_ID": "Beach Surgicenter for Eyes", "ID": "0015123454", "NAICS_Des": "General Medical And Surgical Hospitals", "State": "VA", "County": "Virginia Beach", "Owner": null, "Date_Geol": 1362614400000, "ST_FIPS": "51"}},
{"geometry": {"type": "Point", "coordinates": [-76.1314775, 36.8678106]}, "type": "Feature", "properties": {"City": "Virginia Beach", "Zip": "23455", "NAICS": "622210", "Source": "Virginia Department of Health, Health Informatics and Integrated Surveillance Systems", "Type_": "General Acute Care Hospital", "Trauma": "0", "Alt_Name": null, "Method": "Imagery", "Website": "http://www.sentara.com/HospitalsFacilities/Hospitals/Bayside/Pages/baysidehospital.aspx", "Phone": "7573636100", "Address": "800 Independence Boulevard", "Lat": 36.86781, "POC": null, "Date_Creat": 1351555200000, "Long_": -76.131477, "Name": "Sentara Bayside Hospital", "OBJECTID": 5600, "Ttl_Staff": 0, "Beds": 158, "FIPS": "51810", "Helipad": null, "State_ID": "Sentara Bayside Hospital", "ID": "0015223455", "NAICS_Des": "General Medical And Surgical Hospitals", "State": "VA", "County": "Virginia Beach", "Owner": null, "Date_Geol": 1362614400000, "ST_FIPS": "51"}},
{"geometry": {"type": "Point", "coordinates": [-76.0264938, 36.8645736]}, "type": "Feature", "properties": {"City": "Virginia Beach", "Zip": "23454", "NAICS": "622210", "Source": "Virginia Department of Health, Health Informatics and Integrated Surveillance Systems", "Type_": "General Acute Care Hospital", "Trauma": "III", "Alt_Name": null, "Method": "Imagery", "Website": "http://www.sentara.com/HospitalsFacilities/Hospitals/BeachGeneral/Pages/virginiabeach.aspx", "Phone": "7573958000", "Address": "1060 First Colonial Road", "Lat": 36.864573, "POC": null, "Date_Creat": 1351555200000, "Long_": -76.026493, "Name": "Sentara Virginia Beach General Hospital", "OBJECTID": 5601, "Ttl_Staff": 0, "Beds": 282, "FIPS": "51810", "Helipad": null, "State_ID": "Sentara Virginia Beach General Hospital", "ID": "0015323454", "NAICS_Des": "General Medical And Surgical Hospitals", "State": "VA", "County": "Virginia Beach", "Owner": null, "Date_Geol": 1362614400000, "ST_FIPS": "51"}},
{"geometry": {"type": "Point", "coordinates": [-76.0251958, 36.8642878]}, "type": "Feature", "properties": {"City": "Virginia Beach", "Zip": "23454", "NAICS": "622210", "Source": "Virginia Department of Health, Health Informatics and Integrated Surveillance Systems", "Type_": "General Acute Care Hospital", "Trauma": "0", "Alt_Name": null, "Method": "Imagery", "Website": "http://www.sentara.com/HospitalsFacilities/Hospitals/BeachGeneral/AmbulatorySurgeryCenter/Pages/ambulatorysurgerycenter.aspx", "Phone": "7574966400", "Address": "1700 Will-O-Wisp Drive", "Lat": 36.864287, "POC": null, "Date_Creat": 1351555200000, "Long_": -76.025195, "Name": "Virginia Beach Ambulatory Surgery Center", "OBJECTID": 5602, "Ttl_Staff": 0, "Beds": 0, "FIPS": "51810", "Helipad": null, "State_ID": "Virginia Beach Ambulatory Surgery Center", "ID": "0015423454", "NAICS_Des": "General Medical And Surgical Hospitals", "State": "VA", "County": "Virginia Beach", "Owner": null, "Date_Geol": 1362614400000, "ST_FIPS": "51"}},
{"geometry": {"type": "Point", "coordinates": [-76.0488753, 36.8470105]}, "type": "Feature", "properties": {"City": "Virginia Beach", "Zip": "23454", "NAICS": "622210", "Source": "Virginia Department of Health, Health Informatics and Integrated Surveillance Systems", "Type_": "General Acute Care Hospital", "Trauma": "0", "Alt_Name": null, "Method": "Imagery with Other", "Website": "http://www.vbeye.com/", "Phone": "7574815560", "Address": "465 North Great Neck Road", "Lat": 36.84701, "POC": null, "Date_Creat": 1351555200000, "Long_": -76.048875, "Name": "Virginia Beach Eye Center, P.C.", "OBJECTID": 5603, "Ttl_Staff": 0, "Beds": 0, "FIPS": "51810", "Helipad": null, "State_ID": "Virginia Beach Eye Center, P.C.", "ID": "0015523454", "NAICS_Des": "General Medical And Surgical Hospitals", "State": "VA", "County": "Virginia Beach", "Owner": null, "Date_Geol": 1362614400000, "ST_FIPS": "51"}},
{"geometry": {"type": "Point", "coordinates": [-77.4878997, 38.7666936]}, "type": "Feature", "properties": {"City": "Manassas", "Zip": "20110", "NAICS": "622210", "Source": "Virginia Department of Health, Health Informatics and Integrated Surveillance Systems", "Type_": "General Acute Care Hospital", "Trauma": "0", "Alt_Name": null, "Method": "Imagery", "Website": "http://www.pwasc.org/", "Phone": "7033698530", "Address": "8644 Sudley Road", "Lat": 38.766693, "POC": null, "Date_Creat": 1351555200000, "Long_": -77.487899, "Name": "Prince William Ambulatory Surgery Center, L.L.C.", "OBJECTID": 5621, "Ttl_Staff": 0, "Beds": 0, "FIPS": "51683", "Helipad": null, "State_ID": "Prince William Ambulatory Surgery Center, L.L.C.", "ID": "0004120110", "NAICS_Des": "General Medical And Surgical Hospitals", "State": "VA", "County": "Manassas", "Owner": null, "Date_Geol": 1362614400000, "ST_FIPS": "51"}},
{"geometry": {"type": "Point", "coordinates": [-77.4875262, 38.7673136]}, "type": "Feature", "properties": {"City": "Manassas", "Zip": "20110", "NAICS": "622210", "Source": "Virginia Department of Health, Health Informatics and Integrated Surveillance Systems", "Type_": "General Acute Care Hospital", "Trauma": "0", "Alt_Name": null, "Method": "Imagery", "Website": "http://www.pwhs.org/", "Phone": "7033698000", "Address": "8700 Sudley Road", "Lat": 38.767313, "POC": null, "Date_Creat": 1351555200000, "Long_": -77.487526, "Name": "Prince William Hospital", "OBJECTID": 5622, "Ttl_Staff": 0, "Beds": 168, "FIPS": "51683", "Helipad": null, "State_ID": "Prince William Hospital", "ID": "0004220110", "NAICS_Des": "General Medical And Surgical Hospitals", "State": "VA", "County": "Manassas", "Owner": null, "Date_Geol": 1362614400000, "ST_FIPS": "51"}},
{"geometry": {"type": "Point", "coordinates": [-77.4846338, 38.3095204]}, "type": "Feature", "properties": {"City": "Fredericksburg", "Zip": "22401", "NAICS": "622210", "Source": "Virginia Department of Health, Health Informatics and Integrated Surveillance Systems", "Type_": "General Acute Care Hospital", "Trauma": "0", "Alt_Name": null, "Method": "Imagery with Other", "Website": "http://www.marywashingtonhealthcare.com/locations/fredericksburg-ambulatory-surgery-center", "Phone": "5407417000", "Address": "1201 Sam Perry Boulevard", "Lat": 38.30952, "POC": null, "Date_Creat": 1351555200000, "Long_": -77.484633, "Name": "Fredericksburg Ambulatory Surgery Center, L.L.C.", "OBJECTID": 5625, "Ttl_Staff": 0, "Beds": 0, "FIPS": "51630", "Helipad": null, "State_ID": "Fredericksburg Ambulatory Surgery Center, L.L.C.", "ID": "0001022401", "NAICS_Des": "General Medical And Surgical Hospitals", "State": "VA", "County": "Fredericksburg", "Owner": null, "Date_Geol": 1362614400000, "ST_FIPS": "51"}},
{"geometry": {"type": "Point", "coordinates": [-77.4832286, 38.3115219]}, "type": "Feature", "properties": {"City": "Fredericksburg", "Zip": "22401", "NAICS": "622210", "Source": "Virginia Department of Health, Health Informatics and Integrated Surveillance Systems", "Type_": "General Acute Care Hospital", "Trauma": "II", "Alt_Name": null, "Method": "Imagery with Other", "Website": "http://www.marywashingtonhealthcare.com/", "Phone": "5407411100", "Address": "1001 Sam Perry Boulevard", "Lat": 38.311521, "POC": null, "Date_Creat": 1351555200000, "Long_": -77.483228, "Name": "Mary Washington Hospital", "OBJECTID": 5626, "Ttl_Staff": 0, "Beds": 420, "FIPS": "51630", "Helipad": null, "State_ID": "Mary Washington Hospital", "ID": "0001222401", "NAICS_Des": "General Medical And Surgical Hospitals", "State": "VA", "County": "Fredericksburg", "Owner": null, "Date_Geol": 1362614400000, "ST_FIPS": "51"}},
{"geometry": {"type": "Point", "coordinates": [-79.1877663, 37.4382427]}, "type": "Feature", "properties": {"City": "Lynchburg", "Zip": "24503", "NAICS": "622210", "Source": "Virginia Department of Health, Health Informatics and Integrated Surveillance Systems", "Type_": "General Acute Care Hospital", "Trauma": "0", "Alt_Name": null, "Method": "Imagery", "Website": "http://www.centrahealth.com/crcr-restorative-care", "Phone": "4349471790", "Address": "3300 Rivermont Avenue", "Lat": 37.438242, "POC": null, "Date_Creat": 1351555200000, "Long_": -79.187766, "Name": "Center For Restorative Care And Rehabilitation", "OBJECTID": 5696, "Ttl_Staff": 0, "Beds": 19, "FIPS": "51680", "Helipad": null, "State_ID": "Center For Restorative Care and Rehabilitation", "ID": "0005224503", "NAICS_Des": "General Medical And Surgical Hospitals", "State": "VA", "County": "Lynchburg", "Owner": null, "Date_Geol": 1362614400000, "ST_FIPS": "51"}},
{"geometry": {"type": "Point", "coordinates": [-79.1716422, 37.4170337]}, "type": "Feature", "properties": {"City": "Lynchburg", "Zip": "24501", "NAICS": "622210", "Source": "Virginia Department of Health, Health Informatics and Integrated Surveillance Systems", "Type_": "General Acute Care Hospital", "Trauma": "II", "Alt_Name": null, "Method": "Imagery", "Website": "http://lgh.centrahealth.com/", "Phone": "4342003000", "Address": "1901 Tate Springs Road", "Lat": 37.417033, "POC": null, "Date_Creat": 1351555200000, "Long_": -79.171642, "Name": "Lynchburg General Hospital", "OBJECTID": 5697, "Ttl_Staff": 0, "Beds": 270, "FIPS": "51680", "Helipad": null, "State_ID": "Lynchburg General Hospital", "ID": "0005324501", "NAICS_Des": "General Medical And Surgical Hospitals", "State": "VA", "County": "Lynchburg", "Owner": null, "Date_Geol": 1362614400000, "ST_FIPS": "51"}},
{"geometry": {"type": "Point", "coordinates": [-79.1775114, 37.4085326]}, "type": "Feature", "properties": {"City": "Lynchburg", "Zip": "24501", "NAICS": "622210", "Source": "Virginia Department of Health, Health Informatics and Integrated Surveillance Systems", "Type_": "General Acute Care Hospital", "Trauma": "0", "Alt_Name": null, "Method": "Imagery with Other", "Website": "http://www.surgerycenteroflynchburg.com/", "Phone": "4349477700", "Address": "2401 Atherholt Road", "Lat": 37.408532, "POC": null, "Date_Creat": 1351555200000, "Long_": -79.177511, "Name": "Surgery Center Of Lynchburg", "OBJECTID": 5698, "Ttl_Staff": 0, "Beds": 0, "FIPS": "51680", "Helipad": null, "State_ID": "Surgery Center of Lynchburg", "ID": "0005524501", "NAICS_Des": "General Medical And Surgical Hospitals", "State": "VA", "County": "Lynchburg", "Owner": null, "Date_Geol": 1362614400000, "ST_FIPS": "51"}},
{"geometry": {"type": "Point", "coordinates": [-79.1878423, 37.4378955]}, "type": "Feature", "properties": {"City": "Lynchburg", "Zip": "24503", "NAICS": "622210", "Source": "Virginia Department of Health, Health Informatics and Integrated Surveillance Systems", "Type_": "General Acute Care Hospital", "Trauma": "0", "Alt_Name": null, "Method": "Imagery", "Website": "http://vbh.centrahealth.com/", "Phone": "4342004000", "Address": "3300 Rivermont Avenue", "Lat": 37.437895, "POC": null, "Date_Creat": 1351555200000, "Long_": -79.187842, "Name": "Virginia Baptist Hospital", "OBJECTID": 5699, "Ttl_Staff": 0, "Beds": 317, "FIPS": "51680", "Helipad": null, "State_ID": "Virginia Baptist Hospital", "ID": "0005624503", "NAICS_Des": "General Medical And Surgical Hospitals", "State": "VA", "County": "Lynchburg", "Owner": null, "Date_Geol": 1362614400000, "ST_FIPS": "51"}},
{"geometry": {"type": "Point", "coordinates": [-80.0302727, 37.2627832]}, "type": "Feature", "properties": {"City": "Salem", "Zip": "24153", "NAICS": "622210", "Source": "Virginia Department of Health, Health Informatics and Integrated Surveillance Systems", "Type_": "General Acute Care Hospital", "Trauma": "0", "Alt_Name": null, "Method": "Imagery", "Website": "http://www.hcavirginia.com/CustomPage.asp?guidCustomContentID={E5BBD809-8C0A-4F5A-A8C0-7D26FCA0A507}", "Phone": "5407723600", "Address": "1802 Braeburn Drive", "Lat": 37.262783, "POC": null, "Date_Creat": 1351555200000, "Long_": -80.030272, "Name": "Blue Ridge Surgery Center", "OBJECTID": 5754, "Ttl_Staff": 0, "Beds": 0, "FIPS": "51775", "Helipad": null, "State_ID": "Blue Ridge Surgery Center", "ID": "0004524153", "NAICS_Des": "General Medical And Surgical Hospitals", "State": "VA", "County": "Salem", "Owner": null, "Date_Geol": 1362614400000, "ST_FIPS": "51"}},
{"geometry": {"type": "Point", "coordinates": [-80.0316691, 37.2633324]}, "type": "Feature", "properties": {"City": "Salem", "Zip": "24153", "NAICS": "622210", "Source": "Virginia Department of Health, Health Informatics and Integrated Surveillance Systems", "Type_": "General Acute Care Hospital", "Trauma": "0", "Alt_Name": null, "Method": "Imagery", "Website": "www.lewis-gale.com", "Phone": "5407764000", "Address": "1900 Electric Road", "Lat": 37.263332, "POC": null, "Date_Creat": 1351555200000, "Long_": -80.031669, "Name": "Lewis Gale Medical Center", "OBJECTID": 5755, "Ttl_Staff": 0, "Beds": 521, "FIPS": "51775", "Helipad": null, "State_ID": "Lewis Gale Medical Center", "ID": "0004824153", "NAICS_Des": "General Medical And Surgical Hospitals", "State": "VA", "County": "Salem", "Owner": null, "Date_Geol": 1362614400000, "ST_FIPS": "51"}},
{"geometry": {"type": "Point", "coordinates": [-80.0662073, 37.2907081]}, "type": "Feature", "properties": {"City": "Salem", "Zip": "24153", "NAICS": "622210", "Source": "Virginia Department of Health, Health Informatics and Integrated Surveillance Systems", "Type_": "General Acute Care Hospital", "Trauma": "0", "Alt_Name": null, "Method": "Imagery with Other", "Website": ".", "Phone": "5403785280", "Address": "438 W. Main Street", "Lat": 37.290708, "POC": null, "Date_Creat": 1351555200000, "Long_": -80.066207, "Name": "Roanoke Valley Center For Sight, L.L.C.", "OBJECTID": 5756, "Ttl_Staff": 0, "Beds": 0, "FIPS": "51775", "Helipad": null, "State_ID": "Roanoke Valley Center For Sight, L.L.C.", "ID": "0004924153", "NAICS_Des": "General Medical And Surgical Hospitals", "State": "VA", "County": "Salem", "Owner": null, "Date_Geol": 1362614400000, "ST_FIPS": "51"}},
{"geometry": {"type": "Point", "coordinates": [-80.0186023, 37.2743459]}, "type": "Feature", "properties": {"City": "Salem", "Zip": "24153", "NAICS": "622210", "Source": "Virginia Department of Health, Health Informatics and Integrated Surveillance Systems", "Type_": "Military Hospital", "Trauma": "0", "Alt_Name": null, "Method": "Imagery", "Website": "http://www.salem.va.gov/", "Phone": "5409822460", "Address": "1970 Roanoke Boulevard", "Lat": 37.274345, "POC": null, "Date_Creat": 1351555200000, "Long_": -80.018602, "Name": "Veterans Affairs Medical Center Salem", "OBJECTID": 5757, "Ttl_Staff": 0, "Beds": 288, "FIPS": "51775", "Helipad": null, "State_ID": "Veterans Affairs Medical Center Salem", "ID": "0005024153", "NAICS_Des": "General Medical And Surgical Hospitals", "State": "VA", "County": "Salem", "Owner": null, "Date_Geol": 1362614400000, "ST_FIPS": "51"}},
{"geometry": {"type": "Point", "coordinates": [-79.5171497, 37.3512006]}, "type": "Feature", "properties": {"City": "Bedford", "Zip": "24523", "NAICS": "622210", "Source": "Virginia Department of Health, Health Informatics and Integrated Surveillance Systems", "Type_": "General Acute Care Hospital", "Trauma": "0", "Alt_Name": null, "Method": "Imagery", "Website": "http://www.carilionclinic.org/Carilion/Bedford+Memorial+Hospital", "Phone": "5405862440", "Address": "1613 Oakwood Street", "Lat": 37.3512, "POC": null, "Date_Creat": 1351555200000, "Long_": -79.517149, "Name": "Bedford Memorial Hospital", "OBJECTID": 5758, "Ttl_Staff": 0, "Beds": 50, "FIPS": "51515", "Helipad": null, "State_ID": "Bedford Memorial Hospital", "ID": "0005124523", "NAICS_Des": "General Medical And Surgical Hospitals", "State": "VA", "County": "Bedford City", "Owner": null, "Date_Geol": 1362614400000, "ST_FIPS": "51"}},
{"geometry": {"type": "Point", "coordinates": [-77.2912639, 37.3080378]}, "type": "Feature", "properties": {"City": "Hopewell", "Zip": "23860", "NAICS": "622210", "Source": "Virginia Department of Health, Health Informatics and Integrated Surveillance Systems", "Type_": "General Acute Care Hospital", "Trauma": "0", "Alt_Name": null, "Method": "Imagery", "Website": "www.johnrandolphmed.com", "Phone": "8045411600", "Address": "411 West Randolph Road", "Lat": 37.308037, "POC": null, "Date_Creat": 1351555200000, "Long_": -77.291263, "Name": "John Randolph Medical Center", "OBJECTID": 5759, "Ttl_Staff": 0, "Beds": 147, "FIPS": "51670", "Helipad": null, "State_ID": "John Randolph Medical Center", "ID": "0009523860", "NAICS_Des": "General Medical And Surgical Hospitals", "State": "VA", "County": "Hopewell", "Owner": null, "Date_Geol": 1362614400000, "ST_FIPS": "51"}},
{"geometry": {"type": "Point", "coordinates": [-79.440955, 37.7785171]}, "type": "Feature", "properties": {"City": "Lexington", "Zip": "24450", "NAICS": "622210", "Source": "Virginia Department of Health, Health Informatics and Integrated Surveillance Systems", "Type_": "General Acute Care Hospital", "Trauma": "0", "Alt_Name": null, "Method": "Imagery with Other", "Website": "http://www.carilionclinic.org/Carilion/csjh", "Phone": "5404583300", "Address": "1 Health Circle", "Lat": 37.778517, "POC": null, "Date_Creat": 1351555200000, "Long_": -79.440954, "Name": "Carilion Stonewall Jackson Hospital", "OBJECTID": 5767, "Ttl_Staff": 0, "Beds": 25, "FIPS": "51678", "Helipad": null, "State_ID": "Carilion Stonewall Jackson Hospital", "ID": "0000324450", "NAICS_Des": "General Medical And Surgical Hospitals", "State": "VA", "County": "Lexington", "Owner": null, "Date_Geol": 1362614400000, "ST_FIPS": "51"}},
{"geometry": {"type": "Point", "coordinates": [-80.7225042, 37.3222239]}, "type": "Feature", "properties": {"City": "Pearisburg", "Zip": "24134", "NAICS": "622210", "Source": "Virginia Department of Health, Health Informatics and Integrated Surveillance Systems", "Type_": "General Acute Care Hospital", "Trauma": "0", "Alt_Name": null, "Method": "Imagery", "Website": "http://www.carilionclinic.org/Carilion/cgch", "Phone": "5409216000", "Address": "1 Taylor Avenue", "Lat": 37.322223, "POC": null, "Date_Creat": 1351555200000, "Long_": -80.722504, "Name": "Carilion Giles Memorial Hospital", "OBJECTID": 5784, "Ttl_Staff": 0, "Beds": 25, "FIPS": "51071", "Helipad": null, "State_ID": "Carilion Giles Memorial Hospital", "ID": "0007124134", "NAICS_Des": "General Medical And Surgical Hospitals", "State": "VA", "County": "Giles", "Owner": null, "Date_Geol": 1362614400000, "ST_FIPS": "51"}},
{"geometry": {"type": "Point", "coordinates": [-76.5417758, 37.4198166]}, "type": "Feature", "properties": {"City": "Gloucester", "Zip": "23061", "NAICS": "622210", "Source": "Virginia Department of Health, Health Informatics and Integrated Surveillance Systems", "Type_": "General Acute Care Hospital", "Trauma": "0", "Alt_Name": null, "Method": "Imagery", "Website": "www.riverside-online.com/rwrh", "Phone": "8046938800", "Address": "7519 Hospital Drive", "Lat": 37.419816, "POC": null, "Date_Creat": 1351555200000, "Long_": -76.541775, "Name": "Riverside Walter Reed Hospital", "OBJECTID": 5785, "Ttl_Staff": 0, "Beds": 67, "FIPS": "51073", "Helipad": null, "State_ID": "Riverside Walter Reed Hospital", "ID": "0015023061", "NAICS_Des": "General Medical And Surgical Hospitals", "State": "VA", "County": "Gloucester", "Owner": null, "Date_Geol": 1362614400000, "ST_FIPS": "51"}},
{"geometry": {"type": "Point", "coordinates": [-77.4124633, 39.0367354]}, "type": "Feature", "properties": {"City": "Sterling", "Zip": "20165", "NAICS": "622210", "Source": "Virginia Department of Health, Health Informatics and Integrated Surveillance Systems", "Type_": "General Acute Care Hospital", "Trauma": "0", "Alt_Name": null, "Method": "Imagery with Other", "Website": ".", "Phone": "7034446060", "Address": "4 Pidgeon Hill Drive", "Lat": 39.036735, "POC": null, "Date_Creat": 1351555200000, "Long_": -77.412463, "Name": "Countryside Ambulatory Surgery Center", "OBJECTID": 5786, "Ttl_Staff": 0, "Beds": 0, "FIPS": "51107", "Helipad": null, "State_ID": "Countryside Ambulatory Surgery Center", "ID": "0003920165", "NAICS_Des": "General Medical And Surgical Hospitals", "State": "VA", "County": "Loudoun", "Owner": null, "Date_Geol": 1362614400000, "ST_FIPS": "51"}},
{"geometry": {"type": "Point", "coordinates": [-77.478022, 39.0739514]}, "type": "Feature", "properties": {"City": "Leesburg", "Zip": "20176", "NAICS": "622210", "Source": "Virginia Department of Health, Health Informatics and Integrated Surveillance Systems", "Type_": "General Acute Care Hospital", "Trauma": "0", "Alt_Name": null, "Method": "Imagery", "Website": "http://www.inova.org/patient-and-visitor-information/facilities/inova-loudoun-hospital/index.jsp", "Phone": "7038586000", "Address": "44045 Riverside Parkway", "Lat": 39.073951, "POC": null, "Date_Creat": 1351555200000, "Long_": -77.478022, "Name": "Inova Loudoun Hospital", "OBJECTID": 5787, "Ttl_Staff": 0, "Beds": 183, "FIPS": "51107", "Helipad": null, "State_ID": "Inova Loudoun Hospital", "ID": "0004020176", "NAICS_Des": "General Medical And Surgical Hospitals", "State": "VA", "County": "Loudoun", "Owner": null, "Date_Geol": 1362614400000, "ST_FIPS": "51"}},
{"geometry": {"type": "Point", "coordinates": [-76.3874946, 37.7012209]}, "type": "Feature", "properties": {"City": "Kilmarnock", "Zip": "22482", "NAICS": "622210", "Source": "Virginia Department of Health, Health Informatics and Integrated Surveillance Systems", "Type_": "General Acute Care Hospital", "Trauma": "0", "Alt_Name": null, "Method": "Imagery", "Website": "www.rgh-hospital.com/", "Phone": "8044358000", "Address": "101 Harris Drive", "Lat": 37.70122, "POC": null, "Date_Creat": 1351555200000, "Long_": -76.387494, "Name": "Rappahannock General Hospital", "OBJECTID": 5788, "Ttl_Staff": 0, "Beds": 76, "FIPS": "51103", "Helipad": null, "State_ID": "Rappahannock General Hospital", "ID": "0014822482", "NAICS_Des": "General Medical And Surgical Hospitals", "State": "VA", "County": "Lancaster", "Owner": null, "Date_Geol": 1362614400000, "ST_FIPS": "51"}},
{"geometry": {"type": "Point", "coordinates": [-76.4418992, 36.8685726]}, "type": "Feature", "properties": {"City": "Suffolk", "Zip": "23435", "NAICS": "622210", "Source": "Virginia Department of Health, Health Informatics and Integrated Surveillance Systems", "Type_": "General Acute Care Hospital", "Trauma": "0", "Alt_Name": null, "Method": "Imagery", "Website": "http://www.bonsecourshamptonroads.com/find-a-facility-harbour-view-health-center.html", "Phone": "7576735800", "Address": "5818 Harbour View Boulevard", "Lat": 36.868572, "POC": null, "Date_Creat": 1351555200000, "Long_": -76.441899, "Name": "Bon Secours Health Center At Harbour View", "OBJECTID": 5794, "Ttl_Staff": 0, "Beds": 0, "FIPS": "51800", "Helipad": null, "State_ID": "Bon Secours Health Center at Harbour View", "ID": "0015623435", "NAICS_Des": "General Medical And Surgical Hospitals", "State": "VA", "County": "Suffolk", "Owner": null, "Date_Geol": 1362614400000, "ST_FIPS": "51"}},
{"geometry": {"type": "Point", "coordinates": [-76.5945602, 36.7605491]}, "type": "Feature", "properties": {"City": "Suffolk", "Zip": "23434", "NAICS": "622210", "Source": "Virginia Department of Health, Health Informatics and Integrated Surveillance Systems", "Type_": "General Acute Care Hospital", "Trauma": "0", "Alt_Name": null, "Method": "Imagery", "Website": "http://www.lakeviewmed.org/index.cfm/fuseaction/site.physicians/action/dtl/phys/99842375.cfm", "Phone": "7575390250", "Address": "2000 Meade Parkway", "Lat": 36.760549, "POC": null, "Date_Creat": 1351555200000, "Long_": -76.59456, "Name": "Lakeview Medical Center", "OBJECTID": 5795, "Ttl_Staff": 0, "Beds": 0, "FIPS": "51800", "Helipad": null, "State_ID": "Lakeview Medical Center", "ID": "0015723434", "NAICS_Des": "General Medical And Surgical Hospitals", "State": "VA", "County": "Suffolk", "Owner": null, "Date_Geol": 1362614400000, "ST_FIPS": "51"}},
{"geometry": {"type": "Point", "coordinates": [-76.5811112, 36.7733147]}, "type": "Feature", "properties": {"City": "Suffolk", "Zip": "23434", "NAICS": "622210", "Source": "Virginia Department of Health, Health Informatics and Integrated Surveillance Systems", "Type_": "General Acute Care Hospital", "Trauma": "0", "Alt_Name": null, "Method": "Imagery", "Website": "http://www.sentara.com/HospitalsFacilities/Hospitals/Obici/Pages/obici.aspx", "Phone": "7579344000", "Address": "2800 Godwin Boulevard", "Lat": 36.773314, "POC": null, "Date_Creat": 1351555200000, "Long_": -76.581111, "Name": "Sentara Obici Hospital", "OBJECTID": 5796, "Ttl_Staff": 0, "Beds": 150, "FIPS": "51800", "Helipad": null, "State_ID": "Sentara Obici Hospital", "ID": "0015823434", "NAICS_Des": "General Medical And Surgical Hospitals", "State": "VA", "County": "Suffolk", "Owner": null, "Date_Geol": 1362614400000, "ST_FIPS": "51"}},
{"geometry": {"type": "Point", "coordinates": [-76.3577408, 37.0737097]}, "type": "Feature", "properties": {"City": "Langley Air Force Base", "Zip": "23665", "NAICS": "622210", "Source": "Virginia Department of Health, Health Informatics and Integrated Surveillance Systems", "Type_": "Military Hospital", "Trauma": "0", "Alt_Name": null, "Method": "Imagery", "Website": "http://www.mybaseguide.com/air-force/langley-afb/medical.aspx", "Phone": "7577646800", "Address": "77 Nealy Avenue", "Lat": 37.073709, "POC": null, "Date_Creat": 1351555200000, "Long_": -76.35774, "Name": "Langley Air Force Base Hospital", "OBJECTID": 5825, "Ttl_Staff": 0, "Beds": 40, "FIPS": "51650", "Helipad": null, "State_ID": "Langley Air Force Base Hospital", "ID": "0012223665", "NAICS_Des": "General Medical And Surgical Hospitals", "State": "VA", "County": "Hampton", "Owner": null, "Date_Geol": 1362614400000, "ST_FIPS": "51"}},
{"geometry": {"type": "Point", "coordinates": [-76.3899695, 37.0572565]}, "type": "Feature", "properties": {"City": "Hampton", "Zip": "23666", "NAICS": "622210", "Source": "Virginia Department of Health, Health Informatics and Integrated Surveillance Systems", "Type_": "General Acute Care Hospital", "Trauma": "0", "Alt_Name": null, "Method": "Imagery", "Website": "http://www.sentara.com/HospitalsFacilities/Hospitals/CarePlex/Pages/careplex.aspx", "Phone": "7577361000", "Address": "3000 Coliseum Drive", "Lat": 37.057256, "POC": null, "Date_Creat": 1351555200000, "Long_": -76.389969, "Name": "Sentara Careplex Hospital", "OBJECTID": 5826, "Ttl_Staff": 0, "Beds": 200, "FIPS": "51650", "Helipad": null, "State_ID": "Sentara CarePlex Hospital", "ID": "0012323666", "NAICS_Des": "General Medical And Surgical Hospitals", "State": "VA", "County": "Hampton", "Owner": null, "Date_Geol": 1362614400000, "ST_FIPS": "51"}},
{"geometry": {"type": "Point", "coordinates": [-76.3901541, 37.0563069]}, "type": "Feature", "properties": {"City": "Hampton", "Zip": "23666", "NAICS": "622210", "Source": "Virginia Department of Health, Health Informatics and Integrated Surveillance Systems", "Type_": "General Acute Care Hospital", "Trauma": "0", "Alt_Name": null, "Method": "Imagery", "Website": "http://www.sentara.com/HospitalsFacilities/Hospitals/CarePlex/OutpatientSurgery/Pages/OutpatientSurgeryatCarePlex.aspx", "Phone": "7577361000", "Address": "3000 Coliseum Drive", "Lat": 37.056306, "POC": null, "Date_Creat": 1351555200000, "Long_": -76.390154, "Name": "Sentara Careplex Hospital A.S.C.", "OBJECTID": 5827, "Ttl_Staff": 0, "Beds": 0, "FIPS": "51650", "Helipad": null, "State_ID": "Sentara CarePlex Hospital A.S.C.", "ID": "0012423666", "NAICS_Des": "General Medical And Surgical Hospitals", "State": "VA", "County": "Hampton", "Owner": null, "Date_Geol": 1362614400000, "ST_FIPS": "51"}},
{"geometry": {"type": "Point", "coordinates": [-76.3322569, 37.0153582]}, "type": "Feature", "properties": {"City": "Hampton", "Zip": "23667", "NAICS": "622210", "Source": "Virginia Department of Health, Health Informatics and Integrated Surveillance Systems", "Type_": "Military Hospital", "Trauma": "0", "Alt_Name": null, "Method": "Imagery", "Website": "http://www.hampton.va.gov/", "Phone": "7577229960", "Address": "100 Emancipation Drive", "Lat": 37.015358, "POC": null, "Date_Creat": 1351555200000, "Long_": -76.332256, "Name": "Veterans Affairs Medical Center Hampton", "OBJECTID": 5828, "Ttl_Staff": 0, "Beds": 485, "FIPS": "51650", "Helipad": null, "State_ID": "Veterans Affairs Medical Center Hampton", "ID": "0012523667", "NAICS_Des": "General Medical And Surgical Hospitals", "State": "VA", "County": "Hampton", "Owner": null, "Date_Geol": 1362614400000, "ST_FIPS": "51"}},
{"geometry": {"type": "Point", "coordinates": [-76.4033331, 37.059049]}, "type": "Feature", "properties": {"City": "Newport News", "Zip": "23666", "NAICS": "622210", "Source": "Virginia Department of Health, Health Informatics and Integrated Surveillance Systems", "Type_": "General Acute Care Hospital", "Trauma": "0", "Alt_Name": null, "Method": "Imagery with Other", "Website": ".", "Phone": "7575942800", "Address": "850 Enterprise Pkwy", "Lat": 37.059049, "POC": null, "Date_Creat": 1351555200000, "Long_": -76.403333, "Name": "Riverside Surgery Center- Warwick", "OBJECTID": 5829, "Ttl_Staff": 0, "Beds": 0, "FIPS": "51650", "Helipad": null, "State_ID": "Riverside Surgery Center- Warwick", "ID": "0014323666", "NAICS_Des": "General Medical And Surgical Hospitals", "State": "VA", "County": "Hampton", "Owner": null, "Date_Geol": 1362614400000, "ST_FIPS": "51"}},
{"geometry": {"type": "Point", "coordinates": [-79.8320306, 37.9929072]}, "type": "Feature", "properties": {"City": "Hot Springs", "Zip": "24445", "NAICS": "622210", "Source": "Virginia Department of Health, Health Informatics and Integrated Surveillance Systems", "Type_": "Critical Access", "Trauma": "0", "Alt_Name": null, "Method": "Imagery with Other", "Website": "www.bcchospital.org", "Phone": "5408397000", "Address": "106 Park Lane", "Lat": 37.992907, "POC": null, "Date_Creat": 1351555200000, "Long_": -79.83203, "Name": "Bath County Community Hospital", "OBJECTID": 5830, "Ttl_Staff": 0, "Beds": 25, "FIPS": "51017", "Helipad": null, "State_ID": "Bath County Community Hospital", "ID": "0000224445", "NAICS_Des": "General Medical And Surgical Hospitals", "State": "VA", "County": "Bath", "Owner": null, "Date_Geol": 1362614400000, "ST_FIPS": "51"}},
{"geometry": {"type": "Point", "coordinates": [-78.9867374, 38.0943031]}, "type": "Feature", "properties": {"City": "Fishersville", "Zip": "22939", "NAICS": "622210", "Source": "Virginia Department of Health, Health Informatics and Integrated Surveillance Systems", "Type_": "General Acute Care Hospital", "Trauma": "0", "Alt_Name": null, "Method": "Imagery", "Website": "www.augustamed.com", "Phone": "5403324000", "Address": "78 Medical Center Drive", "Lat": 38.094303, "POC": null, "Date_Creat": 1351555200000, "Long_": -78.986737, "Name": "Augusta Medical Center", "OBJECTID": 5831, "Ttl_Staff": 0, "Beds": 255, "FIPS": "51015", "Helipad": null, "State_ID": "Augusta Medical Center", "ID": "0000122939", "NAICS_Des": "General Medical And Surgical Hospitals", "State": "VA", "County": "Augusta", "Owner": null, "Date_Geol": 1362614400000, "ST_FIPS": "51"}},
{"geometry": {"type": "Point", "coordinates": [-78.8713061, 38.4398952]}, "type": "Feature", "properties": {"City": "Harrisonburg", "Zip": "22801", "NAICS": "622210", "Source": "Virginia Department of Health, Health Informatics and Integrated Surveillance Systems", "Type_": "General Acute Care Hospital", "Trauma": "0", "Alt_Name": null, "Method": "Imagery", "Website": "www.rmhonline.com", "Phone": "5404334100", "Address": "235 Cantrell Avenue", "Lat": 38.439895, "POC": null, "Date_Creat": 1351555200000, "Long_": -78.871306, "Name": "Rockingham Memorial Hospital", "OBJECTID": 5834, "Ttl_Staff": 0, "Beds": 270, "FIPS": "51660", "Helipad": null, "State_ID": "Rockingham Memorial Hospital", "ID": "0000422801", "NAICS_Des": "General Medical And Surgical Hospitals", "State": "VA", "County": "Harrisonburg", "Owner": null, "Date_Geol": 1362614400000, "ST_FIPS": "51"}},
{"geometry": {"type": "Point", "coordinates": [-79.4052813, 36.5780565]}, "type": "Feature", "properties": {"City": "Danville", "Zip": "24541", "NAICS": "622210", "Source": "Virginia Department of Health, Health Informatics and Integrated Surveillance Systems", "Type_": "General Acute Care Hospital", "Trauma": "0", "Alt_Name": null, "Method": "Imagery", "Website": "www.danvilleregional.org", "Phone": "4347992100", "Address": "142 South Main Street", "Lat": 36.578056, "POC": null, "Date_Creat": 1351555200000, "Long_": -79.405281, "Name": "Danville Regional Medical Center", "OBJECTID": 5835, "Ttl_Staff": 0, "Beds": 290, "FIPS": "51590", "Helipad": null, "State_ID": "Danville Regional Medical Center", "ID": "0007624541", "NAICS_Des": "General Medical And Surgical Hospitals", "State": "VA", "County": "Danville", "Owner": null, "Date_Geol": 1362614400000, "ST_FIPS": "51"}},
{"geometry": {"type": "Point", "coordinates": [-79.4025105, 36.5806676]}, "type": "Feature", "properties": {"City": "Danville", "Zip": "24543", "NAICS": "622210", "Source": "Virginia Department of Health, Health Informatics and Integrated Surveillance Systems", "Type_": "General Acute Care Hospital", "Trauma": "0", "Alt_Name": null, "Method": "Imagery with Other", "Website": ".", "Phone": "4347921430", "Address": "1040 Main Street", "Lat": 36.580667, "POC": null, "Date_Creat": 1351555200000, "Long_": -79.40251, "Name": "Piedmont Day Surgery Center", "OBJECTID": 5836, "Ttl_Staff": 0, "Beds": 0, "FIPS": "51590", "Helipad": null, "State_ID": "Piedmont Day Surgery Center", "ID": "0007724541", "NAICS_Des": "General Medical And Surgical Hospitals", "State": "VA", "County": "Danville", "Owner": null, "Date_Geol": 1362614400000, "ST_FIPS": "51"}},
{"geometry": {"type": "Point", "coordinates": [-77.5376831, 36.701576]}, "type": "Feature", "properties": {"City": "Emporia", "Zip": "23847", "NAICS": "622210", "Source": "Virginia Department of Health, Health Informatics and Integrated Surveillance Systems", "Type_": "General Acute Care Hospital", "Trauma": "0", "Alt_Name": null, "Method": "Imagery with Other", "Website": "http://www.svrmc.com", "Phone": "4343484400", "Address": "727 North Main Street", "Lat": 36.701576, "POC": null, "Date_Creat": 1351555200000, "Long_": -77.537683, "Name": "Southern Virginia Regional Medical Center", "OBJECTID": 5837, "Ttl_Staff": 0, "Beds": 80, "FIPS": "51595", "Helipad": null, "State_ID": "Southern Virginia Regional Medical Center", "ID": "0009623847", "NAICS_Des": "General Medical And Surgical Hospitals", "State": "VA", "County": "Emporia", "Owner": null, "Date_Geol": 1362614400000, "ST_FIPS": "51"}},
{"geometry": {"type": "Point", "coordinates": [-77.8090621, 38.712766]}, "type": "Feature", "properties": {"City": "Warrenton", "Zip": "20186", "NAICS": "622210", "Source": "Virginia Department of Health, Health Informatics and Integrated Surveillance Systems", "Type_": "General Acute Care Hospital", "Trauma": "0", "Alt_Name": null, "Method": "Imagery", "Website": "www.fauquierhospital.org", "Phone": "5403472550", "Address": "500 Hospital Drive", "Lat": 38.712765, "POC": null, "Date_Creat": 1351555200000, "Long_": -77.809062, "Name": "Fauquier Hospital", "OBJECTID": 5838, "Ttl_Staff": 0, "Beds": 97, "FIPS": "51061", "Helipad": null, "State_ID": "Fauquier Hospital", "ID": "0001820186", "NAICS_Des": "General Medical And Surgical Hospitals", "State": "VA", "County": "Fauquier", "Owner": null, "Date_Geol": 1362614400000, "ST_FIPS": "51"}},
{"geometry": {"type": "Point", "coordinates": [-79.8903479, 36.9940482]}, "type": "Feature", "properties": {"City": "Rocky Mount", "Zip": "24151", "NAICS": "622210", "Source": "Virginia Department of Health, Health Informatics and Integrated Surveillance Systems", "Type_": "General Acute Care Hospital", "Trauma": "0", "Alt_Name": null, "Method": "Imagery", "Website": "http://www.carilionclinic.org/Carilion/Franklin+Memorial+Hospital", "Phone": "5404835280", "Address": "180 Floyd Avenue", "Lat": 36.994048, "POC": null, "Date_Creat": 1351555200000, "Long_": -79.890347, "Name": "Carilion Franklin Memorial Hospital", "OBJECTID": 5839, "Ttl_Staff": 0, "Beds": 37, "FIPS": "51067", "Helipad": null, "State_ID": "Carilion Franklin Memorial Hospital", "ID": "0008124151", "NAICS_Des": "General Medical And Surgical Hospitals", "State": "VA", "County": "Franklin", "Owner": null, "Date_Geol": 1362614400000, "ST_FIPS": "51"}},
{"geometry": {"type": "Point", "coordinates": [-78.1334484, 36.7336009]}, "type": "Feature", "properties": {"City": "South Hill", "Zip": "23970", "NAICS": "622210", "Source": "Virginia Department of Health, Health Informatics and Integrated Surveillance Systems", "Type_": "General Acute Care Hospital", "Trauma": "0", "Alt_Name": null, "Method": "Imagery", "Website": "www.cmh-sh.org", "Phone": "4344473150", "Address": "125 Buena Vista Circle", "Lat": 36.7336, "POC": null, "Date_Creat": 1351555200000, "Long_": -78.133448, "Name": "Community Memorial Healthcenter", "OBJECTID": 5840, "Ttl_Staff": 0, "Beds": 284, "FIPS": "51117", "Helipad": null, "State_ID": "Community Memorial HealthCenter", "ID": "0011723970", "NAICS_Des": "General Medical And Surgical Hospitals", "State": "VA", "County": "Mecklenburg", "Owner": null, "Date_Geol": 1362614400000, "ST_FIPS": "51"}},
{"geometry": {"type": "Point", "coordinates": [-78.1932257, 39.1947756]}, "type": "Feature", "properties": {"City": "Winchester", "Zip": "22601", "NAICS": "622210", "Source": "Virginia Department of Health, Health Informatics and Integrated Surveillance Systems", "Type_": "General Acute Care Hospital", "Trauma": "0", "Alt_Name": null, "Method": "Imagery", "Website": "http://www.valleyhealthlink.com/?id=407&sid=1", "Phone": "5405368930", "Address": "1860 Amherst Street", "Lat": 39.194775, "POC": null, "Date_Creat": 1351555200000, "Long_": -78.193225, "Name": "Surgi-Center Of Winchester, Inc.", "OBJECTID": 5841, "Ttl_Staff": 0, "Beds": 0, "FIPS": "51840", "Helipad": null, "State_ID": "Surgi-Center of Winchester, Inc.", "ID": "0000722601", "NAICS_Des": "General Medical And Surgical Hospitals", "State": "VA", "County": "Winchester", "Owner": null, "Date_Geol": 1362614400000, "ST_FIPS": "51"}},
{"geometry": {"type": "Point", "coordinates": [-78.1934107, 39.1940024]}, "type": "Feature", "properties": {"City": "Winchester", "Zip": "22601", "NAICS": "622210", "Source": "Virginia Department of Health, Health Informatics and Integrated Surveillance Systems", "Type_": "General Acute Care Hospital", "Trauma": "II", "Alt_Name": null, "Method": "Imagery", "Website": "http://www.valleyhealthlink.com/WMC", "Phone": "5405368000", "Address": "1840 Amherst Street", "Lat": 39.194002, "POC": null, "Date_Creat": 1351555200000, "Long_": -78.19341, "Name": "Winchester Medical Center", "OBJECTID": 5842, "Ttl_Staff": 0, "Beds": 411, "FIPS": "51840", "Helipad": null, "State_ID": "Winchester Medical Center", "ID": "0000922601", "NAICS_Des": "General Medical And Surgical Hospitals", "State": "VA", "County": "Winchester", "Owner": null, "Date_Geol": 1362614400000, "ST_FIPS": "51"}},
{"geometry": {"type": "Point", "coordinates": [-77.1365217, 38.7002445]}, "type": "Feature", "properties": {"City": "Fort Belvoir", "Zip": "22060", "NAICS": "622210", "Source": "Virginia Department of Health, Health Informatics and Integrated Surveillance Systems", "Type_": "Military Hospital", "Trauma": "0", "Alt_Name": null, "Method": "Imagery", "Website": "www.dewitt.wramc.amedd.army.mil/", "Phone": "7038050510", "Address": "9501 Farrell Road", "Lat": 38.700244, "POC": null, "Date_Creat": 1351555200000, "Long_": -77.136521, "Name": "Dewitt Army Community Hospital", "OBJECTID": 5843, "Ttl_Staff": 0, "Beds": 46, "FIPS": "51059", "Helipad": null, "State_ID": "DeWitt Army Community Hospital", "ID": "0002722060", "NAICS_Des": "General Medical And Surgical Hospitals", "State": "VA", "County": "Fairfax", "Owner": null, "Date_Geol": 1362614400000, "ST_FIPS": "51"}},
{"geometry": {"type": "Point", "coordinates": [-77.1606897, 38.7673725]}, "type": "Feature", "properties": {"City": "Alexandria", "Zip": "22310", "NAICS": "622210", "Source": "Virginia Department of Health, Health Informatics and Integrated Surveillance Systems", "Type_": "General Acute Care Hospital", "Trauma": "0", "Alt_Name": null, "Method": "Imagery with Other", "Website": "http://www.inova.org/healthcare-services/womens-health/locations/inova-healthplex/index.jsp", "Phone": "7039229500", "Address": "6355 Walker Lane", "Lat": 38.767372, "POC": null, "Date_Creat": 1351555200000, "Long_": -77.160689, "Name": "Franconia-Springfield Surgery Center", "OBJECTID": 5844, "Ttl_Staff": 0, "Beds": 0, "FIPS": "51059", "Helipad": null, "State_ID": "Franconia-Springfield Surgery Center", "ID": "0002922310", "NAICS_Des": "General Medical And Surgical Hospitals", "State": "VA", "County": "Fairfax", "Owner": null, "Date_Geol": 1362614400000, "ST_FIPS": "51"}},
{"geometry": {"type": "Point", "coordinates": [-77.379849, 38.8845886]}, "type": "Feature", "properties": {"City": "Fairfax", "Zip": "22033", "NAICS": "622210", "Source": "Virginia Department of Health, Health Informatics and Integrated Surveillance Systems", "Type_": "General Acute Care Hospital", "Trauma": "0", "Alt_Name": null, "Method": "Imagery", "Website": "http://www.inova.org/patient-and-visitor-information/facilities/inova-fair-oaks-hospital/index.jsp", "Phone": "7033913600", "Address": "3600 Joseph Siewick Drive", "Lat": 38.884588, "POC": null, "Date_Creat": 1351555200000, "Long_": -77.379848, "Name": "Inova Fair Oaks Hospital", "OBJECTID": 5845, "Ttl_Staff": 0, "Beds": 182, "FIPS": "51059", "Helipad": null, "State_ID": "Inova Fair Oaks Hospital", "ID": "0003022033", "NAICS_Des": "General Medical And Surgical Hospitals", "State": "VA", "County": "Fairfax", "Owner": null, "Date_Geol": 1362614400000, "ST_FIPS": "51"}},
{"geometry": {"type": "Point", "coordinates": [-77.2276801, 38.8581985]}, "type": "Feature", "properties": {"City": "Falls Church", "Zip": "22042", "NAICS": "622210", "Source": "Virginia Department of Health, Health Informatics and Integrated Surveillance Systems", "Type_": "General Acute Care Hospital", "Trauma": "I", "Alt_Name": null, "Method": "Imagery", "Website": "http://www.inova.org/patient-and-visitor-information/facilities/inova-fairfax-hospital/index.jsp", "Phone": "7037764000", "Address": "3300 Gallows Road", "Lat": 38.858198, "POC": null, "Date_Creat": 1351555200000, "Long_": -77.22768, "Name": "Inova Fairfax Hospital", "OBJECTID": 5846, "Ttl_Staff": 0, "Beds": 833, "FIPS": "51059", "Helipad": null, "State_ID": "Inova Fairfax Hospital", "ID": "0003122042", "NAICS_Des": "General Medical And Surgical Hospitals", "State": "VA", "County": "Fairfax", "Owner": null, "Date_Geol": 1362614400000, "ST_FIPS": "51"}},
{"geometry": {"type": "Point", "coordinates": [-77.0770461, 38.7397301]}, "type": "Feature", "properties": {"City": "Alexandria", "Zip": "22306", "NAICS": "622210", "Source": "Virginia Department of Health, Health Informatics and Integrated Surveillance Systems", "Type_": "General Acute Care Hospital", "Trauma": "0", "Alt_Name": null, "Method": "Imagery", "Website": "http://www.inova.org/patient-and-visitor-information/facilities/inova-mount-vernon-hospital/index.jsp", "Phone": "7036647000", "Address": "2501 Parkers Lane", "Lat": 38.73973, "POC": null, "Date_Creat": 1351555200000, "Long_": -77.077046, "Name": "Inova Mount Vernon Hospital", "OBJECTID": 5847, "Ttl_Staff": 0, "Beds": 237, "FIPS": "51059", "Helipad": null, "State_ID": "Inova Mount Vernon Hospital", "ID": "0003222306", "NAICS_Des": "General Medical And Surgical Hospitals", "State": "VA", "County": "Fairfax", "Owner": null, "Date_Geol": 1362614400000, "ST_FIPS": "51"}},
{"geometry": {"type": "Point", "coordinates": [-77.2232548, 38.8542166]}, "type": "Feature", "properties": {"City": "Annandale", "Zip": "22003", "NAICS": "622210", "Source": "Virginia Department of Health, Health Informatics and Integrated Surveillance Systems", "Type_": "General Acute Care Hospital", "Trauma": "0", "Alt_Name": null, "Method": "Imagery with Other", "Website": "http://www.inova.org/", "Phone": "7032077520", "Address": "3289 Woodburn Road", "Lat": 38.854216, "POC": null, "Date_Creat": 1351555200000, "Long_": -77.223254, "Name": "Inova Surgery Center", "OBJECTID": 5848, "Ttl_Staff": 0, "Beds": 0, "FIPS": "51059", "Helipad": null, "State_ID": "Inova Surgery Center", "ID": "0003322003", "NAICS_Des": "General Medical And Surgical Hospitals", "State": "VA", "County": "Fairfax", "Owner": null, "Date_Geol": 1362614400000, "ST_FIPS": "51"}},
{"geometry": {"type": "Point", "coordinates": [-77.2393117, 38.8649388]}, "type": "Feature", "properties": {"City": "Fairfax", "Zip": "22031", "NAICS": "622210", "Source": "Virginia Department of Health, Health Informatics and Integrated Surveillance Systems", "Type_": "General Acute Care Hospital", "Trauma": "0", "Alt_Name": null, "Method": "Imagery with Other", "Website": ".", "Phone": "7032040000", "Address": "8503 Arlington Boulevard", "Lat": 38.864938, "POC": null, "Date_Creat": 1351555200000, "Long_": -77.239311, "Name": "Potomac Ambulatory Surgery Center, L.L.C.", "OBJECTID": 5849, "Ttl_Staff": 0, "Beds": 0, "FIPS": "51059", "Helipad": null, "State_ID": "Potomac Ambulatory Surgery Center, L.L.C.", "ID": "0003522031", "NAICS_Des": "General Medical And Surgical Hospitals", "State": "VA", "County": "Fairfax", "Owner": null, "Date_Geol": 1362614400000, "ST_FIPS": "51"}},
{"geometry": {"type": "Point", "coordinates": [-77.364166, 38.9622236]}, "type": "Feature", "properties": {"City": "Reston", "Zip": "20190", "NAICS": "622210", "Source": "Virginia Department of Health, Health Informatics and Integrated Surveillance Systems", "Type_": "General Acute Care Hospital", "Trauma": "0", "Alt_Name": null, "Method": "Imagery", "Website": "www.restonhospital.com", "Phone": "7036899020", "Address": "1850 Town Center Parkway", "Lat": 38.962223, "POC": null, "Date_Creat": 1351555200000, "Long_": -77.364165, "Name": "Reston Hospital Center", "OBJECTID": 5850, "Ttl_Staff": 0, "Beds": 135, "FIPS": "51059", "Helipad": null, "State_ID": "Reston Hospital Center", "ID": "0003620190", "NAICS_Des": "General Medical And Surgical Hospitals", "State": "VA", "County": "Fairfax", "Owner": null, "Date_Geol": 1362614400000, "ST_FIPS": "51"}},
{"geometry": {"type": "Point", "coordinates": [-77.3645692, 38.9615104]}, "type": "Feature", "properties": {"City": "Reston", "Zip": "20190", "NAICS": "622210", "Source": "Virginia Department of Health, Health Informatics and Integrated Surveillance Systems", "Type_": "General Acute Care Hospital", "Trauma": "0", "Alt_Name": null, "Method": "Imagery", "Website": "http://www.restonsurgerycenter.com/", "Phone": "7036393100", "Address": "1860 Town Center Drive", "Lat": 38.96151, "POC": null, "Date_Creat": 1351555200000, "Long_": -77.364569, "Name": "Reston Surgery Center", "OBJECTID": 5851, "Ttl_Staff": 0, "Beds": 0, "FIPS": "51059", "Helipad": null, "State_ID": "Reston Surgery Center", "ID": "0003720190", "NAICS_Des": "General Medical And Surgical Hospitals", "State": "VA", "County": "Fairfax", "Owner": null, "Date_Geol": 1362614400000, "ST_FIPS": "51"}},
{"geometry": {"type": "Point", "coordinates": [-77.2318887, 38.9135447]}, "type": "Feature", "properties": {"City": "Vienna", "Zip": "22182", "NAICS": "622210", "Source": "Virginia Department of Health, Health Informatics and Integrated Surveillance Systems", "Type_": "General Acute Care Hospital", "Trauma": "0", "Alt_Name": null, "Method": "Imagery with Other", "Website": "http://www.itsallaboutskin.com/", "Phone": "7034420300", "Address": "8301 Old Courthouse Road", "Lat": 38.913544, "POC": null, "Date_Creat": 1351555200000, "Long_": -77.231888, "Name": "Skin Cancer Outpatient Surgical Hospital", "OBJECTID": 5852, "Ttl_Staff": 0, "Beds": 0, "FIPS": "51059", "Helipad": null, "State_ID": "Skin Cancer Outpatient Surgical Hospital", "ID": "0003822182", "NAICS_Des": "General Medical And Surgical Hospitals", "State": "VA", "County": "Fairfax", "Owner": null, "Date_Geol": 1362614400000, "ST_FIPS": "51"}},
{"geometry": {"type": "Point", "coordinates": [-76.8788758, 37.901246]}, "type": "Feature", "properties": {"City": "Tappahannock", "Zip": "22560", "NAICS": "622210", "Source": "Virginia Department of Health, Health Informatics and Integrated Surveillance Systems", "Type_": "General Acute Care Hospital", "Trauma": "0", "Alt_Name": null, "Method": "Imagery", "Website": "www.riverside-online.com/rth", "Phone": "8044433310", "Address": "618 Hospital Road", "Lat": 37.901245, "POC": null, "Date_Creat": 1351555200000, "Long_": -76.878875, "Name": "Riverside Tappahannock Hospital", "OBJECTID": 5870, "Ttl_Staff": 0, "Beds": 67, "FIPS": "51057", "Helipad": null, "State_ID": "Riverside Tappahannock Hospital", "ID": "0014922560", "NAICS_Des": "General Medical And Surgical Hospitals", "State": "VA", "County": "Essex", "Owner": null, "Date_Geol": 1362614400000, "ST_FIPS": "51"}},
{"geometry": {"type": "Point", "coordinates": [-80.5054411, 37.0891023]}, "type": "Feature", "properties": {"City": "Christiansburg", "Zip": "24073", "NAICS": "622210", "Source": "Virginia Department of Health, Health Informatics and Integrated Surveillance Systems", "Type_": "General Acute Care Hospital", "Trauma": "III", "Alt_Name": null, "Method": "Imagery", "Website": "http://www.carilionclinic.org/Carilion/cnrv", "Phone": "5407312000", "Address": "2900 Lamb Circle", "Lat": 37.089102, "POC": null, "Date_Creat": 1351555200000, "Long_": -80.505441, "Name": "Carilion New River Valley Medical Center", "OBJECTID": 5871, "Ttl_Staff": 0, "Beds": 134, "FIPS": "51121", "Helipad": null, "State_ID": "Carilion New River Valley Medical Center", "ID": "0007224073", "NAICS_Des": "General Medical And Surgical Hospitals", "State": "VA", "County": "Montgomery", "Owner": null, "Date_Geol": 1362614400000, "ST_FIPS": "51"}},
{"geometry": {"type": "Point", "coordinates": [-80.4110921, 37.1872867]}, "type": "Feature", "properties": {"City": "Blacksburg", "Zip": "24062", "NAICS": "622210", "Source": "Virginia Department of Health, Health Informatics and Integrated Surveillance Systems", "Type_": "General Acute Care Hospital", "Trauma": "III", "Alt_Name": null, "Method": "Imagery", "Website": "www.mrhospital.com", "Phone": "5409511110", "Address": "3700 South Main Street", "Lat": 37.187286, "POC": null, "Date_Creat": 1351555200000, "Long_": -80.411092, "Name": "Montgomery Regional Hospital", "OBJECTID": 5872, "Ttl_Staff": 0, "Beds": 146, "FIPS": "51121", "Helipad": null, "State_ID": "Montgomery Regional Hospital", "ID": "0007324060", "NAICS_Des": "General Medical And Surgical Hospitals", "State": "VA", "County": "Montgomery", "Owner": null, "Date_Geol": 1362614400000, "ST_FIPS": "51"}},
{"geometry": {"type": "Point", "coordinates": [-80.5054363, 37.0881948]}, "type": "Feature", "properties": {"City": "Christiansburg", "Zip": "24073", "NAICS": "622210", "Source": "Virginia Department of Health, Health Informatics and Integrated Surveillance Systems", "Type_": "General Acute Care Hospital", "Trauma": "0", "Alt_Name": null, "Method": "Imagery", "Website": ".", "Phone": "5406395890", "Address": "2901 Lamb Circle", "Lat": 37.088194, "POC": null, "Date_Creat": 1351555200000, "Long_": -80.505436, "Name": "New River Valley Surgery Center", "OBJECTID": 5873, "Ttl_Staff": 0, "Beds": 0, "FIPS": "51121", "Helipad": null, "State_ID": "New River Valley Surgery Center", "ID": "0007424073", "NAICS_Des": "General Medical And Surgical Hospitals", "State": "VA", "County": "Montgomery", "Owner": null, "Date_Geol": 1362614400000, "ST_FIPS": "51"}},
{"geometry": {"type": "Point", "coordinates": [-76.9786333, 37.5463385]}, "type": "Feature", "properties": {"City": "New Kent", "Zip": "23124", "NAICS": "622210", "Source": "Virginia Department of Health, Health Informatics and Integrated Surveillance Systems", "Type_": "Children", "Trauma": "0", "Alt_Name": null, "Method": "Geocode", "Website": "http://cumberlandhospital.com/", "Phone": "8049662240", "Address": "9407 Cumberland Road", "Lat": 37.546338, "POC": null, "Date_Creat": 1351555200000, "Long_": -76.978633, "Name": "Cumberland Hospital For Children And Adolescents", "OBJECTID": 5874, "Ttl_Staff": 0, "Beds": 110, "FIPS": "51127", "Helipad": null, "State_ID": "Cumberland Hospital for Children and Adolescents", "ID": "0008923124", "NAICS_Des": "Children'S Hospitals, General", "State": "VA", "County": "New Kent", "Owner": null, "Date_Geol": 1362614400000, "ST_FIPS": "51"}},
{"geometry": {"type": "Point", "coordinates": [-77.1272777, 38.8888818]}, "type": "Feature", "properties": {"City": "Arlington", "Zip": "22205", "NAICS": "622210", "Source": "Virginia Department of Health, Health Informatics and Integrated Surveillance Systems", "Type_": "General Acute Care Hospital", "Trauma": "0", "Alt_Name": null, "Method": "Imagery", "Website": "http://www.virginiahospitalcenter.com/", "Phone": "7035585000", "Address": "1701 North George Mason Drive", "Lat": 38.888881, "POC": null, "Date_Creat": 1351555200000, "Long_": -77.127277, "Name": "Virginia Hospital Center", "OBJECTID": 5875, "Ttl_Staff": 0, "Beds": 334, "FIPS": "51013", "Helipad": null, "State_ID": "Virginia Hospital Center", "ID": "0002622205", "NAICS_Des": "General Medical And Surgical Hospitals", "State": "VA", "County": "Arlington", "Owner": null, "Date_Geol": 1362614400000, "ST_FIPS": "51"}}
]}