{"type":"FeatureCollection","features":[
{"geometry": {"type": "Point", "coordinates": [-118.7314009, 48.6530414]}, "type": "Feature", "properties": {"City": "Republic", "Zip": "99166", "NAICS": "622210", "Source": "http://www.doh.wa.gov/DataandStatisticalReports/HealthcareinWashington/HospitalandPatientData/HospitalFinancialData.aspx", "Type_": "General Acute Care Hospital", "Trauma": "V", "Alt_Name": "North Valley Hospital", "Method": "Imagery", "Website": null, "Phone": "5097753333", "Address": "36 North Klondike Road", "Lat": 48.653041, "POC": null, "Date_Creat": 1343952000000, "Long_": -118.7314, "Name": "Ferry County Memorial Hospital", "OBJECTID": 1089, "Ttl_Staff": 0, "Beds": 25, "FIPS": "53019", "Helipad": "1", "State_ID": null, "ID": "0005599166", "NAICS_Des": "General Medical And Surgical Hospitals", "State": "WA", "County": "Ferry", "Owner": "District", "Date_Geol": 1363392000000, "ST_FIPS": "53"}},
{"geometry": {"type": "Point", "coordinates": [-122.580727, 45.6244375]}, "type": "Feature", "properties": {"City": "Vancouver", "Zip": "98668", "NAICS": "622210", "Source": "http://www.doh.wa.gov/DataandStatisticalReports/HealthcareinWashington/HospitalandPatientData/HospitalFinancialData.aspx", "Type_": "General Acute Care Hospital", "Trauma": "II", "Alt_Name": "Legacy Salmon Creek", "Method": "Imagery", "Website": null, "Phone": "3602562000", "Address": "400 Ne Mother Joseph Place", "Lat": 45.624437, "POC": null, "Date_Creat": 1343952000000, "Long_": -122.580726, "Name": "Southwest Washington Medical Center", "OBJECTID": 1090, "Ttl_Staff": 0, "Beds": 360, "FIPS": "53011", "Helipad": "1", "State_ID": null, "ID": "0003798668", "NAICS_Des": "General Medical And Surgical Hospitals", "State": "WA", "County": "Clark", "Owner": "Not For Profit", "Date_Geol": 1363392000000, "ST_FIPS": "53"}},
{"geometry": {"type": "Point", "coordinates": [-123.114415, 47.2258909]}, "type": "Feature", "properties": {"City": "Shelton", "Zip": "98584", "NAICS": "622210", "Source": "http://www.doh.wa.gov/DataandStatisticalReports/HealthcareinWashington/HospitalandPatientData/HospitalFinancialData.aspx", "Type_": "General Acute Care Hospital", "Trauma": "IV", "Alt_Name": "Cascade Medical Center", "Method": "Imagery", "Website": null, "Phone": "3604261611", "Address": "901 Mountain View Drive", "Lat": 47.22589, "POC": null, "Date_Creat": 1343952000000, "Long_": -123.114414, "Name": "Mason General Hospital", "OBJECTID": 1096, "Ttl_Staff": 0, "Beds": 68, "FIPS": "53045", "Helipad": "1", "State_ID": null, "ID": "0000798584", "NAICS_Des": "General Medical And Surgical Hospitals", "State": "WA", "County": "Mason", "Owner": "District", "Date_Geol": 1363392000000, "ST_FIPS": "53"}},
{"geometry": {"type": "Point", "coordinates": [-119.5465259, 48.3965675]}, "type": "Feature", "properties": {"City": "Omak", "Zip": "98841", "NAICS": "622210", "Source": "http://www.doh.wa.gov/DataandStatisticalReports/HealthcareinWashington/HospitalandPatientData/HospitalFinancialData.aspx", "Type_": "General Acute Care Hospital", "Trauma": "IV", "Alt_Name": "North Valley Hospital", "Method": "Imagery", "Website": null, "Phone": "5098261760", "Address": "810 Valley Way", "Lat": 48.396567, "POC": null, "Date_Creat": 1343952000000, "Long_": -119.546525, "Name": "Mid-Valley Hospital", "OBJECTID": 1097, "Ttl_Staff": 0, "Beds": 44, "FIPS": "53047", "Helipad": "1", "State_ID": null, "ID": "0000598841", "NAICS_Des": "General Medical And Surgical Hospitals", "State": "WA", "County": "Okanogan", "Owner": "District", "Date_Geol": 1363392000000, "ST_FIPS": "53"}},
{"geometry": {"type": "Point", "coordinates": [-119.4387312, 48.7070019]}, "type": "Feature", "properties": {"City": "Tonasket", "Zip": "98855", "NAICS": "622210", "Source": "http://www.doh.wa.gov/DataandStatisticalReports/HealthcareinWashington/HospitalandPatientData/HospitalFinancialData.aspx", "Type_": "General Acute Care Hospital", "Trauma": "IV", "Alt_Name": "Mid-Valley Hospital", "Method": "Imagery", "Website": null, "Phone": "5094862151", "Address": "203 Western Avenue", "Lat": 48.707001, "POC": null, "Date_Creat": 1343952000000, "Long_": -119.438731, "Name": "North Valley Hospital", "OBJECTID": 1098, "Ttl_Staff": 0, "Beds": 55, "FIPS": "53047", "Helipad": "1", "State_ID": null, "ID": "0001398855", "NAICS_Des": "General Medical And Surgical Hospitals", "State": "WA", "County": "Okanogan", "Owner": "District", "Date_Geol": 1363392000000, "ST_FIPS": "53"}},
{"geometry": {"type": "Point", "coordinates": [-119.7826329, 48.1062261]}, "type": "Feature", "properties": {"City": "Brewster", "Zip": "98812", "NAICS": "622210", "Source": "http://www.doh.wa.gov/DataandStatisticalReports/HealthcareinWashington/HospitalandPatientData/HospitalFinancialData.aspx", "Type_": "General Acute Care Hospital", "Trauma": "IV", "Alt_Name": "Lake Chelan Community Hospital", "Method": "Imagery", "Website": null, "Phone": "5096892517", "Address": "507 Hospital Way", "Lat": 48.106226, "POC": null, "Date_Creat": 1343952000000, "Long_": -119.782632, "Name": "Okanogan Douglas District Hospital", "OBJECTID": 1099, "Ttl_Staff": 0, "Beds": 44, "FIPS": "53047", "Helipad": "1", "State_ID": null, "ID": "0006198812", "NAICS_Des": "General Medical And Surgical Hospitals", "State": "WA", "County": "Okanogan", "Owner": "District", "Date_Geol": 1363392000000, "ST_FIPS": "53"}},
{"geometry": {"type": "Point", "coordinates": [-122.2803544, 46.5556748]}, "type": "Feature", "properties": {"City": "Morton", "Zip": "98356", "NAICS": "622210", "Source": "http://www.doh.wa.gov/DataandStatisticalReports/HealthcareinWashington/HospitalandPatientData/HospitalFinancialData.aspx", "Type_": "General Acute Care Hospital", "Trauma": "IV", "Alt_Name": "Providence Centralia Hospital", "Method": "Imagery", "Website": null, "Phone": "3604965112", "Address": "521 Adams St", "Lat": 46.555674, "POC": null, "Date_Creat": 1343952000000, "Long_": -122.280354, "Name": "Morton General Hospital", "OBJECTID": 1100, "Ttl_Staff": 0, "Beds": 25, "FIPS": "53041", "Helipad": "1", "State_ID": null, "ID": "0000898356", "NAICS_Des": "General Medical And Surgical Hospitals", "State": "WA", "County": "Lewis", "Owner": "District", "Date_Geol": 1363392000000, "ST_FIPS": "53"}},
{"geometry": {"type": "Point", "coordinates": [-122.9855806, 46.7124045]}, "type": "Feature", "properties": {"City": "Centralia", "Zip": "98531", "NAICS": "622210", "Source": "http://www.doh.wa.gov/DataandStatisticalReports/HealthcareinWashington/HospitalandPatientData/HospitalFinancialData.aspx", "Type_": "General Acute Care Hospital", "Trauma": "IV", "Alt_Name": "Capital Medical Center", "Method": "Imagery", "Website": null, "Phone": "3607362803", "Address": "914 South Scheuber Road", "Lat": 46.712404, "POC": null, "Date_Creat": 1343952000000, "Long_": -122.98558, "Name": "Providence Centralia Hospital", "OBJECTID": 1101, "Ttl_Staff": 0, "Beds": 191, "FIPS": "53041", "Helipad": "1", "State_ID": null, "ID": "0006698531", "NAICS_Des": "General Medical And Surgical Hospitals", "State": "WA", "County": "Lewis", "Owner": "Not For Profit", "Date_Geol": 1363392000000, "ST_FIPS": "53"}},
{"geometry": {"type": "Point", "coordinates": [-118.6825045, 47.3311891]}, "type": "Feature", "properties": {"City": "Odessa", "Zip": "99159", "NAICS": "622210", "Source": "http://www.doh.wa.gov/DataandStatisticalReports/HealthcareinWashington/HospitalandPatientData/HospitalFinancialData.aspx", "Type_": "General Acute Care Hospital", "Trauma": "V", "Alt_Name": "East Adams Rural Hospital", "Method": "Imagery", "Website": null, "Phone": "5099822611", "Address": "502 Amende Dr", "Lat": 47.331189, "POC": null, "Date_Creat": 1343952000000, "Long_": -118.682504, "Name": "Odessa Memorial Healthcare Center", "OBJECTID": 1102, "Ttl_Staff": 0, "Beds": 25, "FIPS": "53043", "Helipad": "1", "State_ID": null, "ID": "0002099159", "NAICS_Des": "General Medical And Surgical Hospitals", "State": "WA", "County": "Lincoln", "Owner": "District", "Date_Geol": 1363392000000, "ST_FIPS": "53"}},
{"geometry": {"type": "Point", "coordinates": [-118.1453598, 47.6579277]}, "type": "Feature", "properties": {"City": "Davenport", "Zip": "99122", "NAICS": "622210", "Source": "http://www.doh.wa.gov/DataandStatisticalReports/HealthcareinWashington/HospitalandPatientData/HospitalFinancialData.aspx", "Type_": "General Acute Care Hospital", "Trauma": "V", "Alt_Name": "Odessa Memorial Hospital", "Method": "Imagery", "Website": null, "Phone": "5097257101", "Address": "10 Nichols St", "Lat": 47.657927, "POC": null, "Date_Creat": 1343952000000, "Long_": -118.145359, "Name": "Lincoln Hospital", "OBJECTID": 1103, "Ttl_Staff": 0, "Beds": 60, "FIPS": "53043", "Helipad": "1", "State_ID": null, "ID": "0008099122", "NAICS_Des": "General Medical And Surgical Hospitals", "State": "WA", "County": "Lincoln", "Owner": "District", "Date_Geol": 1363392000000, "ST_FIPS": "53"}},
{"geometry": {"type": "Point", "coordinates": [-124.0426308, 46.3114343]}, "type": "Feature", "properties": {"City": "Ilwaco", "Zip": "98624", "NAICS": "622210", "Source": "http://www.doh.wa.gov/DataandStatisticalReports/HealthcareinWashington/HospitalandPatientData/HospitalFinancialData.aspx", "Type_": "General Acute Care Hospital", "Trauma": "IV", "Alt_Name": "Willapa Harbor Hospital", "Method": "Imagery", "Website": null, "Phone": "3606423181", "Address": "176 1St Avenue North", "Lat": 46.311434, "POC": null, "Date_Creat": 1343952000000, "Long_": -124.04263, "Name": "Ocean Beach Hospital", "OBJECTID": 1104, "Ttl_Staff": 0, "Beds": 25, "FIPS": "53049", "Helipad": "1", "State_ID": null, "ID": "0001498624", "NAICS_Des": "General Medical And Surgical Hospitals", "State": "WA", "County": "Pacific", "Owner": "District", "Date_Geol": 1363392000000, "ST_FIPS": "53"}},
{"geometry": {"type": "Point", "coordinates": [-123.8122912, 46.6628208]}, "type": "Feature", "properties": {"City": "South Bend", "Zip": "98586", "NAICS": "622210", "Source": "http://www.doh.wa.gov/DataandStatisticalReports/HealthcareinWashington/HospitalandPatientData/HospitalFinancialData.aspx", "Type_": "General Acute Care Hospital", "Trauma": "V", "Alt_Name": "Grays Harbor Community Hospital - West", "Method": "Imagery", "Website": null, "Phone": "3608755526", "Address": "800 Alder Street", "Lat": 46.66282, "POC": null, "Date_Creat": 1343952000000, "Long_": -123.812291, "Name": "Willapa Harbor Hospital", "OBJECTID": 1105, "Ttl_Staff": 0, "Beds": 26, "FIPS": "53049", "Helipad": "1", "State_ID": null, "ID": "0001598586", "NAICS_Des": "General Medical And Surgical Hospitals", "State": "WA", "County": "Pacific", "Owner": "District", "Date_Geol": 1363392000000, "ST_FIPS": "53"}},
{"geometry": {"type": "Point", "coordinates": [-122.2763179, 48.4960859]}, "type": "Feature", "properties": {"City": "Sedro-Woolley", "Zip": "98204", "NAICS": "622210", "Source": "http://www.doh.wa.gov/DataandStatisticalReports/HealthcareinWashington/HospitalandPatientData/HospitalFinancialData.aspx", "Type_": "General Acute Care Hospital", "Trauma": "IV", "Alt_Name": "Skagit Valley Hospital", "Method": "Imagery", "Website": null, "Phone": "3608566021", "Address": "2000 Hospital Drive", "Lat": 48.496085, "POC": null, "Date_Creat": 1343952000000, "Long_": -122.276317, "Name": "United General Hospital", "OBJECTID": 1113, "Ttl_Staff": 0, "Beds": 97, "FIPS": "53057", "Helipad": "1", "State_ID": null, "ID": "0000398204", "NAICS_Des": "General Medical And Surgical Hospitals", "State": "WA", "County": "Skagit", "Owner": "District", "Date_Geol": 1363392000000, "ST_FIPS": "53"}},
{"geometry": {"type": "Point", "coordinates": [-122.3240431, 48.4178697]}, "type": "Feature", "properties": {"City": "Mt Vernon", "Zip": "98273", "NAICS": "622210", "Source": "http://www.doh.wa.gov/DataandStatisticalReports/HealthcareinWashington/HospitalandPatientData/HospitalFinancialData.aspx", "Type_": "General Acute Care Hospital", "Trauma": "III", "Alt_Name": "United General Hospital", "Method": "Imagery", "Website": null, "Phone": "3604244111", "Address": "1415 Kincaid St E", "Lat": 48.417869, "POC": null, "Date_Creat": 1343952000000, "Long_": -122.324043, "Name": "Skagit Valley Hospital", "OBJECTID": 1114, "Ttl_Staff": 0, "Beds": 137, "FIPS": "53057", "Helipad": "1", "State_ID": null, "ID": "0002398273", "NAICS_Des": "General Medical And Surgical Hospitals", "State": "WA", "County": "Skagit", "Owner": "District", "Date_Geol": 1363392000000, "ST_FIPS": "53"}},
{"geometry": {"type": "Point", "coordinates": [-122.6156668, 48.5019288]}, "type": "Feature", "properties": {"City": "Anacortes", "Zip": "98221", "NAICS": "622210", "Source": "http://www.doh.wa.gov/DataandStatisticalReports/HealthcareinWashington/HospitalandPatientData/HospitalFinancialData.aspx", "Type_": "General Acute Care Hospital", "Trauma": "III", "Alt_Name": "Skagit Valley Hospital", "Method": "Imagery", "Website": null, "Phone": "3602991300", "Address": "1211 24Th St", "Lat": 48.501928, "POC": null, "Date_Creat": 1343952000000, "Long_": -122.615666, "Name": "Island Hospital", "OBJECTID": 1115, "Ttl_Staff": 0, "Beds": 43, "FIPS": "53057", "Helipad": "1", "State_ID": null, "ID": "0007798221", "NAICS_Des": "General Medical And Surgical Hospitals", "State": "WA", "County": "Skagit", "Owner": "District", "Date_Geol": 1363392000000, "ST_FIPS": "53"}},
{"geometry": {"type": "Point", "coordinates": [-122.5522702, 47.1086698]}, "type": "Feature", "properties": {"City": "Tacoma", "Zip": "98431", "NAICS": "622210", "Source": "http://www.doh.wa.gov/DataandStatisticalReports/HealthcareinWashington/HospitalandPatientData/HospitalFinancialData.aspx", "Type_": "General Acute Care Hospital", "Trauma": "II", "Alt_Name": null, "Method": "Imagery", "Website": null, "Phone": "2539681215", "Address": "1 Madigan Ave, Ft. Lewis", "Lat": 47.108669, "POC": null, "Date_Creat": 1343952000000, "Long_": -122.55227, "Name": "Madigan Army Medical Center", "OBJECTID": 1116, "Ttl_Staff": 0, "Beds": 200, "FIPS": "53053", "Helipad": "1", "State_ID": null, "ID": "0000298431", "NAICS_Des": "General Medical And Surgical Hospitals", "State": "WA", "County": "Pierce", "Owner": "Military", "Date_Geol": 1363392000000, "ST_FIPS": "53"}},
{"geometry": {"type": "Point", "coordinates": [-122.4481749, 47.245991]}, "type": "Feature", "properties": {"City": "Tacoma", "Zip": "98405", "NAICS": "622210", "Source": "http://www.doh.wa.gov/DataandStatisticalReports/HealthcareinWashington/HospitalandPatientData/HospitalFinancialData.aspx", "Type_": "General Acute Care Hospital", "Trauma": "II", "Alt_Name": "Mary Bridge Children's Hospital and Health Center", "Method": "Imagery", "Website": null, "Phone": "2536274101", "Address": "1717 South J St", "Lat": 47.24599, "POC": null, "Date_Creat": 1343952000000, "Long_": -122.448174, "Name": "St. Joseph Medical Center", "OBJECTID": 1117, "Ttl_Staff": 0, "Beds": 320, "FIPS": "53053", "Helipad": "1", "State_ID": null, "ID": "0000698405", "NAICS_Des": "General Medical And Surgical Hospitals", "State": "WA", "County": "Pierce", "Owner": "Not For Profit", "Date_Geol": 1363392000000, "ST_FIPS": "53"}},
{"geometry": {"type": "Point", "coordinates": [-122.28953, 47.17918]}, "type": "Feature", "properties": {"City": "Puyallup", "Zip": "98372", "NAICS": "622210", "Source": "http://www.doh.wa.gov/DataandStatisticalReports/HealthcareinWashington/HospitalandPatientData/HospitalFinancialData.aspx", "Type_": "General Acute Care Hospital", "Trauma": "III", "Alt_Name": "Auburn Regional Medical Center", "Method": "Imagery", "Website": null, "Phone": "2538486661", "Address": "407 14Th Ave Se", "Lat": 47.17918, "POC": null, "Date_Creat": 1343952000000, "Long_": -122.28953, "Name": "Multicare Good Samaritan Hospital", "OBJECTID": 1122, "Ttl_Staff": 0, "Beds": 200, "FIPS": "53053", "Helipad": "1", "State_ID": null, "ID": "0010698372", "NAICS_Des": "General Medical And Surgical Hospitals", "State": "WA", "County": "Pierce", "Owner": "Not For Profit", "Date_Geol": 1363392000000, "ST_FIPS": "53"}},
{"geometry": {"type": "Point", "coordinates": [-122.4527665, 47.2606634]}, "type": "Feature", "properties": {"City": "Tacoma", "Zip": "98405", "NAICS": "622210", "Source": "http://www.doh.wa.gov/DataandStatisticalReports/HealthcareinWashington/HospitalandPatientData/HospitalFinancialData.aspx", "Type_": "General Acute Care Hospital", "Trauma": "II", "Alt_Name": "Mary Bridge Children's Hospital and Health Center", "Method": "Imagery", "Website": null, "Phone": "2534031000", "Address": "315 Martin Luther King Jr. Way", "Lat": 47.260663, "POC": null, "Date_Creat": 1343952000000, "Long_": -122.452766, "Name": "Tacoma General Hospital", "OBJECTID": 1123, "Ttl_Staff": 0, "Beds": 391, "FIPS": "53053", "Helipad": "1", "State_ID": null, "ID": "0010898405", "NAICS_Des": "General Medical And Surgical Hospitals", "State": "WA", "County": "Pierce", "Owner": "Not For Profit", "Date_Geol": 1363392000000, "ST_FIPS": "53"}},
{"geometry": {"type": "Point", "coordinates": [-122.50204, 47.15431]}, "type": "Feature", "properties": {"City": "Tacoma", "Zip": "98499", "NAICS": "622210", "Source": "http://www.doh.wa.gov/DataandStatisticalReports/HealthcareinWashington/HospitalandPatientData/HospitalFinancialData.aspx", "Type_": "General Acute Care Hospital", "Trauma": "IV", "Alt_Name": "Saint Joseph Medical Center", "Method": "Imagery", "Website": null, "Phone": "2535881711", "Address": "11315 Bridgeport Way Sw", "Lat": 47.15431, "POC": null, "Date_Creat": 1343952000000, "Long_": -122.50204, "Name": "St. Clare Hospital", "OBJECTID": 1124, "Ttl_Staff": 0, "Beds": 106, "FIPS": "53053", "Helipad": "1", "State_ID": null, "ID": "0011498499", "NAICS_Des": "General Medical And Surgical Hospitals", "State": "WA", "County": "Pierce", "Owner": "Not For Profit", "Date_Geol": 1363392000000, "ST_FIPS": "53"}},
{"geometry": {"type": "Point", "coordinates": [-122.6135502, 47.3630227]}, "type": "Feature", "properties": {"City": "Gig Harbor", "Zip": "98332", "NAICS": "622210", "Source": "http://www.doh.wa.gov/DataandStatisticalReports/HealthcareinWashington/HospitalandPatientData/HospitalFinancialData.aspx", "Type_": "General Acute Care Hospital", "Trauma": "IV", "Alt_Name": null, "Method": "Imagery", "Website": null, "Phone": null, "Address": "11567 Canterwood Blvd Nw", "Lat": 47.363022, "POC": null, "Date_Creat": 1343952000000, "Long_": -122.61355, "Name": "St. Anthony Hospital", "OBJECTID": 1126, "Ttl_Staff": 0, "Beds": 80, "FIPS": "53053", "Helipad": "1", "State_ID": null, "ID": "0011898332", "NAICS_Des": "General Medical And Surgical Hospitals", "State": "WA", "County": "Pierce", "Owner": null, "Date_Geol": 1363392000000, "ST_FIPS": "53"}},
{"geometry": {"type": "Point", "coordinates": [-117.0491978, 48.1824222]}, "type": "Feature", "properties": {"City": "Newport", "Zip": "99156", "NAICS": "622210", "Source": "http://www.doh.wa.gov/DataandStatisticalReports/HealthcareinWashington/HospitalandPatientData/HospitalFinancialData.aspx", "Type_": "General Acute Care Hospital", "Trauma": "IV", "Alt_Name": "Deer Park Health Center & Hospital", "Method": "Imagery", "Website": null, "Phone": "5094472441", "Address": "714 West Pine St.", "Lat": 48.182422, "POC": null, "Date_Creat": 1343952000000, "Long_": -117.049197, "Name": "Newport Hospital & Health Services", "OBJECTID": 1128, "Ttl_Staff": 0, "Beds": 74, "FIPS": "53051", "Helipad": "1", "State_ID": null, "ID": "0007099156", "NAICS_Des": "General Medical And Surgical Hospitals", "State": "WA", "County": "Pend Oreille", "Owner": "District", "Date_Geol": 1363392000000, "ST_FIPS": "53"}},
{"geometry": {"type": "Point", "coordinates": [-117.3760498, 46.8689303]}, "type": "Feature", "properties": {"City": "Colfax", "Zip": "99111", "NAICS": "622210", "Source": "http://www.doh.wa.gov/DataandStatisticalReports/HealthcareinWashington/HospitalandPatientData/HospitalFinancialData.aspx", "Type_": "General Acute Care Hospital", "Trauma": "V", "Alt_Name": "Pullman Memorial Hospital", "Method": "Imagery", "Website": null, "Phone": "5093973435", "Address": "1200 West Fairview Road", "Lat": 46.86893, "POC": null, "Date_Creat": 1343952000000, "Long_": -117.376049, "Name": "Whitman Hospital And Medical Center", "OBJECTID": 1130, "Ttl_Staff": 0, "Beds": 25, "FIPS": "53075", "Helipad": "1", "State_ID": null, "ID": "0001699111", "NAICS_Des": "General Medical And Surgical Hospitals", "State": "WA", "County": "Whitman", "Owner": "District", "Date_Geol": 1363392000000, "ST_FIPS": "53"}},
{"geometry": {"type": "Point", "coordinates": [-117.169806, 46.7123882]}, "type": "Feature", "properties": {"City": "Pullman", "Zip": "99163", "NAICS": "622210", "Source": "http://www.doh.wa.gov/DataandStatisticalReports/HealthcareinWashington/HospitalandPatientData/HospitalFinancialData.aspx", "Type_": "General Acute Care Hospital", "Trauma": "IV", "Alt_Name": "Whitman Hospital and Medical Center", "Method": "Imagery with Other", "Website": null, "Phone": "5093322541", "Address": "835 Southeast Bishop Boulevard", "Lat": 46.712388, "POC": null, "Date_Creat": 1343952000000, "Long_": -117.169805, "Name": "Pullman Regional Hospital", "OBJECTID": 1131, "Ttl_Staff": 0, "Beds": 42, "FIPS": "53075", "Helipad": "1", "State_ID": null, "ID": "0003399163", "NAICS_Des": "General Medical And Surgical Hospitals", "State": "WA", "County": "Whitman", "Owner": "District", "Date_Geol": 1363392000000, "ST_FIPS": "53"}},
{"geometry": {"type": "Point", "coordinates": [-120.3170575, 46.3708448]}, "type": "Feature", "properties": {"City": "Toppenish", "Zip": "98948", "NAICS": "622210", "Source": "http://www.doh.wa.gov/DataandStatisticalReports/HealthcareinWashington/HospitalandPatientData/HospitalFinancialData.aspx", "Type_": "General Acute Care Hospital", "Trauma": "IV", "Alt_Name": "Sunnyside Community Hospital", "Method": "Imagery", "Website": null, "Phone": "5098653105", "Address": "502 W 4Th Ave", "Lat": 46.370844, "POC": null, "Date_Creat": 1343952000000, "Long_": -120.317057, "Name": "Toppenish Community Hospital", "OBJECTID": 1132, "Ttl_Staff": 0, "Beds": 63, "FIPS": "53077", "Helipad": "1", "State_ID": null, "ID": "0004698948", "NAICS_Des": "General Medical And Surgical Hospitals", "State": "WA", "County": "Yakima", "Owner": "Not For Profit", "Date_Geol": 1363392000000, "ST_FIPS": "53"}},
{"geometry": {"type": "Point", "coordinates": [-120.5210269, 46.5969318]}, "type": "Feature", "properties": {"City": "Yakima", "Zip": "98902", "NAICS": "622210", "Source": "http://www.doh.wa.gov/DataandStatisticalReports/HealthcareinWashington/HospitalandPatientData/HospitalFinancialData.aspx", "Type_": "General Acute Care Hospital", "Trauma": "III", "Alt_Name": "Yakima Valley Memorial Hospital", "Method": "Imagery", "Website": null, "Phone": "5095755000", "Address": "110 S 9Th Ave", "Lat": 46.596931, "POC": null, "Date_Creat": 1343952000000, "Long_": -120.521026, "Name": "Yakima Regional Medical And Cardiac Center", "OBJECTID": 1133, "Ttl_Staff": 0, "Beds": 214, "FIPS": "53077", "Helipad": "1", "State_ID": null, "ID": "0004798902", "NAICS_Des": "General Medical And Surgical Hospitals", "State": "WA", "County": "Yakima", "Owner": "Not For Profit", "Date_Geol": 1363392000000, "ST_FIPS": "53"}},
{"geometry": {"type": "Point", "coordinates": [-120.0066818, 46.3224796]}, "type": "Feature", "properties": {"City": "Sunnyside", "Zip": "98944", "NAICS": "622210", "Source": "http://www.doh.wa.gov/DataandStatisticalReports/HealthcareinWashington/HospitalandPatientData/HospitalFinancialData.aspx", "Type_": "General Acute Care Hospital", "Trauma": "IV", "Alt_Name": "Prosser Memorial Hospital", "Method": "Imagery", "Website": null, "Phone": "5098371500", "Address": "1016 Tacoma Avenue", "Lat": 46.322479, "POC": null, "Date_Creat": 1343952000000, "Long_": -120.006681, "Name": "Sunnyside Community Hospital", "OBJECTID": 1134, "Ttl_Staff": 0, "Beds": 25, "FIPS": "53077", "Helipad": "1", "State_ID": null, "ID": "0008598944", "NAICS_Des": "General Medical And Surgical Hospitals", "State": "WA", "County": "Yakima", "Owner": "Not For Profit", "Date_Geol": 1363392000000, "ST_FIPS": "53"}},
{"geometry": {"type": "Point", "coordinates": [-120.5479465, 46.5937452]}, "type": "Feature", "properties": {"City": "Yakima", "Zip": "98902", "NAICS": "622210", "Source": "http://www.doh.wa.gov/DataandStatisticalReports/HealthcareinWashington/HospitalandPatientData/HospitalFinancialData.aspx", "Type_": "General Acute Care Hospital", "Trauma": "III", "Alt_Name": "Providence Yakima Medical Center", "Method": "Imagery", "Website": null, "Phone": "5095758000", "Address": "2811 Tieton Drive", "Lat": 46.593745, "POC": null, "Date_Creat": 1343952000000, "Long_": -120.547946, "Name": "Yakima Valley Memorial Hospital", "OBJECTID": 1135, "Ttl_Staff": 0, "Beds": 226, "FIPS": "53077", "Helipad": "1", "State_ID": null, "ID": "0010398902", "NAICS_Des": "General Medical And Surgical Hospitals", "State": "WA", "County": "Yakima", "Owner": "Not For Profit", "Date_Geol": 1363392000000, "ST_FIPS": "53"}},
{"geometry": {"type": "Point", "coordinates": [-122.4729794, 48.7732684]}, "type": "Feature", "properties": {"City": "Bellingham", "Zip": "98225", "NAICS": "622210", "Source": "http://www.doh.wa.gov/DataandStatisticalReports/HealthcareinWashington/HospitalandPatientData/HospitalFinancialData.aspx", "Type_": "General Acute Care Hospital", "Trauma": "III", "Alt_Name": "Skagit Valley Hospital", "Method": "Imagery", "Website": null, "Phone": "3607345400", "Address": "2901 Squalicum Parkway", "Lat": 48.773268, "POC": null, "Date_Creat": 1343952000000, "Long_": -122.472979, "Name": "St. Joseph Hospital", "OBJECTID": 1137, "Ttl_Staff": 0, "Beds": 253, "FIPS": "53073", "Helipad": "1", "State_ID": null, "ID": "0008398225", "NAICS_Des": "General Medical And Surgical Hospitals", "State": "WA", "County": "Whatcom", "Owner": "Not For Profit", "Date_Geol": 1363392000000, "ST_FIPS": "53"}},
{"geometry": {"type": "Point", "coordinates": [-117.406725, 47.7097544]}, "type": "Feature", "properties": {"City": "Spokane", "Zip": "99207", "NAICS": "622210", "Source": "http://www.doh.wa.gov/DataandStatisticalReports/HealthcareinWashington/HospitalandPatientData/HospitalFinancialData.aspx", "Type_": "General Acute Care Hospital", "Trauma": "III", "Alt_Name": "Shriners Hospital for Crippled Children-Spokane Unit", "Method": "Imagery", "Website": null, "Phone": "5094820111", "Address": "5633 N. Lidgerwood St", "Lat": 47.709754, "POC": null, "Date_Creat": 1343952000000, "Long_": -117.406725, "Name": "Providence Holy Family Hospital", "OBJECTID": 1140, "Ttl_Staff": 0, "Beds": 272, "FIPS": "53063", "Helipad": "1", "State_ID": null, "ID": "0001999207", "NAICS_Des": "General Medical And Surgical Hospitals", "State": "WA", "County": "Spokane", "Owner": "Not For Profit", "Date_Geol": 1363392000000, "ST_FIPS": "53"}},
{"geometry": {"type": "Point", "coordinates": [-117.2354709, 47.6707643]}, "type": "Feature", "properties": {"City": "Spokane", "Zip": "99216", "NAICS": "622210", "Source": "http://www.doh.wa.gov/DataandStatisticalReports/HealthcareinWashington/HospitalandPatientData/HospitalFinancialData.aspx", "Type_": "General Acute Care Hospital", "Trauma": "III", "Alt_Name": "Saint Luke's Rehabilitation Institute", "Method": "Imagery", "Website": null, "Phone": "5099246650", "Address": "12606 Mission Ave E", "Lat": 47.670764, "POC": null, "Date_Creat": 1343952000000, "Long_": -117.23547, "Name": "Valley Hospital And Medical Center", "OBJECTID": 1143, "Ttl_Staff": 0, "Beds": 123, "FIPS": "53063", "Helipad": "1", "State_ID": null, "ID": "0003999216", "NAICS_Des": "General Medical And Surgical Hospitals", "State": "WA", "County": "Spokane", "Owner": "Not For Profit", "Date_Geol": 1363392000000, "ST_FIPS": "53"}},
{"geometry": {"type": "Point", "coordinates": [-122.2167608, 47.9755933]}, "type": "Feature", "properties": {"City": "Everett", "Zip": "98206", "NAICS": "622210", "Source": "http://www.doh.wa.gov/DataandStatisticalReports/HealthcareinWashington/HospitalandPatientData/HospitalFinancialData.aspx", "Type_": "General Acute Care Hospital", "Trauma": "III", "Alt_Name": "Valley General Hospital", "Method": "Imagery", "Website": null, "Phone": "4252587123", "Address": "916 Pacific Ave", "Lat": 47.975593, "POC": null, "Date_Creat": 1343952000000, "Long_": -122.21676, "Name": "Providence Regional Medical Center Everett/Pacific Campus", "OBJECTID": 1147, "Ttl_Staff": 0, "Beds": 0, "FIPS": "53061", "Helipad": "1", "State_ID": null, "ID": "0005198206", "NAICS_Des": "General Medical And Surgical Hospitals", "State": "WA", "County": "Snohomish", "Owner": "Not For Profit", "Date_Geol": 1363392000000, "ST_FIPS": "53"}},
{"geometry": {"type": "Point", "coordinates": [-122.1189458, 48.1889196]}, "type": "Feature", "properties": {"City": "Arlington", "Zip": "98223", "NAICS": "622210", "Source": "http://www.doh.wa.gov/DataandStatisticalReports/HealthcareinWashington/HospitalandPatientData/HospitalFinancialData.aspx", "Type_": "General Acute Care Hospital", "Trauma": "IV", "Alt_Name": "Providence Everett Medical Center - Pacific", "Method": "Imagery", "Website": null, "Phone": "3604352133", "Address": "330 Stillaguamish Ave S", "Lat": 48.188919, "POC": null, "Date_Creat": 1343952000000, "Long_": -122.118945, "Name": "Cascade Valley Hospital", "OBJECTID": 1148, "Ttl_Staff": 0, "Beds": 48, "FIPS": "53061", "Helipad": "1", "State_ID": null, "ID": "0005298223", "NAICS_Des": "General Medical And Surgical Hospitals", "State": "WA", "County": "Snohomish", "Owner": "District", "Date_Geol": 1363392000000, "ST_FIPS": "53"}},
{"geometry": {"type": "Point", "coordinates": [-122.334357, 47.8032163]}, "type": "Feature", "properties": {"City": "Edmonds", "Zip": "98020", "NAICS": "622210", "Source": "http://www.doh.wa.gov/DataandStatisticalReports/HealthcareinWashington/HospitalandPatientData/HospitalFinancialData.aspx", "Type_": "General Acute Care Hospital", "Trauma": "IV", "Alt_Name": "Kindred Hospital Seattle", "Method": "Imagery", "Website": null, "Phone": "4256404000", "Address": "21601 76Th Ave W", "Lat": 47.803216, "POC": null, "Date_Creat": 1343952000000, "Long_": -122.334357, "Name": "Swedish Medical Center - Edmonds", "OBJECTID": 1150, "Ttl_Staff": 0, "Beds": 156, "FIPS": "53061", "Helipad": "1", "State_ID": null, "ID": "0005998020", "NAICS_Des": "General Medical And Surgical Hospitals", "State": "WA", "County": "Snohomish", "Owner": "District", "Date_Geol": 1363392000000, "ST_FIPS": "53"}},
{"geometry": {"type": "Point", "coordinates": [-121.9897996, 47.8642199]}, "type": "Feature", "properties": {"City": "Monroe", "Zip": "98272", "NAICS": "622210", "Source": "http://www.doh.wa.gov/DataandStatisticalReports/HealthcareinWashington/HospitalandPatientData/HospitalFinancialData.aspx", "Type_": "General Acute Care Hospital", "Trauma": "IV", "Alt_Name": "Providence Everett Medical Center - Pacific", "Method": "Imagery", "Website": null, "Phone": "3607947497", "Address": "14701 179Th Ave Se", "Lat": 47.864219, "POC": null, "Date_Creat": 1343952000000, "Long_": -121.989799, "Name": "Valley General Hospital", "OBJECTID": 1151, "Ttl_Staff": 0, "Beds": 72, "FIPS": "53061", "Helipad": "1", "State_ID": null, "ID": "0010598272", "NAICS_Des": "General Medical And Surgical Hospitals", "State": "WA", "County": "Snohomish", "Owner": "District", "Date_Geol": 1363392000000, "ST_FIPS": "53"}},
{"geometry": {"type": "Point", "coordinates": [-122.9517868, 47.0427309]}, "type": "Feature", "properties": {"City": "Olympia", "Zip": "98502", "NAICS": "622210", "Source": "http://www.doh.wa.gov/DataandStatisticalReports/HealthcareinWashington/HospitalandPatientData/HospitalFinancialData.aspx", "Type_": "General Acute Care Hospital", "Trauma": "IV", "Alt_Name": "Providence Saint Peter Hospital", "Method": "Imagery", "Website": null, "Phone": "3607545858", "Address": "3900 Capital Mall Dr Sw", "Lat": 47.04273, "POC": null, "Date_Creat": 1343952000000, "Long_": -122.951786, "Name": "Capital Medical Center", "OBJECTID": 1152, "Ttl_Staff": 0, "Beds": 110, "FIPS": "53067", "Helipad": "1", "State_ID": null, "ID": "0009198502", "NAICS_Des": "General Medical And Surgical Hospitals", "State": "WA", "County": "Thurston", "Owner": "Proprietary", "Date_Geol": 1363392000000, "ST_FIPS": "53"}},
{"geometry": {"type": "Point", "coordinates": [-122.8473864, 47.0529419]}, "type": "Feature", "properties": {"City": "Olympia", "Zip": "98506", "NAICS": "622210", "Source": "http://www.doh.wa.gov/DataandStatisticalReports/HealthcareinWashington/HospitalandPatientData/HospitalFinancialData.aspx", "Type_": "General Acute Care Hospital", "Trauma": "III", "Alt_Name": "Capital Medical Center", "Method": "Imagery", "Website": null, "Phone": "3604919480", "Address": "413 Lilly Rd Ne", "Lat": 47.052941, "POC": null, "Date_Creat": 1343952000000, "Long_": -122.847386, "Name": "Providence St. Peter Hospital", "OBJECTID": 1153, "Ttl_Staff": 0, "Beds": 364, "FIPS": "53067", "Helipad": "1", "State_ID": null, "ID": "0011398506", "NAICS_Des": "General Medical And Surgical Hospitals", "State": "WA", "County": "Thurston", "Owner": "Not For Profit", "Date_Geol": 1363392000000, "ST_FIPS": "53"}},
{"geometry": {"type": "Point", "coordinates": [-117.7108944, 48.2778786]}, "type": "Feature", "properties": {"City": "Chewelah", "Zip": "99109", "NAICS": "622210", "Source": "http://www.doh.wa.gov/DataandStatisticalReports/HealthcareinWashington/HospitalandPatientData/HospitalFinancialData.aspx", "Type_": "General Acute Care Hospital", "Trauma": "IV", "Alt_Name": "Mount Carmel Hospital", "Method": "Imagery", "Website": null, "Phone": "5099358211", "Address": "500 E Webster Ave", "Lat": 48.277878, "POC": null, "Date_Creat": 1343952000000, "Long_": -117.710894, "Name": "Providence St. Joseph'S Hospital", "OBJECTID": 1154, "Ttl_Staff": 0, "Beds": 65, "FIPS": "53065", "Helipad": "1", "State_ID": null, "ID": "0002499109", "NAICS_Des": "General Medical And Surgical Hospitals", "State": "WA", "County": "Stevens", "Owner": "Not For Profit", "Date_Geol": 1363392000000, "ST_FIPS": "53"}},
{"geometry": {"type": "Point", "coordinates": [-117.8927485, 48.5406718]}, "type": "Feature", "properties": {"City": "Colville", "Zip": "99114", "NAICS": "622210", "Source": "http://www.doh.wa.gov/DataandStatisticalReports/HealthcareinWashington/HospitalandPatientData/HospitalFinancialData.aspx", "Type_": "General Acute Care Hospital", "Trauma": "IV", "Alt_Name": "Saint Joseph's Hospital", "Method": "Imagery", "Website": null, "Phone": "5096842561", "Address": "982 E Columbia Ave", "Lat": 48.540671, "POC": null, "Date_Creat": 1343952000000, "Long_": -117.892748, "Name": "Providence Mount Carmel Hospital", "OBJECTID": 1155, "Ttl_Staff": 0, "Beds": 25, "FIPS": "53065", "Helipad": "1", "State_ID": null, "ID": "0008199114", "NAICS_Des": "General Medical And Surgical Hospitals", "State": "WA", "County": "Stevens", "Owner": "Not For Profit", "Date_Geol": 1363392000000, "ST_FIPS": "53"}},
{"geometry": {"type": "Point", "coordinates": [-117.9702538, 46.3121048]}, "type": "Feature", "properties": {"City": "Dayton", "Zip": "99328", "NAICS": "622210", "Source": "http://www.doh.wa.gov/DataandStatisticalReports/HealthcareinWashington/HospitalandPatientData/HospitalFinancialData.aspx", "Type_": "General Acute Care Hospital", "Trauma": "V", "Alt_Name": "Saint Mary Medical Center", "Method": "Imagery", "Website": null, "Phone": "5093822531", "Address": "1012 S 3Rd St", "Lat": 46.312104, "POC": null, "Date_Creat": 1343952000000, "Long_": -117.970253, "Name": "Dayton General Hospital", "OBJECTID": 1157, "Ttl_Staff": 0, "Beds": 25, "FIPS": "53013", "Helipad": "1", "State_ID": null, "ID": "0007499328", "NAICS_Des": "General Medical And Surgical Hospitals", "State": "WA", "County": "Columbia", "Owner": "District", "Date_Geol": 1363392000000, "ST_FIPS": "53"}},
{"geometry": {"type": "Point", "coordinates": [-122.9417492, 46.1306936]}, "type": "Feature", "properties": {"City": "Longview", "Zip": "98632", "NAICS": "622210", "Source": "http://www.doh.wa.gov/DataandStatisticalReports/HealthcareinWashington/HospitalandPatientData/HospitalFinancialData.aspx", "Type_": "General Acute Care Hospital", "Trauma": "III", "Alt_Name": "Legacy Salmon Creek", "Method": "Imagery", "Website": null, "Phone": "3604142000", "Address": "1615 Delaware Ln", "Lat": 46.130693, "POC": null, "Date_Creat": 1343952000000, "Long_": -122.941749, "Name": "Peacehealth St. John Medical Center", "OBJECTID": 1158, "Ttl_Staff": 0, "Beds": 326, "FIPS": "53015", "Helipad": "1", "State_ID": null, "ID": "0002298632", "NAICS_Des": "General Medical And Surgical Hospitals", "State": "WA", "County": "Cowlitz", "Owner": "Not For Profit", "Date_Geol": 1363392000000, "ST_FIPS": "53"}},
{"geometry": {"type": "Point", "coordinates": [-123.2602846, 47.0557921]}, "type": "Feature", "properties": {"City": "Mccleary", "Zip": "98557", "NAICS": "622210", "Source": "http://www.doh.wa.gov/DataandStatisticalReports/HealthcareinWashington/HospitalandPatientData/HospitalFinancialData.aspx", "Type_": "General Acute Care Hospital", "Trauma": "V", "Alt_Name": "Capital Medical Center", "Method": "Imagery", "Website": null, "Phone": "3604953244", "Address": "322 Birch St S", "Lat": 47.055792, "POC": null, "Date_Creat": 1343952000000, "Long_": -123.260284, "Name": "Mark Reed Health Care Clinic", "OBJECTID": 1179, "Ttl_Staff": 0, "Beds": 24, "FIPS": "53027", "Helipad": "1", "State_ID": null, "ID": "0005698557", "NAICS_Des": "General Medical And Surgical Hospitals", "State": "WA", "County": "Grays Harbor", "Owner": "District", "Date_Geol": 1363392000000, "ST_FIPS": "53"}},
{"geometry": {"type": "Point", "coordinates": [-123.847186, 46.9792356]}, "type": "Feature", "properties": {"City": "Aberdeen", "Zip": "98520", "NAICS": "622210", "Source": "http://www.doh.wa.gov/DataandStatisticalReports/HealthcareinWashington/HospitalandPatientData/HospitalFinancialData.aspx", "Type_": "General Acute Care Hospital", "Trauma": "III", "Alt_Name": "Mark Reed Memorial Hospital", "Method": "Imagery", "Website": null, "Phone": "3605375000", "Address": "915 Anderson Dr", "Lat": 46.979235, "POC": null, "Date_Creat": 1343952000000, "Long_": -123.847185, "Name": "Grays Harbor Community Hospital", "OBJECTID": 1180, "Ttl_Staff": 0, "Beds": 140, "FIPS": "53027", "Helipad": "1", "State_ID": null, "ID": "0007698520", "NAICS_Des": "General Medical And Surgical Hospitals", "State": "WA", "County": "Grays Harbor", "Owner": "Not For Profit", "Date_Geol": 1363392000000, "ST_FIPS": "53"}},
{"geometry": {"type": "Point", "coordinates": [-119.0075929, 47.9424495]}, "type": "Feature", "properties": {"City": "Grand Coulee", "Zip": "99133", "NAICS": "622210", "Source": "http://www.doh.wa.gov/DataandStatisticalReports/HealthcareinWashington/HospitalandPatientData/HospitalFinancialData.aspx", "Type_": "General Acute Care Hospital", "Trauma": "IV", "Alt_Name": "Lincoln Hospital", "Method": "Imagery", "Website": null, "Phone": "5096331753", "Address": "411 Fortuyn Rd", "Lat": 47.942449, "POC": null, "Date_Creat": 1343952000000, "Long_": -119.007592, "Name": "Coulee Medical Center", "OBJECTID": 1181, "Ttl_Staff": 0, "Beds": 27, "FIPS": "53025", "Helipad": "1", "State_ID": null, "ID": "0006499133", "NAICS_Des": "General Medical And Surgical Hospitals", "State": "WA", "County": "Grant", "Owner": "District", "Date_Geol": 1363392000000, "ST_FIPS": "53"}},
{"geometry": {"type": "Point", "coordinates": [-119.8681722, 47.2309067]}, "type": "Feature", "properties": {"City": "Quincy", "Zip": "98848", "NAICS": "622210", "Source": "http://www.doh.wa.gov/DataandStatisticalReports/HealthcareinWashington/HospitalandPatientData/HospitalFinancialData.aspx", "Type_": "General Acute Care Hospital", "Trauma": "V", "Alt_Name": "Columbia Basin Hospital", "Method": "Imagery", "Website": null, "Phone": "5097873531", "Address": "908 10Th Ave Sw", "Lat": 47.230906, "POC": null, "Date_Creat": 1343952000000, "Long_": -119.868172, "Name": "Quincy Valley Medical Center", "OBJECTID": 1182, "Ttl_Staff": 0, "Beds": 25, "FIPS": "53025", "Helipad": "1", "State_ID": null, "ID": "0006798848", "NAICS_Des": "General Medical And Surgical Hospitals", "State": "WA", "County": "Grant", "Owner": "District", "Date_Geol": 1363392000000, "ST_FIPS": "53"}},
{"geometry": {"type": "Point", "coordinates": [-119.5464277, 47.3144942]}, "type": "Feature", "properties": {"City": "Ephrata", "Zip": "98823", "NAICS": "622210", "Source": "http://www.doh.wa.gov/DataandStatisticalReports/HealthcareinWashington/HospitalandPatientData/HospitalFinancialData.aspx", "Type_": "General Acute Care Hospital", "Trauma": "V", "Alt_Name": "Quincy Valley Medical Center", "Method": "Imagery with Other", "Website": null, "Phone": "5097544631", "Address": "200 Nat Washington Way", "Lat": 47.314494, "POC": null, "Date_Creat": 1343952000000, "Long_": -119.546427, "Name": "Columbia Basin Hospital", "OBJECTID": 1183, "Ttl_Staff": 0, "Beds": 54, "FIPS": "53025", "Helipad": "1", "State_ID": null, "ID": "0007398823", "NAICS_Des": "General Medical And Surgical Hospitals", "State": "WA", "County": "Grant", "Owner": "District", "Date_Geol": 1363392000000, "ST_FIPS": "53"}},
{"geometry": {"type": "Point", "coordinates": [-119.2651887, 47.1281633]}, "type": "Feature", "properties": {"City": "Moses Lake", "Zip": "98837", "NAICS": "622210", "Source": "http://www.doh.wa.gov/DataandStatisticalReports/HealthcareinWashington/HospitalandPatientData/HospitalFinancialData.aspx", "Type_": "General Acute Care Hospital", "Trauma": "IV", "Alt_Name": "Columbia Basin Hospital", "Method": "Imagery", "Website": null, "Phone": "5097655606", "Address": "801 E. Wheeler Rd", "Lat": 47.128163, "POC": null, "Date_Creat": 1343952000000, "Long_": -119.265188, "Name": "Samaritan Healthcare", "OBJECTID": 1184, "Ttl_Staff": 0, "Beds": 50, "FIPS": "53025", "Helipad": "1", "State_ID": null, "ID": "0008498837", "NAICS_Des": "General Medical And Surgical Hospitals", "State": "WA", "County": "Grant", "Owner": "District", "Date_Geol": 1363392000000, "ST_FIPS": "53"}},
{"geometry": {"type": "Point", "coordinates": [-117.6029482, 46.4754992]}, "type": "Feature", "properties": {"City": "Pomeroy", "Zip": "99347", "NAICS": "622210", "Source": "http://www.doh.wa.gov/DataandStatisticalReports/HealthcareinWashington/HospitalandPatientData/HospitalFinancialData.aspx", "Type_": "General Acute Care Hospital", "Trauma": "V", "Alt_Name": "Tri-State Memorial Hospital", "Method": "Imagery", "Website": null, "Phone": "5098431591", "Address": "66 N 6Th Street", "Lat": 46.475499, "POC": null, "Date_Creat": 1343952000000, "Long_": -117.602948, "Name": "Garfield County Public Hospital", "OBJECTID": 1185, "Ttl_Staff": 0, "Beds": 45, "FIPS": "53023", "Helipad": "1", "State_ID": null, "ID": "0007199347", "NAICS_Des": "General Medical And Surgical Hospitals", "State": "WA", "County": "Garfield", "Owner": "District", "Date_Geol": 1363392000000, "ST_FIPS": "53"}},
{"geometry": {"type": "Point", "coordinates": [-119.0953862, 46.2350256]}, "type": "Feature", "properties": {"City": "Pasco", "Zip": "99301", "NAICS": "622210", "Source": "http://www.doh.wa.gov/DataandStatisticalReports/HealthcareinWashington/HospitalandPatientData/HospitalFinancialData.aspx", "Type_": "General Acute Care Hospital", "Trauma": "IV", "Alt_Name": "Kennewick General Hospital", "Method": "Imagery", "Website": null, "Phone": "5095477704", "Address": "520 4Th Ave N", "Lat": 46.235025, "POC": null, "Date_Creat": 1343952000000, "Long_": -119.095386, "Name": "Lourdes Medical Center", "OBJECTID": 1186, "Ttl_Staff": 0, "Beds": 106, "FIPS": "53021", "Helipad": "1", "State_ID": null, "ID": "0003299301", "NAICS_Des": "General Medical And Surgical Hospitals", "State": "WA", "County": "Franklin", "Owner": "Not For Profit", "Date_Geol": 1363392000000, "ST_FIPS": "53"}},
{"geometry": {"type": "Point", "coordinates": [-122.6843268, 48.2138933]}, "type": "Feature", "properties": {"City": "Coupeville", "Zip": "98239", "NAICS": "622210", "Source": "http://www.doh.wa.gov/DataandStatisticalReports/HealthcareinWashington/HospitalandPatientData/HospitalFinancialData.aspx", "Type_": "General Acute Care Hospital", "Trauma": "III", "Alt_Name": "Island Hospital", "Method": "Imagery", "Website": null, "Phone": "3606785151", "Address": "101 Main Street North", "Lat": 48.213893, "POC": null, "Date_Creat": 1343952000000, "Long_": -122.684326, "Name": "Whidbey General Hospital", "OBJECTID": 1188, "Ttl_Staff": 0, "Beds": 51, "FIPS": "53029", "Helipad": "1", "State_ID": null, "ID": "0008998239", "NAICS_Des": "General Medical And Surgical Hospitals", "State": "WA", "County": "Island", "Owner": "District", "Date_Geol": 1363392000000, "ST_FIPS": "53"}},
{"geometry": {"type": "Point", "coordinates": [-117.0543593, 46.4028617]}, "type": "Feature", "properties": {"City": "Clarkston", "Zip": "99403", "NAICS": "622210", "Source": "http://www.doh.wa.gov/DataandStatisticalReports/HealthcareinWashington/HospitalandPatientData/HospitalFinancialData.aspx", "Type_": "General Acute Care Hospital", "Trauma": "IV", "Alt_Name": "Garfield County Memorial Hospital", "Method": "Imagery", "Website": null, "Phone": "5097585511", "Address": "1221 Highland Ave", "Lat": 46.402861, "POC": null, "Date_Creat": 1343952000000, "Long_": -117.054359, "Name": "Tri-State Memorial Hospital", "OBJECTID": 1196, "Ttl_Staff": 0, "Beds": 25, "FIPS": "53003", "Helipad": "1", "State_ID": null, "ID": "0008699403", "NAICS_Des": "General Medical And Surgical Hospitals", "State": "WA", "County": "Asotin", "Owner": "Not For Profit", "Date_Geol": 1363392000000, "ST_FIPS": "53"}},
{"geometry": {"type": "Point", "coordinates": [-119.1192167, 46.1992455]}, "type": "Feature", "properties": {"City": "Kennewick", "Zip": "99336", "NAICS": "622210", "Source": "http://www.doh.wa.gov/DataandStatisticalReports/HealthcareinWashington/HospitalandPatientData/HospitalFinancialData.aspx", "Type_": "General Acute Care Hospital", "Trauma": "III", "Alt_Name": "Lourdes Medical Center", "Method": "Imagery", "Website": null, "Phone": "5095866111", "Address": "900 Auburn St S", "Lat": 46.199245, "POC": null, "Date_Creat": 1343952000000, "Long_": -119.119216, "Name": "Kennewick General Hospital", "OBJECTID": 1198, "Ttl_Staff": 0, "Beds": 101, "FIPS": "53005", "Helipad": "1", "State_ID": null, "ID": "0002999336", "NAICS_Des": "General Medical And Surgical Hospitals", "State": "WA", "County": "Benton", "Owner": "District", "Date_Geol": 1363392000000, "ST_FIPS": "53"}},
{"geometry": {"type": "Point", "coordinates": [-119.7639115, 46.208092]}, "type": "Feature", "properties": {"City": "Prosser", "Zip": "99350", "NAICS": "622210", "Source": "http://www.doh.wa.gov/DataandStatisticalReports/HealthcareinWashington/HospitalandPatientData/HospitalFinancialData.aspx", "Type_": "General Acute Care Hospital", "Trauma": "IV", "Alt_Name": "Sunnyside Community Hospital", "Method": "Imagery", "Website": null, "Phone": "5097862222", "Address": "723 Memorial St", "Lat": 46.208091, "POC": null, "Date_Creat": 1343952000000, "Long_": -119.763911, "Name": "Prosser Memorial Hospital", "OBJECTID": 1199, "Ttl_Staff": 0, "Beds": 26, "FIPS": "53005", "Helipad": "1", "State_ID": null, "ID": "0006599350", "NAICS_Des": "General Medical And Surgical Hospitals", "State": "WA", "County": "Benton", "Owner": "District", "Date_Geol": 1363392000000, "ST_FIPS": "53"}},
{"geometry": {"type": "Point", "coordinates": [-119.281956, 46.2813434]}, "type": "Feature", "properties": {"City": "Richland", "Zip": "99352", "NAICS": "622210", "Source": "http://www.doh.wa.gov/DataandStatisticalReports/HealthcareinWashington/HospitalandPatientData/HospitalFinancialData.aspx", "Type_": "General Acute Care Hospital", "Trauma": "III", "Alt_Name": "Lourdes Medical Center", "Method": "Imagery", "Website": null, "Phone": "5099464611", "Address": "888 Swift Blvd", "Lat": 46.281343, "POC": null, "Date_Creat": 1343952000000, "Long_": -119.281955, "Name": "Kadlec Medical Center", "OBJECTID": 1200, "Ttl_Staff": 0, "Beds": 270, "FIPS": "53005", "Helipad": "1", "State_ID": null, "ID": "0007999352", "NAICS_Des": "General Medical And Surgical Hospitals", "State": "WA", "County": "Benton", "Owner": "Not For Profit", "Date_Geol": 1363392000000, "ST_FIPS": "53"}},
{"geometry": {"type": "Point", "coordinates": [-120.0096126, 47.8449702]}, "type": "Feature", "properties": {"City": "Chelan", "Zip": "98816", "NAICS": "622210", "Source": "http://www.doh.wa.gov/DataandStatisticalReports/HealthcareinWashington/HospitalandPatientData/HospitalFinancialData.aspx", "Type_": "General Acute Care Hospital", "Trauma": "IV", "Alt_Name": "Okanogan-Douglas District Hospital", "Method": "Imagery", "Website": null, "Phone": "5096822531", "Address": "503 Highland Ave E", "Lat": 47.84497, "POC": null, "Date_Creat": 1343952000000, "Long_": -120.009612, "Name": "Lake Chelan Community Hospital", "OBJECTID": 1202, "Ttl_Staff": 0, "Beds": 25, "FIPS": "53007", "Helipad": "1", "State_ID": null, "ID": "0001298816", "NAICS_Des": "General Medical And Surgical Hospitals", "State": "WA", "County": "Chelan", "Owner": "District", "Date_Geol": 1363392000000, "ST_FIPS": "53"}},
{"geometry": {"type": "Point", "coordinates": [-120.3210305, 47.4066046]}, "type": "Feature", "properties": {"City": "Wenatchee", "Zip": "98807", "NAICS": "622210", "Source": "http://www.doh.wa.gov/DataandStatisticalReports/HealthcareinWashington/HospitalandPatientData/HospitalFinancialData.aspx", "Type_": "General Acute Care Hospital", "Trauma": "III", "Alt_Name": "Wenatchee Valley Hospital", "Method": "Imagery", "Website": null, "Phone": "5096621511", "Address": "1201 South Miller Street", "Lat": 47.406604, "POC": null, "Date_Creat": 1343952000000, "Long_": -120.32103, "Name": "Central Washington Hospital", "OBJECTID": 1203, "Ttl_Staff": 0, "Beds": 206, "FIPS": "53007", "Helipad": "1", "State_ID": null, "ID": "0002798807", "NAICS_Des": "General Medical And Surgical Hospitals", "State": "WA", "County": "Chelan", "Owner": "Not For Profit", "Date_Geol": 1363392000000, "ST_FIPS": "53"}},
{"geometry": {"type": "Point", "coordinates": [-120.6607868, 47.5944512]}, "type": "Feature", "properties": {"City": "Leavenworth", "Zip": "98826", "NAICS": "622210", "Source": "http://www.doh.wa.gov/DataandStatisticalReports/HealthcareinWashington/HospitalandPatientData/HospitalFinancialData.aspx", "Type_": "General Acute Care Hospital", "Trauma": "V", "Alt_Name": "Wenatchee Valley Hospital", "Method": "Imagery", "Website": null, "Phone": "5095485815", "Address": "817 Commercial St", "Lat": 47.594451, "POC": null, "Date_Creat": 1343952000000, "Long_": -120.660786, "Name": "Cascade Medical Center", "OBJECTID": 1205, "Ttl_Staff": 0, "Beds": 12, "FIPS": "53007", "Helipad": "1", "State_ID": null, "ID": "0007298826", "NAICS_Des": "General Medical And Surgical Hospitals", "State": "WA", "County": "Chelan", "Owner": "District", "Date_Geol": 1363392000000, "ST_FIPS": "53"}},
{"geometry": {"type": "Point", "coordinates": [-122.7892732, 48.1060433]}, "type": "Feature", "properties": {"City": "Port Townsend", "Zip": "98368", "NAICS": "622210", "Source": "http://www.doh.wa.gov/DataandStatisticalReports/HealthcareinWashington/HospitalandPatientData/HospitalFinancialData.aspx", "Type_": "General Acute Care Hospital", "Trauma": "IV", "Alt_Name": "Harrison Memorial Hospital - Silverdale", "Method": "Imagery", "Website": null, "Phone": "3603852200", "Address": "834 Sheridan St", "Lat": 48.106043, "POC": null, "Date_Creat": 1343952000000, "Long_": -122.789273, "Name": "Jefferson Healthcare", "OBJECTID": 1208, "Ttl_Staff": 0, "Beds": 25, "FIPS": "53031", "Helipad": "1", "State_ID": null, "ID": "0007898368", "NAICS_Des": "General Medical And Surgical Hospitals", "State": "WA", "County": "Jefferson", "Owner": "District", "Date_Geol": 1363392000000, "ST_FIPS": "53"}},
{"geometry": {"type": "Point", "coordinates": [-122.2290357, 47.3089135]}, "type": "Feature", "properties": {"City": "Auburn", "Zip": "98002", "NAICS": "622210", "Source": "http://www.doh.wa.gov/DataandStatisticalReports/HealthcareinWashington/HospitalandPatientData/HospitalFinancialData.aspx", "Type_": "General Acute Care Hospital", "Trauma": "III", "Alt_Name": "Saint Francis Hospital", "Method": "Imagery", "Website": null, "Phone": "2538337711", "Address": "202 North Division St", "Lat": 47.308913, "POC": null, "Date_Creat": 1343952000000, "Long_": -122.229035, "Name": "Auburn Regional Medical Center", "OBJECTID": 1211, "Ttl_Staff": 0, "Beds": 162, "FIPS": "53033", "Helipad": "1", "State_ID": null, "ID": "0004498002", "NAICS_Des": "General Medical And Surgical Hospitals", "State": "WA", "County": "King", "Owner": "Proprietary", "Date_Geol": 1363392000000, "ST_FIPS": "53"}},
{"geometry": {"type": "Point", "coordinates": [-122.1784012, 47.7158911]}, "type": "Feature", "properties": {"City": "Kirkland", "Zip": "98033", "NAICS": "622210", "Source": "http://www.doh.wa.gov/DataandStatisticalReports/HealthcareinWashington/HospitalandPatientData/HospitalFinancialData.aspx", "Type_": "General Acute Care Hospital", "Trauma": "IV", "Alt_Name": "Overlake Hospital Medical Center", "Method": "Imagery", "Website": null, "Phone": "4258991000", "Address": "12040 128Th St Ne", "Lat": 47.715891, "POC": null, "Date_Creat": 1343952000000, "Long_": -122.178401, "Name": "Evergreen Hospital Medical Center", "OBJECTID": 1215, "Ttl_Staff": 0, "Beds": 290, "FIPS": "53033", "Helipad": "1", "State_ID": null, "ID": "0005498033", "NAICS_Des": "General Medical And Surgical Hospitals", "State": "WA", "County": "King", "Owner": "District", "Date_Geol": 1363392000000, "ST_FIPS": "53"}},
{"geometry": {"type": "Point", "coordinates": [-122.2139653, 47.442778]}, "type": "Feature", "properties": {"City": "Renton", "Zip": "98055", "NAICS": "622210", "Source": "http://www.doh.wa.gov/DataandStatisticalReports/HealthcareinWashington/HospitalandPatientData/HospitalFinancialData.aspx", "Type_": "General Acute Care Hospital", "Trauma": "III", "Alt_Name": "Regional Hospital for Respiratory & Complex Care", "Method": "Imagery", "Website": null, "Phone": "4252283450", "Address": "400 43Rd St S", "Lat": 47.442778, "POC": null, "Date_Creat": 1343952000000, "Long_": -122.213965, "Name": "Valley Medical Center", "OBJECTID": 1216, "Ttl_Staff": 0, "Beds": 303, "FIPS": "53033", "Helipad": "1", "State_ID": null, "ID": "0005798055", "NAICS_Des": "General Medical And Surgical Hospitals", "State": "WA", "County": "King", "Owner": "District", "Date_Geol": 1363392000000, "ST_FIPS": "53"}},
{"geometry": {"type": "Point", "coordinates": [-122.3239889, 47.6038601]}, "type": "Feature", "properties": {"City": "Seattle", "Zip": "98104", "NAICS": "622210", "Source": "http://www.doh.wa.gov/DataandStatisticalReports/HealthcareinWashington/HospitalandPatientData/HospitalFinancialData.aspx", "Type_": "General Acute Care Hospital", "Trauma": "I", "Alt_Name": "Swedish Medical Center - First Hill", "Method": "Imagery", "Website": null, "Phone": "2067313000", "Address": "325 9Th Ave", "Lat": 47.60386, "POC": null, "Date_Creat": 1343952000000, "Long_": -122.323988, "Name": "Harborview Medical Center", "OBJECTID": 1223, "Ttl_Staff": 0, "Beds": 413, "FIPS": "53033", "Helipad": "1", "State_ID": null, "ID": "0009898104", "NAICS_Des": "General Medical And Surgical Hospitals", "State": "WA", "County": "King", "Owner": "County", "Date_Geol": 1363392000000, "ST_FIPS": "53"}},
{"geometry": {"type": "Point", "coordinates": [-122.3368954, 47.7141724]}, "type": "Feature", "properties": {"City": "Seattle", "Zip": "98133", "NAICS": "622210", "Source": "http://www.doh.wa.gov/DataandStatisticalReports/HealthcareinWashington/HospitalandPatientData/HospitalFinancialData.aspx", "Type_": "General Acute Care Hospital", "Trauma": "IV", "Alt_Name": "Kindred Hospital Seattle", "Method": "Imagery", "Website": null, "Phone": "2063640500", "Address": "1550 North 115Th St", "Lat": 47.714172, "POC": null, "Date_Creat": 1343952000000, "Long_": -122.336895, "Name": "Northwest Hospital & Medical Center", "OBJECTID": 1224, "Ttl_Staff": 0, "Beds": 281, "FIPS": "53033", "Helipad": "1", "State_ID": null, "ID": "0009998133", "NAICS_Des": "General Medical And Surgical Hospitals", "State": "WA", "County": "King", "Owner": "Not For Profit", "Date_Geol": 1363392000000, "ST_FIPS": "53"}},
{"geometry": {"type": "Point", "coordinates": [-122.1871752, 47.6204914]}, "type": "Feature", "properties": {"City": "Bellevue", "Zip": "98004", "NAICS": "622210", "Source": "http://www.doh.wa.gov/DataandStatisticalReports/HealthcareinWashington/HospitalandPatientData/HospitalFinancialData.aspx", "Type_": "General Acute Care Hospital", "Trauma": "III", "Alt_Name": "Group Health Eastside Hospital", "Method": "Imagery", "Website": null, "Phone": "4256885000", "Address": "1035 116Th Ave Ne", "Lat": 47.620491, "POC": null, "Date_Creat": 1343952000000, "Long_": -122.187175, "Name": "Overlake Hospital Medical Center", "OBJECTID": 1225, "Ttl_Staff": 0, "Beds": 337, "FIPS": "53033", "Helipad": "1", "State_ID": null, "ID": "0010098004", "NAICS_Des": "General Medical And Surgical Hospitals", "State": "WA", "County": "King", "Owner": "Not For Profit", "Date_Geol": 1363392000000, "ST_FIPS": "53"}},
{"geometry": {"type": "Point", "coordinates": [-121.9877471, 47.2091758]}, "type": "Feature", "properties": {"City": "Enumclaw", "Zip": "98022", "NAICS": "622210", "Source": "http://www.doh.wa.gov/DataandStatisticalReports/HealthcareinWashington/HospitalandPatientData/HospitalFinancialData.aspx", "Type_": "General Acute Care Hospital", "Trauma": "V", "Alt_Name": "Auburn Regional Medical Center", "Method": "Imagery", "Website": null, "Phone": "3608252505", "Address": "1455 Battersby Avenue", "Lat": 47.209175, "POC": null, "Date_Creat": 1343952000000, "Long_": -121.987747, "Name": "St. Elizabeth Hospital", "OBJECTID": 1230, "Ttl_Staff": 0, "Beds": 38, "FIPS": "53033", "Helipad": "1", "State_ID": null, "ID": "0010998022", "NAICS_Des": "General Medical And Surgical Hospitals", "State": "WA", "County": "King", "Owner": "Not For Profit", "Date_Geol": 1363392000000, "ST_FIPS": "53"}},
{"geometry": {"type": "Point", "coordinates": [-122.3432122, 47.4574356]}, "type": "Feature", "properties": {"City": "Burien", "Zip": "98166", "NAICS": "622210", "Source": "http://www.doh.wa.gov/DataandStatisticalReports/HealthcareinWashington/HospitalandPatientData/HospitalFinancialData.aspx", "Type_": "General Acute Care Hospital", "Trauma": "IV", "Alt_Name": "Regional Hospital for Respiratory & Complex Care", "Method": "Imagery", "Website": null, "Phone": "2062449970", "Address": "16251 Sylvester Rd Sw", "Lat": 47.457435, "POC": null, "Date_Creat": 1343952000000, "Long_": -122.343212, "Name": "Highline Medical Center", "OBJECTID": 1232, "Ttl_Staff": 0, "Beds": 269, "FIPS": "53033", "Helipad": "1", "State_ID": null, "ID": "0011198166", "NAICS_Des": "General Medical And Surgical Hospitals", "State": "WA", "County": "King", "Owner": "Not For Profit", "Date_Geol": 1363392000000, "ST_FIPS": "53"}},
{"geometry": {"type": "Point", "coordinates": [-122.3273924, 47.2926978]}, "type": "Feature", "properties": {"City": "Federal Way", "Zip": "98003", "NAICS": "622210", "Source": "http://www.doh.wa.gov/DataandStatisticalReports/HealthcareinWashington/HospitalandPatientData/HospitalFinancialData.aspx", "Type_": "General Acute Care Hospital", "Trauma": "IV", "Alt_Name": "Auburn Regional Medical Center", "Method": "Imagery", "Website": null, "Phone": "2538389700", "Address": "34515 9Th Avenue South", "Lat": 47.292697, "POC": null, "Date_Creat": 1343952000000, "Long_": -122.327392, "Name": "St. Francis Hospital", "OBJECTID": 1234, "Ttl_Staff": 0, "Beds": 128, "FIPS": "53033", "Helipad": "1", "State_ID": null, "ID": "0011598003", "NAICS_Des": "General Medical And Surgical Hospitals", "State": "WA", "County": "King", "Owner": "Not For Profit", "Date_Geol": 1363392000000, "ST_FIPS": "53"}},
{"geometry": {"type": "Point", "coordinates": [-122.6250459, 47.5831533]}, "type": "Feature", "properties": {"City": "Bremerton", "Zip": "98310", "NAICS": "622210", "Source": "http://www.doh.wa.gov/DataandStatisticalReports/HealthcareinWashington/HospitalandPatientData/HospitalFinancialData.aspx", "Type_": "General Acute Care Hospital", "Trauma": "III", "Alt_Name": "Harrison Memorial Hospital - Silverdale", "Method": "Imagery", "Website": null, "Phone": "3603773911", "Address": "2520 Cherry Ave", "Lat": 47.583153, "POC": null, "Date_Creat": 1343952000000, "Long_": -122.625045, "Name": "Harrison Medical Center", "OBJECTID": 1241, "Ttl_Staff": 0, "Beds": 297, "FIPS": "53035", "Helipad": "1", "State_ID": null, "ID": "0008798310", "NAICS_Des": "General Medical And Surgical Hospitals", "State": "WA", "County": "Kitsap", "Owner": "Not For Profit", "Date_Geol": 1363392000000, "ST_FIPS": "53"}},
{"geometry": {"type": "Point", "coordinates": [-120.5378963, 46.987094]}, "type": "Feature", "properties": {"City": "Ellensburg", "Zip": "98926", "NAICS": "622210", "Source": "http://www.doh.wa.gov/DataandStatisticalReports/HealthcareinWashington/HospitalandPatientData/HospitalFinancialData.aspx", "Type_": "General Acute Care Hospital", "Trauma": "IV", "Alt_Name": "Providence Yakima Medical Center", "Method": "Imagery", "Website": null, "Phone": "5099629841", "Address": "603 S Chestnut St", "Lat": 46.987093, "POC": null, "Date_Creat": 1343952000000, "Long_": -120.537896, "Name": "Kittitas Valley Community Hospital", "OBJECTID": 1243, "Ttl_Staff": 0, "Beds": 50, "FIPS": "53037", "Helipad": "1", "State_ID": null, "ID": "0003098926", "NAICS_Des": "General Medical And Surgical Hospitals", "State": "WA", "County": "Kittitas", "Owner": "District", "Date_Geol": 1363392000000, "ST_FIPS": "53"}},
{"geometry": {"type": "Point", "coordinates": [-121.4705307, 45.7223792]}, "type": "Feature", "properties": {"City": "White Salmon", "Zip": "98672", "NAICS": "622210", "Source": "http://www.doh.wa.gov/DataandStatisticalReports/HealthcareinWashington/HospitalandPatientData/HospitalFinancialData.aspx", "Type_": "General Acute Care Hospital", "Trauma": "IV", "Alt_Name": "Klickitat Valley Hospital", "Method": "Imagery", "Website": null, "Phone": "5094931101", "Address": "211 Skyline Dr", "Lat": 45.722379, "POC": null, "Date_Creat": 1343952000000, "Long_": -121.47053, "Name": "Skyline Hospital", "OBJECTID": 1244, "Ttl_Staff": 0, "Beds": 25, "FIPS": "53039", "Helipad": "1", "State_ID": null, "ID": "0001798672", "NAICS_Des": "General Medical And Surgical Hospitals", "State": "WA", "County": "Klickitat", "Owner": "District", "Date_Geol": 1363392000000, "ST_FIPS": "53"}},
{"geometry": {"type": "Point", "coordinates": [-120.811106, 45.8201803]}, "type": "Feature", "properties": {"City": "Goldendale", "Zip": "98620", "NAICS": "622210", "Source": "http://www.doh.wa.gov/DataandStatisticalReports/HealthcareinWashington/HospitalandPatientData/HospitalFinancialData.aspx", "Type_": "General Acute Care Hospital", "Trauma": "IV", "Alt_Name": "Toppenish Community Hospital", "Method": "Imagery", "Website": null, "Phone": "5097734022", "Address": "310 South Roosevelt", "Lat": 45.82018, "POC": null, "Date_Creat": 1343952000000, "Long_": -120.811106, "Name": "Klickitat Valley Health", "OBJECTID": 1245, "Ttl_Staff": 0, "Beds": 25, "FIPS": "53039", "Helipad": "1", "State_ID": null, "ID": "0003198620", "NAICS_Des": "General Medical And Surgical Hospitals", "State": "WA", "County": "Klickitat", "Owner": "District", "Date_Geol": 1363392000000, "ST_FIPS": "53"}},
{"geometry": {"type": "Point", "coordinates": [-124.392588, 47.9462073]}, "type": "Feature", "properties": {"City": "Forks", "Zip": "98331", "NAICS": "622210", "Source": "http://www.doh.wa.gov/DataandStatisticalReports/HealthcareinWashington/HospitalandPatientData/HospitalFinancialData.aspx", "Type_": "General Acute Care Hospital", "Trauma": "IV", "Alt_Name": "Olympic Medical Center", "Method": "Imagery", "Website": null, "Phone": "3603746271", "Address": "530 Bogachiel Way", "Lat": 47.946207, "POC": null, "Date_Creat": 1343952000000, "Long_": -124.392588, "Name": "Forks Community Hospital", "OBJECTID": 1247, "Ttl_Staff": 0, "Beds": 45, "FIPS": "53009", "Helipad": "1", "State_ID": null, "ID": "0007598331", "NAICS_Des": "General Medical And Surgical Hospitals", "State": "WA", "County": "Clallam", "Owner": "District", "Date_Geol": 1363392000000, "ST_FIPS": "53"}},
{"geometry": {"type": "Point", "coordinates": [-123.4150271, 48.1155557]}, "type": "Feature", "properties": {"City": "Port Angeles", "Zip": "98362", "NAICS": "622210", "Source": "http://www.doh.wa.gov/DataandStatisticalReports/HealthcareinWashington/HospitalandPatientData/HospitalFinancialData.aspx", "Type_": "General Acute Care Hospital", "Trauma": "III", "Alt_Name": "Jefferson General Hospital", "Method": "Imagery", "Website": null, "Phone": "3604177000", "Address": "939 Caroline St", "Lat": 48.115555, "POC": null, "Date_Creat": 1343952000000, "Long_": -123.415027, "Name": "Olympic Medical Center", "OBJECTID": 1248, "Ttl_Staff": 0, "Beds": 126, "FIPS": "53009", "Helipad": "1", "State_ID": null, "ID": "0008298362", "NAICS_Des": "General Medical And Surgical Hospitals", "State": "WA", "County": "Clallam", "Owner": "District", "Date_Geol": 1363392000000, "ST_FIPS": "53"}},
{"geometry": {"type": "Point", "coordinates": [-119.1552615, 46.8304088]}, "type": "Feature", "properties": {"City": "Othello", "Zip": "99344", "NAICS": "622210", "Source": "http://www.doh.wa.gov/DataandStatisticalReports/HealthcareinWashington/HospitalandPatientData/HospitalFinancialData.aspx", "Type_": "General Acute Care Hospital", "Trauma": "V", "Alt_Name": "Samaritan Hospital", "Method": "Imagery", "Website": null, "Phone": "5094882636", "Address": "315 14Th Ave N", "Lat": 46.830408, "POC": null, "Date_Creat": 1343952000000, "Long_": -119.155261, "Name": "Othello Community Hospital", "OBJECTID": 1249, "Ttl_Staff": 0, "Beds": 49, "FIPS": "53001", "Helipad": "1", "State_ID": null, "ID": "0002199344", "NAICS_Des": "General Medical And Surgical Hospitals", "State": "WA", "County": "Adams", "Owner": "District", "Date_Geol": 1363392000000, "ST_FIPS": "53"}},
{"geometry": {"type": "Point", "coordinates": [-118.3718866, 47.1212188]}, "type": "Feature", "properties": {"City": "Ritzville", "Zip": "99169", "NAICS": "622210", "Source": "http://www.doh.wa.gov/DataandStatisticalReports/HealthcareinWashington/HospitalandPatientData/HospitalFinancialData.aspx", "Type_": "General Acute Care Hospital", "Trauma": "V", "Alt_Name": "Odessa Memorial Hospital", "Method": "Imagery", "Website": null, "Phone": "5096591200", "Address": "903 S Adams St", "Lat": 47.121218, "POC": null, "Date_Creat": 1343952000000, "Long_": -118.371886, "Name": "East Adams Rural Hospital", "OBJECTID": 1250, "Ttl_Staff": 0, "Beds": 20, "FIPS": "53001", "Helipad": "1", "State_ID": null, "ID": "0002899169", "NAICS_Des": "General Medical And Surgical Hospitals", "State": "WA", "County": "Adams", "Owner": "District", "Date_Geol": 1363392000000, "ST_FIPS": "53"}},
{"geometry": {"type": "Point", "coordinates": [-118.343197, 46.0622277]}, "type": "Feature", "properties": {"City": "Walla Walla", "Zip": "99362", "NAICS": "622210", "Source": "http://www.doh.wa.gov/DataandStatisticalReports/HealthcareinWashington/HospitalandPatientData/HospitalFinancialData.aspx", "Type_": "General Acute Care Hospital", "Trauma": "III", "Alt_Name": "Walla Walla General Hospital", "Method": "Imagery", "Website": null, "Phone": "5095253320", "Address": "401 W Poplar St", "Lat": 46.062227, "POC": null, "Date_Creat": 1343952000000, "Long_": -118.343196, "Name": "Providence St. Mary Medical Center", "OBJECTID": 1252, "Ttl_Staff": 0, "Beds": 142, "FIPS": "53071", "Helipad": "1", "State_ID": null, "ID": "0003499362", "NAICS_Des": "General Medical And Surgical Hospitals", "State": "WA", "County": "Walla Walla", "Owner": "Not For Profit", "Date_Geol": 1363392000000, "ST_FIPS": "53"}},
{"geometry": {"type": "Point", "coordinates": [-118.3291664, 46.0551628]}, "type": "Feature", "properties": {"City": "Walla Walla", "Zip": "99362", "NAICS": "622210", "Source": "http://www.doh.wa.gov/DataandStatisticalReports/HealthcareinWashington/HospitalandPatientData/HospitalFinancialData.aspx", "Type_": "General Acute Care Hospital", "Trauma": "III", "Alt_Name": "Saint Mary Medical Center", "Method": "Imagery", "Website": null, "Phone": "5095250480", "Address": "1025 2Nd Ave S", "Lat": 46.055162, "POC": null, "Date_Creat": 1343952000000, "Long_": -118.329166, "Name": "Walla Walla General Hospital", "OBJECTID": 1253, "Ttl_Staff": 0, "Beds": 72, "FIPS": "53071", "Helipad": "1", "State_ID": null, "ID": "0006899362", "NAICS_Des": "General Medical And Surgical Hospitals", "State": "WA", "County": "Walla Walla", "Owner": "Not For Profit", "Date_Geol": 1363392000000, "ST_FIPS": "53"}},
{"geometry": {"type": "Point", "coordinates": [-84.0175635, 33.9636768]}, "type": "Feature", "properties": {"City": "Lawrenceville", "Zip": "30045", "NAICS": "622210", "Source": "Georgia Department of Public Health", "Type_": "General Acute Care Hospital", "Trauma": "II", "Alt_Name": null, "Method": "Imagery", "Website": null, "Phone": null, "Address": "1000 Medical Center Boulevard", "Lat": 33.963676, "POC": null, "Date_Creat": 1353715200000, "Long_": -84.017563, "Name": "Promina Gwinnett Hospital System", "OBJECTID": 3459, "Ttl_Staff": 0, "Beds": 0, "FIPS": "13135", "Helipad": null, "State_ID": "69", "ID": "0007130045", "NAICS_Des": "General Medical And Surgical Hospitals", "State": "GA", "County": "Gwinnett", "Owner": null, "Date_Geol": 1364774400000, "ST_FIPS": "13"}},
{"geometry": {"type": "Point", "coordinates": [-84.3199768, 34.0631814]}, "type": "Feature", "properties": {"City": "Roswell", "Zip": "30076", "NAICS": "622210", "Source": "Georgia Department of Public Health", "Type_": "General Acute Care Hospital", "Trauma": "II", "Alt_Name": null, "Method": "Imagery", "Website": null, "Phone": null, "Address": "3000 Hospital Boulevard", "Lat": 34.063181, "POC": null, "Date_Creat": 1353715200000, "Long_": -84.319976, "Name": "Tenet Healthcare - North Fulton Regional Hospital", "OBJECTID": 3481, "Ttl_Staff": 0, "Beds": 0, "FIPS": "13121", "Helipad": null, "State_ID": "49", "ID": "0000130076", "NAICS_Des": "General Medical And Surgical Hospitals", "State": "GA", "County": "Fulton", "Owner": null, "Date_Geol": 1364774400000, "ST_FIPS": "13"}},
{"geometry": {"type": "Point", "coordinates": [-84.3536549, 33.9069063]}, "type": "Feature", "properties": {"City": "Sandy Springs", "Zip": "30342", "NAICS": "622210", "Source": "Georgia Department of Public Health", "Type_": "General Acute Care Hospital", "Trauma": "II", "Alt_Name": null, "Method": "Imagery", "Website": null, "Phone": null, "Address": "1001 Johnson Ferry Road Ne", "Lat": 33.906906, "POC": null, "Date_Creat": 1353715200000, "Long_": -84.353654, "Name": "Childrens Healthcare Atlanta - Scottish Rite", "OBJECTID": 3482, "Ttl_Staff": 0, "Beds": 0, "FIPS": "13121", "Helipad": null, "State_ID": "113", "ID": "0000230342", "NAICS_Des": "General Medical And Surgical Hospitals", "State": "GA", "County": "Fulton", "Owner": null, "Date_Geol": 1364774400000, "ST_FIPS": "13"}},
{"geometry": {"type": "Point", "coordinates": [-84.37339, 33.76295]}, "type": "Feature", "properties": {"City": "Atlanta", "Zip": "30312", "NAICS": "622210", "Source": "Georgia Department of Public Health", "Type_": "General Acute Care Hospital", "Trauma": "II", "Alt_Name": null, "Method": "Imagery", "Website": null, "Phone": null, "Address": "303 Parkway Drive Ne", "Lat": 33.76295, "POC": null, "Date_Creat": 1353715200000, "Long_": -84.37339, "Name": "Atlanta Medical Center", "OBJECTID": 3492, "Ttl_Staff": 0, "Beds": 0, "FIPS": "13121", "Helipad": null, "State_ID": "178", "ID": "0017830312", "NAICS_Des": "General Medical And Surgical Hospitals", "State": "GA", "County": "Fulton", "Owner": null, "Date_Geol": 1364774400000, "ST_FIPS": "13"}},
{"geometry": {"type": "Point", "coordinates": [-84.38202, 33.75196]}, "type": "Feature", "properties": {"City": "Atlanta", "Zip": "30303", "NAICS": "622210", "Source": "Georgia Department of Public Health", "Type_": "General Acute Care Hospital", "Trauma": "I", "Alt_Name": null, "Method": "Imagery", "Website": null, "Phone": null, "Address": "80 Butler Street Se", "Lat": 33.75196, "POC": null, "Date_Creat": 1353715200000, "Long_": -84.38202, "Name": "Grady Memorial Hospital", "OBJECTID": 3493, "Ttl_Staff": 0, "Beds": 0, "FIPS": "13121", "Helipad": null, "State_ID": "179", "ID": "0017930303", "NAICS_Des": "General Medical And Surgical Hospitals", "State": "GA", "County": "Fulton", "Owner": null, "Date_Geol": 1364774400000, "ST_FIPS": "13"}},
{"geometry": {"type": "Point", "coordinates": [-85.1796878, 34.2597344]}, "type": "Feature", "properties": {"City": "Rome", "Zip": "30165", "NAICS": "622210", "Source": "Georgia Department of Public Health", "Type_": "General Acute Care Hospital", "Trauma": "II", "Alt_Name": null, "Method": "Imagery", "Website": null, "Phone": null, "Address": "304 Turner Mccall Boulevard", "Lat": 34.259734, "POC": null, "Date_Creat": 1353715200000, "Long_": -85.179687, "Name": "Floyd Medical Center", "OBJECTID": 3548, "Ttl_Staff": 0, "Beds": 0, "FIPS": "13115", "Helipad": null, "State_ID": "142", "ID": "0014330165", "NAICS_Des": "General Medical And Surgical Hospitals", "State": "GA", "County": "Floyd", "Owner": null, "Date_Geol": 1364774400000, "ST_FIPS": "13"}},
{"geometry": {"type": "Point", "coordinates": [-84.9815662, 32.4808293]}, "type": "Feature", "properties": {"City": "Columbus", "Zip": "31901", "NAICS": "622210", "Source": "Georgia Department of Public Health", "Type_": "General Acute Care Hospital", "Trauma": "II", "Alt_Name": null, "Method": "Imagery", "Website": null, "Phone": null, "Address": "710 Center Street", "Lat": 32.480829, "POC": null, "Date_Creat": 1353715200000, "Long_": -84.981566, "Name": "The Medical Center", "OBJECTID": 3561, "Ttl_Staff": 0, "Beds": 0, "FIPS": "13215", "Helipad": null, "State_ID": "174", "ID": "0017431901", "NAICS_Des": "General Medical And Surgical Hospitals", "State": "GA", "County": "Muscogee", "Owner": null, "Date_Geol": 1364774400000, "ST_FIPS": "13"}},
{"geometry": {"type": "Point", "coordinates": [-83.4805668, 33.5849352]}, "type": "Feature", "properties": {"City": "Madison", "Zip": "30650", "NAICS": "622210", "Source": "Georgia Department of Public Health", "Type_": "General Acute Care Hospital", "Trauma": "IV", "Alt_Name": null, "Method": "Imagery", "Website": null, "Phone": null, "Address": "1077 South Main Street", "Lat": 33.584935, "POC": null, "Date_Creat": 1353715200000, "Long_": -83.480566, "Name": "Morgan Memorial Hospital", "OBJECTID": 3566, "Ttl_Staff": 0, "Beds": 0, "FIPS": "13211", "Helipad": null, "State_ID": "64", "ID": "0006630650", "NAICS_Des": "General Medical And Surgical Hospitals", "State": "GA", "County": "Morgan", "Owner": null, "Date_Geol": 1364774400000, "ST_FIPS": "13"}},
{"geometry": {"type": "Point", "coordinates": [-81.9888227, 33.4707745]}, "type": "Feature", "properties": {"City": "Augusta", "Zip": "30912", "NAICS": "622210", "Source": "Georgia Department of Public Health", "Type_": "General Acute Care Hospital", "Trauma": "I", "Alt_Name": null, "Method": "Imagery", "Website": null, "Phone": null, "Address": "1120 15Th Street", "Lat": 33.470774, "POC": null, "Date_Creat": 1353715200000, "Long_": -81.988822, "Name": "Mcg Health Inc", "OBJECTID": 3605, "Ttl_Staff": 0, "Beds": 0, "FIPS": "13245", "Helipad": null, "State_ID": "184", "ID": "0000530912", "NAICS_Des": "General Medical And Surgical Hospitals", "State": "GA", "County": "Richmond", "Owner": null, "Date_Geol": 1364774400000, "ST_FIPS": "13"}},
{"geometry": {"type": "Point", "coordinates": [-83.7186755, 33.783117]}, "type": "Feature", "properties": {"City": "Monroe", "Zip": "30655", "NAICS": "622210", "Source": "Georgia Department of Public Health", "Type_": "General Acute Care Hospital", "Trauma": "IV", "Alt_Name": null, "Method": "Imagery", "Website": null, "Phone": null, "Address": "330 Alcovy Street", "Lat": 33.783116, "POC": null, "Date_Creat": 1353715200000, "Long_": -83.718675, "Name": "Quorum Health Resources - Walton Medical Center", "OBJECTID": 3680, "Ttl_Staff": 0, "Beds": 0, "FIPS": "13297", "Helipad": null, "State_ID": "54", "ID": "0005630655", "NAICS_Des": "General Medical And Surgical Hospitals", "State": "GA", "County": "Walton", "Owner": null, "Date_Geol": 1364774400000, "ST_FIPS": "13"}},
{"geometry": {"type": "Point", "coordinates": [-84.3196501, 33.7935707]}, "type": "Feature", "properties": {"City": "Druid Hills", "Zip": "30322", "NAICS": "622210", "Source": "Georgia Department of Public Health", "Type_": "General Acute Care Hospital", "Trauma": "II", "Alt_Name": null, "Method": "Imagery", "Website": null, "Phone": null, "Address": "1405 Clifton Road Ne", "Lat": 33.79357, "POC": null, "Date_Creat": 1353715200000, "Long_": -84.31965, "Name": "Childrens Healthcare Of Atlanta - Egleston", "OBJECTID": 3707, "Ttl_Staff": 0, "Beds": 0, "FIPS": "13089", "Helipad": null, "State_ID": "83", "ID": "0008530322", "NAICS_Des": "General Medical And Surgical Hospitals", "State": "GA", "County": "Dekalb", "Owner": null, "Date_Geol": 1364774400000, "ST_FIPS": "13"}},
{"geometry": {"type": "Point", "coordinates": [-82.1565354, 34.1757935]}, "type": "Feature", "properties": {"City": "Greenwood", "Zip": "29646", "NAICS": "622210", "Source": "Division of Public Health Informatics, PHSIS, DHEC", "Type_": "General Acute Care Hospital", "Trauma": "III", "Alt_Name": null, "Method": "Imagery with Other", "Website": null, "Phone": "8647254111", "Address": "1325 Spring St", "Lat": 34.175793, "POC": null, "Date_Creat": 1341273600000, "Long_": -82.156535, "Name": "Self Regional Healthcare", "OBJECTID": 3896, "Ttl_Staff": 0, "Beds": 354, "FIPS": "45047", "Helipad": null, "State_ID": "38785285", "ID": "0001529646", "NAICS_Des": "General Medical And Surgical Hospitals", "State": "SC", "County": "Greenwood", "Owner": null, "Date_Geol": 1369699200000, "ST_FIPS": "45"}},
{"geometry": {"type": "Point", "coordinates": [-82.4123488, 34.8189009]}, "type": "Feature", "properties": {"City": "Greenville", "Zip": "29605", "NAICS": "622210", "Source": "Division of Public Health Informatics, PHSIS, DHEC", "Type_": "General Acute Care Hospital", "Trauma": "I", "Alt_Name": null, "Method": "Imagery with Other", "Website": null, "Phone": "8644557114", "Address": "701 Grove Rd", "Lat": 34.8189, "POC": null, "Date_Creat": 1341273600000, "Long_": -82.412348, "Name": "Greenville Memorial Medical Center", "OBJECTID": 3898, "Ttl_Staff": 0, "Beds": 746, "FIPS": "45045", "Helipad": null, "State_ID": "38783931", "ID": "0000129605", "NAICS_Des": "General Medical And Surgical Hospitals", "State": "SC", "County": "Greenville", "Owner": null, "Date_Geol": 1369699200000, "ST_FIPS": "45"}},
{"geometry": {"type": "Point", "coordinates": [-82.2442669, 34.9201225]}, "type": "Feature", "properties": {"City": "Greer", "Zip": "29650", "NAICS": "622210", "Source": "Division of Public Health Informatics, PHSIS, DHEC", "Type_": "General Acute Care Hospital", "Trauma": "III", "Alt_Name": null, "Method": "Imagery with Other", "Website": null, "Phone": "8647978001", "Address": "830 S Buncombe Rd", "Lat": 34.920122, "POC": null, "Date_Creat": 1341273600000, "Long_": -82.244266, "Name": "Greer Memorial Hospital", "OBJECTID": 3908, "Ttl_Staff": 0, "Beds": 82, "FIPS": "45045", "Helipad": null, "State_ID": "41089405", "ID": "0009529650", "NAICS_Des": "General Medical And Surgical Hospitals", "State": "SC", "County": "Greenville", "Owner": null, "Date_Geol": 1369699200000, "ST_FIPS": "45"}},
{"geometry": {"type": "Point", "coordinates": [-81.9393717, 34.9666076]}, "type": "Feature", "properties": {"City": "Spartanburg", "Zip": "29303", "NAICS": "622210", "Source": "Division of Public Health Informatics, PHSIS, DHEC", "Type_": "General Acute Care Hospital", "Trauma": "I", "Alt_Name": null, "Method": "Imagery with Other", "Website": null, "Phone": "8645606000", "Address": "101 E Wood St", "Lat": 34.966607, "POC": null, "Date_Creat": 1341273600000, "Long_": -81.939371, "Name": "Spartanburg Regional Medical Center", "OBJECTID": 3914, "Ttl_Staff": 0, "Beds": 484, "FIPS": "45083", "Helipad": null, "State_ID": "38785325", "ID": "0007229303", "NAICS_Des": "General Medical And Surgical Hospitals", "State": "SC", "County": "Spartanburg", "Owner": null, "Date_Geol": 1369699200000, "ST_FIPS": "45"}},
{"geometry": {"type": "Point", "coordinates": [-82.6464868, 34.5114842]}, "type": "Feature", "properties": {"City": "Anderson", "Zip": "29621", "NAICS": "622210", "Source": "Division of Public Health Informatics, PHSIS, DHEC", "Type_": "General Acute Care Hospital", "Trauma": "II", "Alt_Name": null, "Method": "Imagery with Other", "Website": null, "Phone": "8645121100", "Address": "800 N Fant St", "Lat": 34.511484, "POC": null, "Date_Creat": 1341273600000, "Long_": -82.646486, "Name": "Anmed Health Medical Center", "OBJECTID": 3945, "Ttl_Staff": 0, "Beds": 423, "FIPS": "45007", "Helipad": null, "State_ID": "38783542", "ID": "0000529621", "NAICS_Des": "General Medical And Surgical Hospitals", "State": "SC", "County": "Anderson", "Owner": null, "Date_Geol": 1369699200000, "ST_FIPS": "45"}},
{"geometry": {"type": "Point", "coordinates": [-79.7006277, 41.3613834]}, "type": "Feature", "properties": {"City": "Seneca", "Zip": "16346", "NAICS": "622210", "Source": "PA Dept. of Health", "Type_": "General Acute Care Hospital", "Trauma": "III", "Alt_Name": null, "Method": "Imagery", "Website": null, "Phone": "8144377000", "Address": "100 Fairfield Drive", "Lat": 41.361383, "POC": null, "Date_Creat": 1362960000000, "Long_": -79.700627, "Name": "Upmc Northwest - Seneca", "OBJECTID": 5463, "Ttl_Staff": 0, "Beds": 164, "FIPS": "42121", "Helipad": "Y", "State_ID": "580100", "ID": "0023416346", "NAICS_Des": "General Medical And Surgical Hospitals", "State": "PA", "County": "Venango", "Owner": "Other,Not For Profit", "Date_Geol": 1363824000000, "ST_FIPS": "42"}},
{"geometry": {"type": "Point", "coordinates": [-76.520727, 41.98023]}, "type": "Feature", "properties": {"City": "Sayre", "Zip": "18840", "NAICS": "622210", "Source": "PA Dept. of Health", "Type_": "General Acute Care Hospital", "Trauma": "II", "Alt_Name": null, "Method": "Imagery", "Website": null, "Phone": "5708886666", "Address": "One Guthrie Square", "Lat": 41.98023, "POC": null, "Date_Creat": 1362960000000, "Long_": -76.520727, "Name": "Robert Packer Hospital", "OBJECTID": 5477, "Ttl_Staff": 0, "Beds": 238, "FIPS": "42015", "Helipad": "Y", "State_ID": "440600", "ID": "0021118840", "NAICS_Des": "General Medical And Surgical Hospitals", "State": "PA", "County": "Bradford", "Owner": "Other,Not For Profit", "Date_Geol": 1363824000000, "ST_FIPS": "42"}},
{"geometry": {"type": "Point", "coordinates": [-74.923847, 40.202759]}, "type": "Feature", "properties": {"City": "Langhorne", "Zip": "19047", "NAICS": "622210", "Source": "PA Dept. of Health", "Type_": "General Acute Care Hospital", "Trauma": "II", "Alt_Name": null, "Method": "Imagery", "Website": null, "Phone": "2157502003", "Address": "1201 Langhorne-Newtown Road", "Lat": 40.202759, "POC": null, "Date_Creat": 1362960000000, "Long_": -74.923847, "Name": "St Mary Medical Center", "OBJECTID": 5488, "Ttl_Staff": 0, "Beds": 375, "FIPS": "42017", "Helipad": "Y", "State_ID": "710200", "ID": "0024719047", "NAICS_Des": "General Medical And Surgical Hospitals", "State": "PA", "County": "Bucks", "Owner": "Non-profit Corp.", "Date_Geol": 1363824000000, "ST_FIPS": "42"}},
{"geometry": {"type": "Point", "coordinates": [-75.950164, 40.330517]}, "type": "Feature", "properties": {"City": "Reading", "Zip": "19612", "NAICS": "622210", "Source": "PA Dept. of Health", "Type_": "General Acute Care Hospital", "Trauma": "II", "Alt_Name": null, "Method": "Imagery", "Website": null, "Phone": "6109888000", "Address": "Po Box 16052  Sixth Ave & Spruce St", "Lat": 40.330517, "POC": null, "Date_Creat": 1362960000000, "Long_": -75.950164, "Name": "Reading Hospital & Medical Center", "OBJECTID": 5493, "Ttl_Staff": 0, "Beds": 735, "FIPS": "42011", "Helipad": "Y", "State_ID": "440400", "ID": "0020919612", "NAICS_Des": "General Medical And Surgical Hospitals", "State": "PA", "County": "Berks", "Owner": "Non-profit Corp.", "Date_Geol": 1363824000000, "ST_FIPS": "42"}},
{"geometry": {"type": "Point", "coordinates": [-78.4083, 40.501166]}, "type": "Feature", "properties": {"City": "Altoona", "Zip": "16601", "NAICS": "622210", "Source": "PA Dept. of Health", "Type_": "General Acute Care Hospital", "Trauma": "II", "Alt_Name": null, "Method": "Imagery", "Website": null, "Phone": "8149462011", "Address": "620 Howard Avenue", "Lat": 40.501166, "POC": null, "Date_Creat": 1362960000000, "Long_": -78.408299, "Name": "Altoona Regional Health System", "OBJECTID": 5495, "Ttl_Staff": 0, "Beds": 0, "FIPS": "42013", "Helipad": "Y", "State_ID": "012802", "ID": "0001816601", "NAICS_Des": "General Medical And Surgical Hospitals", "State": "PA", "County": "Blair", "Owner": "Non-profit Corp.", "Date_Geol": 1363824000000, "ST_FIPS": "42"}},
{"geometry": {"type": "Point", "coordinates": [-78.398317, 40.521878]}, "type": "Feature", "properties": {"City": "Altoona", "Zip": "16601", "NAICS": "622210", "Source": "PA Dept. of Health", "Type_": "General Acute Care Hospital", "Trauma": "II", "Alt_Name": null, "Method": "Imagery", "Website": null, "Phone": "8149462011", "Address": "620 Howard Avenue", "Lat": 40.521878, "POC": null, "Date_Creat": 1362960000000, "Long_": -78.398317, "Name": "Altoona Regional Health System", "OBJECTID": 5496, "Ttl_Staff": 0, "Beds": 0, "FIPS": "42013", "Helipad": "Y", "State_ID": "012801", "ID": "0001916601", "NAICS_Des": "General Medical And Surgical Hospitals", "State": "PA", "County": "Blair", "Owner": "Non-profit Corp.", "Date_Geol": 1363824000000, "ST_FIPS": "42"}},
{"geometry": {"type": "Point", "coordinates": [-76.718501, 39.945698]}, "type": "Feature", "properties": {"City": "York", "Zip": "17405", "NAICS": "622210", "Source": "PA Dept. of Health", "Type_": "General Acute Care Hospital", "Trauma": "I", "Alt_Name": null, "Method": "Imagery", "Website": null, "Phone": "7178512345", "Address": "1001 South George Street", "Lat": 39.945698, "POC": null, "Date_Creat": 1362960000000, "Long_": -76.718501, "Name": "York Hospital", "OBJECTID": 5512, "Ttl_Staff": 0, "Beds": 572, "FIPS": "42133", "Helipad": "Y", "State_ID": "250300", "ID": "0017217405", "NAICS_Des": "General Medical And Surgical Hospitals", "State": "PA", "County": "York", "Owner": "Non-profit Corp.", "Date_Geol": 1363824000000, "ST_FIPS": "42"}},
{"geometry": {"type": "Point", "coordinates": [-79.985114, 40.436099]}, "type": "Feature", "properties": {"City": "Pittsburgh", "Zip": "15219", "NAICS": "622210", "Source": "PA Dept. of Health", "Type_": "General Acute Care Hospital", "Trauma": "I", "Alt_Name": null, "Method": "Imagery", "Website": null, "Phone": "4122327637", "Address": "1400 Locust Street", "Lat": 40.436099, "POC": null, "Date_Creat": 1362960000000, "Long_": -79.985113, "Name": "Upmc Mercy", "OBJECTID": 5526, "Ttl_Staff": 0, "Beds": 495, "FIPS": "42003", "Helipad": "Y", "State_ID": "136100", "ID": "0009715219", "NAICS_Des": "General Medical And Surgical Hospitals", "State": "PA", "County": "Allegheny", "Owner": "Non-profit Corp.", "Date_Geol": 1363824000000, "ST_FIPS": "42"}},
{"geometry": {"type": "Point", "coordinates": [-79.9607068, 40.4427836]}, "type": "Feature", "properties": {"City": "Pittsburgh", "Zip": "15213", "NAICS": "622210", "Source": "PA Dept. of Health", "Type_": "General Acute Care Hospital", "Trauma": "I", "Alt_Name": null, "Method": "Imagery", "Website": null, "Phone": "4126472345", "Address": "200 Lothrop Street", "Lat": 40.442783, "POC": null, "Date_Creat": 1362960000000, "Long_": -79.960706, "Name": "Upmc Presbyterian Shadyside", "OBJECTID": 5528, "Ttl_Staff": 0, "Beds": 1574, "FIPS": "42003", "Helipad": "Y", "State_ID": "163300", "ID": "0011315213", "NAICS_Des": "General Medical And Surgical Hospitals", "State": "PA", "County": "Allegheny", "Owner": "Non-profit Corp.", "Date_Geol": 1363824000000, "ST_FIPS": "42"}},
{"geometry": {"type": "Point", "coordinates": [-80.003402, 40.457063]}, "type": "Feature", "properties": {"City": "Pittsburgh", "Zip": "15212", "NAICS": "622210", "Source": "PA Dept. of Health", "Type_": "General Acute Care Hospital", "Trauma": "I", "Alt_Name": null, "Method": "Imagery", "Website": null, "Phone": "4123593131", "Address": "320 East North Avenue", "Lat": 40.457063, "POC": null, "Date_Creat": 1362960000000, "Long_": -80.003401, "Name": "Allegheny General Hospital", "OBJECTID": 5543, "Ttl_Staff": 0, "Beds": 648, "FIPS": "42003", "Helipad": "Y", "State_ID": "530100", "ID": "0022515212", "NAICS_Des": "General Medical And Surgical Hospitals", "State": "PA", "County": "Allegheny", "Owner": "Non-profit Corp.", "Date_Geol": 1363824000000, "ST_FIPS": "42"}},
{"geometry": {"type": "Point", "coordinates": [-74.982451, 40.071141]}, "type": "Feature", "properties": {"City": "Philadelphia", "Zip": "19114", "NAICS": "622210", "Source": "PA Dept. of Health", "Type_": "General Acute Care Hospital", "Trauma": "II", "Alt_Name": null, "Method": "Imagery", "Website": null, "Phone": "2156124000", "Address": "10800 Knights Road", "Lat": 40.071141, "POC": null, "Date_Creat": 1362960000000, "Long_": -74.98245, "Name": "Aria Health", "OBJECTID": 5639, "Ttl_Staff": 0, "Beds": 0, "FIPS": "42101", "Helipad": "Y", "State_ID": "061802", "ID": "0005619114", "NAICS_Des": "General Medical And Surgical Hospitals", "State": "PA", "County": "Philadelphia", "Owner": "Non-profit Corp.", "Date_Geol": 1363824000000, "ST_FIPS": "42"}},
{"geometry": {"type": "Point", "coordinates": [-75.1630302, 39.957537]}, "type": "Feature", "properties": {"City": "Philadelphia", "Zip": "19102", "NAICS": "622210", "Source": "PA Dept. of Health", "Type_": "General Acute Care Hospital", "Trauma": "I", "Alt_Name": null, "Method": "Imagery", "Website": null, "Phone": "2157627000", "Address": "230 North Broad Street", "Lat": 39.957536, "POC": null, "Date_Creat": 1362960000000, "Long_": -75.16303, "Name": "Hahnemann University Hospital", "OBJECTID": 5641, "Ttl_Staff": 0, "Beds": 496, "FIPS": "42101", "Helipad": "Y", "State_ID": "081700", "ID": "0006819102", "NAICS_Des": "General Medical And Surgical Hospitals", "State": "PA", "County": "Philadelphia", "Owner": "Corporation", "Date_Geol": 1363824000000, "ST_FIPS": "42"}},
{"geometry": {"type": "Point", "coordinates": [-75.1509023, 40.0048349]}, "type": "Feature", "properties": {"City": "Philadelphia", "Zip": "19140", "NAICS": "622210", "Source": "PA Dept. of Health", "Type_": "General Acute Care Hospital", "Trauma": "I", "Alt_Name": null, "Method": "Imagery", "Website": null, "Phone": "2157072000", "Address": "3401 N Broad Street  Hosp Admin Suite D", "Lat": 40.004834, "POC": null, "Date_Creat": 1362960000000, "Long_": -75.150902, "Name": "Temple University Hospital", "OBJECTID": 5651, "Ttl_Staff": 0, "Beds": 740, "FIPS": "42101", "Helipad": "Y", "State_ID": "200700", "ID": "0013519140", "NAICS_Des": "General Medical And Surgical Hospitals", "State": "PA", "County": "Philadelphia", "Owner": "Non-profit Corp.", "Date_Geol": 1363824000000, "ST_FIPS": "42"}},
{"geometry": {"type": "Point", "coordinates": [-75.157946, 39.9497084]}, "type": "Feature", "properties": {"City": "Philadelphia", "Zip": "19107", "NAICS": "622210", "Source": "PA Dept. of Health", "Type_": "General Acute Care Hospital", "Trauma": "I", "Alt_Name": null, "Method": "Imagery", "Website": null, "Phone": "2159556000", "Address": "111 South 11Th Street", "Lat": 39.949708, "POC": null, "Date_Creat": 1362960000000, "Long_": -75.157946, "Name": "Thomas Jefferson University Hospital", "OBJECTID": 5652, "Ttl_Staff": 0, "Beds": 957, "FIPS": "42101", "Helipad": "Y", "State_ID": "200800", "ID": "0013619107", "NAICS_Des": "General Medical And Surgical Hospitals", "State": "PA", "County": "Philadelphia", "Owner": "Non-profit Corp.", "Date_Geol": 1363824000000, "ST_FIPS": "42"}},
{"geometry": {"type": "Point", "coordinates": [-75.143342, 40.036737]}, "type": "Feature", "properties": {"City": "Philadelphia", "Zip": "19141", "NAICS": "622210", "Source": "PA Dept. of Health", "Type_": "General Acute Care Hospital", "Trauma": "I", "Alt_Name": null, "Method": "Imagery", "Website": null, "Phone": "2154567890", "Address": "5501 Old York Road", "Lat": 40.036737, "POC": null, "Date_Creat": 1362960000000, "Long_": -75.143342, "Name": "Albert Einstein Medical Center", "OBJECTID": 5654, "Ttl_Staff": 0, "Beds": 772, "FIPS": "42101", "Helipad": "Y", "State_ID": "270600", "ID": "0017619141", "NAICS_Des": "General Medical And Surgical Hospitals", "State": "PA", "County": "Philadelphia", "Owner": "Non-profit Corp.", "Date_Geol": 1363824000000, "ST_FIPS": "42"}},
{"geometry": {"type": "Point", "coordinates": [-75.1941742, 39.949855]}, "type": "Feature", "properties": {"City": "Philadelphia", "Zip": "19104", "NAICS": "622210", "Source": "PA Dept. of Health", "Type_": "General Acute Care Hospital", "Trauma": "I", "Alt_Name": null, "Method": "Imagery", "Website": null, "Phone": "2156624000", "Address": "3400 Spruce Street", "Lat": 39.949854, "POC": null, "Date_Creat": 1362960000000, "Long_": -75.194174, "Name": "Hospital Of The University Of Pa", "OBJECTID": 5656, "Ttl_Staff": 0, "Beds": 782, "FIPS": "42101", "Helipad": "Y", "State_ID": "341100", "ID": "0019219104", "NAICS_Des": "General Medical And Surgical Hospitals", "State": "PA", "County": "Philadelphia", "Owner": "Non-profit Corp.", "Date_Geol": 1363824000000, "ST_FIPS": "42"}},
{"geometry": {"type": "Point", "coordinates": [-78.9183624, 40.3057498]}, "type": "Feature", "properties": {"City": "Johnstown", "Zip": "15905", "NAICS": "622210", "Source": "PA Dept. of Health", "Type_": "General Acute Care Hospital", "Trauma": "I", "Alt_Name": null, "Method": "Imagery", "Website": null, "Phone": "8145339000", "Address": "1086 Franklin Street", "Lat": 40.305749, "POC": null, "Date_Creat": 1362960000000, "Long_": -78.918362, "Name": "Conemaugh Valley Memorial Hospital", "OBJECTID": 5676, "Ttl_Staff": 0, "Beds": 486, "FIPS": "42021", "Helipad": "Y", "State_ID": "035600", "ID": "0003615905", "NAICS_Des": "General Medical And Surgical Hospitals", "State": "PA", "County": "Cambria", "Owner": "Non-profit Corp.", "Date_Geol": 1363824000000, "ST_FIPS": "42"}},
{"geometry": {"type": "Point", "coordinates": [-75.501087, 40.044189]}, "type": "Feature", "properties": {"City": "Paoli", "Zip": "19301", "NAICS": "622210", "Source": "PA Dept. of Health", "Type_": "General Acute Care Hospital", "Trauma": "II", "Alt_Name": null, "Method": "Imagery", "Website": null, "Phone": "6106481000", "Address": "255 West Lancaster Avenue", "Lat": 40.044189, "POC": null, "Date_Creat": 1362960000000, "Long_": -75.501087, "Name": "Main Line Hospital Paoli", "OBJECTID": 5681, "Ttl_Staff": 0, "Beds": 214, "FIPS": "42029", "Helipad": "Y", "State_ID": "161800", "ID": "0011019301", "NAICS_Des": "General Medical And Surgical Hospitals", "State": "PA", "County": "Chester", "Owner": "Non-profit Corp.", "Date_Geol": 1363824000000, "ST_FIPS": "42"}},
{"geometry": {"type": "Point", "coordinates": [-75.80899, 41.257365]}, "type": "Feature", "properties": {"City": "Wilkes-Barre", "Zip": "18711", "NAICS": "622210", "Source": "PA Dept. of Health", "Type_": "General Acute Care Hospital", "Trauma": "II", "Alt_Name": null, "Method": "Imagery", "Website": null, "Phone": "5708087300", "Address": "1000 East Mountain Drive", "Lat": 41.257365, "POC": null, "Date_Creat": 1362960000000, "Long_": -75.808989, "Name": "Geisinger Wyoming Valley Medical Center", "OBJECTID": 5705, "Ttl_Staff": 0, "Beds": 243, "FIPS": "42079", "Helipad": "Y", "State_ID": "148900", "ID": "0010718711", "NAICS_Des": "General Medical And Surgical Hospitals", "State": "PA", "County": "Luzerne", "Owner": "Non-profit Corp.", "Date_Geol": 1363824000000, "ST_FIPS": "42"}},
{"geometry": {"type": "Point", "coordinates": [-75.393363, 40.609357]}, "type": "Feature", "properties": {"City": "Bethlehem", "Zip": "18015", "NAICS": "622210", "Source": "PA Dept. of Health", "Type_": "General Acute Care Hospital", "Trauma": "I", "Alt_Name": null, "Method": "Imagery", "Website": null, "Phone": "6109544000", "Address": "801 Ostrum Street", "Lat": 40.609357, "POC": null, "Date_Creat": 1362960000000, "Long_": -75.393363, "Name": "St Lukes Hospital Bethlehem", "OBJECTID": 5714, "Ttl_Staff": 0, "Beds": 638, "FIPS": "42077", "Helipad": "Y", "State_ID": "451200", "ID": "0021518015", "NAICS_Des": "General Medical And Surgical Hospitals", "State": "PA", "County": "Lehigh", "Owner": "Non-profit Corp.", "Date_Geol": 1363824000000, "ST_FIPS": "42"}},
{"geometry": {"type": "Point", "coordinates": [-75.522881, 40.56644]}, "type": "Feature", "properties": {"City": "Allentown", "Zip": "18105", "NAICS": "622210", "Source": "PA Dept. of Health", "Type_": "General Acute Care Hospital", "Trauma": "I", "Alt_Name": null, "Method": "Imagery", "Website": null, "Phone": "6104028000", "Address": "Cedar Crest Blvd & I-78 Po Box 689", "Lat": 40.56644, "POC": null, "Date_Creat": 1362960000000, "Long_": -75.52288, "Name": "Lehigh Valley Hospital", "OBJECTID": 5715, "Ttl_Staff": 0, "Beds": 797, "FIPS": "42077", "Helipad": "Y", "State_ID": "530200", "ID": "0022618105", "NAICS_Des": "General Medical And Surgical Hospitals", "State": "PA", "County": "Lehigh", "Owner": "Non-profit Corp.", "Date_Geol": 1363824000000, "ST_FIPS": "42"}},
{"geometry": {"type": "Point", "coordinates": [-76.304203, 40.04736]}, "type": "Feature", "properties": {"City": "Lancaster", "Zip": "17604", "NAICS": "622210", "Source": "PA Dept. of Health", "Type_": "General Acute Care Hospital", "Trauma": "II", "Alt_Name": null, "Method": "Imagery", "Website": null, "Phone": "7175445511", "Address": "Po Box 3555  555 North Duke Street", "Lat": 40.04736, "POC": null, "Date_Creat": 1362960000000, "Long_": -76.304202, "Name": "Lancaster General Hospital", "OBJECTID": 5722, "Ttl_Staff": 0, "Beds": 640, "FIPS": "42071", "Helipad": "Y", "State_ID": "120800", "ID": "0008717604", "NAICS_Des": "General Medical And Surgical Hospitals", "State": "PA", "County": "Lancaster", "Owner": "Non-profit Corp.", "Date_Geol": 1363824000000, "ST_FIPS": "42"}},
{"geometry": {"type": "Point", "coordinates": [-75.120999, 40.1188949]}, "type": "Feature", "properties": {"City": "Abington", "Zip": "19001", "NAICS": "622210", "Source": "PA Dept. of Health", "Type_": "General Acute Care Hospital", "Trauma": "II", "Alt_Name": null, "Method": "Imagery", "Website": null, "Phone": "2155762000", "Address": "1200 Old York Road", "Lat": 40.118894, "POC": null, "Date_Creat": 1362960000000, "Long_": -75.120998, "Name": "Abington Memorial Hospital", "OBJECTID": 5746, "Ttl_Staff": 0, "Beds": 674, "FIPS": "42091", "Helipad": "Y", "State_ID": "270500", "ID": "0017519001", "NAICS_Des": "General Medical And Surgical Hospitals", "State": "PA", "County": "Montgomery", "Owner": "Non-profit Corp.", "Date_Geol": 1363824000000, "ST_FIPS": "42"}},
{"geometry": {"type": "Point", "coordinates": [-76.605199, 40.967631]}, "type": "Feature", "properties": {"City": "Danville", "Zip": "17822", "NAICS": "622210", "Source": "PA Dept. of Health", "Type_": "General Acute Care Hospital", "Trauma": "I", "Alt_Name": null, "Method": "Imagery", "Website": null, "Phone": "5702716211", "Address": "100 North Academy Avenue", "Lat": 40.967631, "POC": null, "Date_Creat": 1362960000000, "Long_": -76.605199, "Name": "Geisinger Medical Center", "OBJECTID": 5753, "Ttl_Staff": 0, "Beds": 475, "FIPS": "42093", "Helipad": "N", "State_ID": "071800", "ID": "0006017822", "NAICS_Des": "General Medical And Surgical Hospitals", "State": "PA", "County": "Montour", "Owner": "Non-profit Corp.", "Date_Geol": 1363824000000, "ST_FIPS": "42"}},
{"geometry": {"type": "Point", "coordinates": [-75.646223, 41.400206]}, "type": "Feature", "properties": {"City": "Scranton", "Zip": "18510", "NAICS": "622210", "Source": "PA Dept. of Health", "Type_": "General Acute Care Hospital", "Trauma": "II", "Alt_Name": null, "Method": "Imagery", "Website": null, "Phone": "7179698240", "Address": "1800 Mulberry Street", "Lat": 41.400206, "POC": null, "Date_Creat": 1362960000000, "Long_": -75.646223, "Name": "Community Medical Center", "OBJECTID": 5762, "Ttl_Staff": 0, "Beds": 297, "FIPS": "42069", "Helipad": "Y", "State_ID": "037100", "ID": "0004418510", "NAICS_Des": "General Medical And Surgical Hospitals", "State": "PA", "County": "Lackawanna", "Owner": "Other,Not For Profit", "Date_Geol": 1363824000000, "ST_FIPS": "42"}},
{"geometry": {"type": "Point", "coordinates": [-75.174535, 40.992799]}, "type": "Feature", "properties": {"City": "East Stroudsburg", "Zip": "18301", "NAICS": "622210", "Source": "PA Dept. of Health", "Type_": "General Acute Care Hospital", "Trauma": "III", "Alt_Name": null, "Method": "Imagery", "Website": null, "Phone": "7174214000", "Address": "206 East Brown Street", "Lat": 40.992799, "POC": null, "Date_Creat": 1362960000000, "Long_": -75.174534, "Name": "Pocono Medical Center", "OBJECTID": 5783, "Ttl_Staff": 0, "Beds": 235, "FIPS": "42089", "Helipad": "Y", "State_ID": "072000", "ID": "0006618301", "NAICS_Des": "General Medical And Surgical Hospitals", "State": "PA", "County": "Monroe", "Owner": "Non-profit Corp.", "Date_Geol": 1363824000000, "ST_FIPS": "42"}},
{"geometry": {"type": "Point", "coordinates": [-76.674842, 40.263754]}, "type": "Feature", "properties": {"City": "Hershey", "Zip": "17033", "NAICS": "622210", "Source": "PA Dept. of Health", "Type_": "General Acute Care Hospital", "Trauma": "I", "Alt_Name": null, "Method": "Imagery", "Website": null, "Phone": "7175318521", "Address": "Po Box 850 500 University Drive", "Lat": 40.263754, "POC": null, "Date_Creat": 1362960000000, "Long_": -76.674842, "Name": "Milton S Hershey Medical Center", "OBJECTID": 5801, "Ttl_Staff": 0, "Beds": 484, "FIPS": "42043", "Helipad": "Y", "State_ID": "135100", "ID": "0009317033", "NAICS_Des": "General Medical And Surgical Hospitals", "State": "PA", "County": "Dauphin", "Owner": "Other,Not For Profit", "Date_Geol": 1363824000000, "ST_FIPS": "42"}},
{"geometry": {"type": "Point", "coordinates": [-75.367645, 39.856498]}, "type": "Feature", "properties": {"City": "Upland", "Zip": "19013", "NAICS": "622210", "Source": "PA Dept. of Health", "Type_": "General Acute Care Hospital", "Trauma": "II", "Alt_Name": null, "Method": "Imagery", "Website": null, "Phone": "6104472000", "Address": "One Medical Center Boulevard", "Lat": 39.856498, "POC": null, "Date_Creat": 1362960000000, "Long_": -75.367645, "Name": "Crozer-Chester Medical Center", "OBJECTID": 5812, "Ttl_Staff": 0, "Beds": 613, "FIPS": "42045", "Helipad": "Y", "State_ID": "037200", "ID": "0004519013", "NAICS_Des": "General Medical And Surgical Hospitals", "State": "PA", "County": "Delaware", "Owner": "Other,Not For Profit", "Date_Geol": 1363824000000, "ST_FIPS": "42"}},
{"geometry": {"type": "Point", "coordinates": [-80.0853629, 42.135112]}, "type": "Feature", "properties": {"City": "Erie", "Zip": "16550", "NAICS": "622210", "Source": "PA Dept. of Health", "Type_": "General Acute Care Hospital", "Trauma": "II", "Alt_Name": null, "Method": "Imagery", "Website": null, "Phone": "8148776000", "Address": "201 State Street", "Lat": 42.135111, "POC": null, "Date_Creat": 1362960000000, "Long_": -80.085362, "Name": "Upmc Hamot", "OBJECTID": 5820, "Ttl_Staff": 0, "Beds": 412, "FIPS": "42049", "Helipad": "N", "State_ID": "082300", "ID": "0006916550", "NAICS_Des": "General Medical And Surgical Hospitals", "State": "PA", "County": "Erie", "Owner": "Non-profit Corp.", "Date_Geol": 1363824000000, "ST_FIPS": "42"}},
{"geometry": {"type": "Point", "coordinates": [-81.0888624, 32.0305309]}, "type": "Feature", "properties": {"City": "Savannah", "Zip": "31404", "NAICS": "622210", "Source": "Georgia Department of Public Health", "Type_": "General Acute Care Hospital", "Trauma": "I", "Alt_Name": null, "Method": "Imagery", "Website": null, "Phone": null, "Address": "4700 Waters Avenue", "Lat": 32.03053, "POC": null, "Date_Creat": 1353715200000, "Long_": -81.088862, "Name": "Memorial Health", "OBJECTID": 6549, "Ttl_Staff": 0, "Beds": 0, "FIPS": "13051", "Helipad": null, "State_ID": "173", "ID": "0000331404", "NAICS_Des": "General Medical And Surgical Hospitals", "State": "GA", "County": "Chatham", "Owner": null, "Date_Geol": 1364774400000, "ST_FIPS": "13"}},
{"geometry": {"type": "Point", "coordinates": [-79.7589747, 34.197115]}, "type": "Feature", "properties": {"City": "Florence", "Zip": "29506", "NAICS": "622210", "Source": "Division of Public Health Informatics, PHSIS, DHEC", "Type_": "General Acute Care Hospital", "Trauma": "III", "Alt_Name": null, "Method": "Imagery with Other", "Website": null, "Phone": "8437772849", "Address": "555 E Cheves St", "Lat": 34.197114, "POC": null, "Date_Creat": 1341273600000, "Long_": -79.758974, "Name": "Mcleod Regional Medical Center Of The Pee Dee", "OBJECTID": 6600, "Ttl_Staff": 0, "Beds": 453, "FIPS": "45041", "Helipad": null, "State_ID": "38783061", "ID": "0000929506", "NAICS_Des": "General Medical And Surgical Hospitals", "State": "SC", "County": "Florence", "Owner": null, "Date_Geol": 1369699200000, "ST_FIPS": "45"}},
{"geometry": {"type": "Point", "coordinates": [-79.7520197, 34.1598663]}, "type": "Feature", "properties": {"City": "Florence", "Zip": "29505", "NAICS": "622210", "Source": "Division of Public Health Informatics, PHSIS, DHEC", "Type_": "General Acute Care Hospital", "Trauma": "III", "Alt_Name": null, "Method": "Imagery with Other", "Website": null, "Phone": "8436742500", "Address": "805 Pamplico Hwy", "Lat": 34.159866, "POC": null, "Date_Creat": 1341273600000, "Long_": -79.752019, "Name": "Carolinas Hospital System", "OBJECTID": 6605, "Ttl_Staff": 0, "Beds": 310, "FIPS": "45041", "Helipad": null, "State_ID": "38781010", "ID": "0007429505", "NAICS_Des": "General Medical And Surgical Hospitals", "State": "SC", "County": "Florence", "Owner": null, "Date_Geol": 1369699200000, "ST_FIPS": "45"}},
{"geometry": {"type": "Point", "coordinates": [-78.8201068, 33.7584394]}, "type": "Feature", "properties": {"City": "Myrtle Beach", "Zip": "29572", "NAICS": "622210", "Source": "Division of Public Health Informatics, PHSIS, DHEC", "Type_": "General Acute Care Hospital", "Trauma": "III", "Alt_Name": null, "Method": "Imagery with Other", "Website": null, "Phone": "8436921100", "Address": "809 82Nd Pkwy", "Lat": 33.758439, "POC": null, "Date_Creat": 1341273600000, "Long_": -78.820106, "Name": "Grand Strand Regional Medical Center", "OBJECTID": 6610, "Ttl_Staff": 0, "Beds": 269, "FIPS": "45051", "Helipad": null, "State_ID": "38781990", "ID": "0007629572", "NAICS_Des": "General Medical And Surgical Hospitals", "State": "SC", "County": "Horry", "Owner": null, "Date_Geol": 1369699200000, "ST_FIPS": "45"}},
{"geometry": {"type": "Point", "coordinates": [-81.0517309, 34.9566951]}, "type": "Feature", "properties": {"City": "Rock Hill", "Zip": "29732", "NAICS": "622210", "Source": "Division of Public Health Informatics, PHSIS, DHEC", "Type_": "General Acute Care Hospital", "Trauma": "III", "Alt_Name": null, "Method": "Imagery with Other", "Website": null, "Phone": "8033296899", "Address": "222 S Herlong Ave", "Lat": 34.956695, "POC": null, "Date_Creat": 1341273600000, "Long_": -81.05173, "Name": "Piedmont Medical Center", "OBJECTID": 6620, "Ttl_Staff": 0, "Beds": 268, "FIPS": "45091", "Helipad": null, "State_ID": "38782357", "ID": "0001729732", "NAICS_Des": "General Medical And Surgical Hospitals", "State": "SC", "County": "York", "Owner": null, "Date_Geol": 1369699200000, "ST_FIPS": "45"}},
{"geometry": {"type": "Point", "coordinates": [-80.687521, 32.4173298]}, "type": "Feature", "properties": {"City": "Beaufort", "Zip": "29902", "NAICS": "622210", "Source": "Division of Public Health Informatics, PHSIS, DHEC", "Type_": "General Acute Care Hospital", "Trauma": "III", "Alt_Name": null, "Method": "Imagery with Other", "Website": null, "Phone": "8435225200", "Address": "955 Ribaut Rd", "Lat": 32.417329, "POC": null, "Date_Creat": 1341273600000, "Long_": -80.68752, "Name": "Beaufort Memorial Hospital", "OBJECTID": 6629, "Ttl_Staff": 0, "Beds": 169, "FIPS": "45013", "Helipad": null, "State_ID": "38783482", "ID": "0008129902", "NAICS_Des": "General Medical And Surgical Hospitals", "State": "SC", "County": "Beaufort", "Owner": null, "Date_Geol": 1369699200000, "ST_FIPS": "45"}},
{"geometry": {"type": "Point", "coordinates": [-80.0730751, 32.9759625]}, "type": "Feature", "properties": {"City": "N Charleston", "Zip": "29406", "NAICS": "622210", "Source": "Division of Public Health Informatics, PHSIS, DHEC", "Type_": "General Acute Care Hospital", "Trauma": "III", "Alt_Name": null, "Method": "Imagery with Other", "Website": null, "Phone": "8438474100", "Address": "9330 Medical Plaza Dr", "Lat": 32.975962, "POC": null, "Date_Creat": 1341273600000, "Long_": -80.073075, "Name": "Trident Medical Center", "OBJECTID": 6633, "Ttl_Staff": 0, "Beds": 296, "FIPS": "45019", "Helipad": null, "State_ID": "38782423", "ID": "0004129406", "NAICS_Des": "General Medical And Surgical Hospitals", "State": "SC", "County": "Charleston", "Owner": null, "Date_Geol": 1369699200000, "ST_FIPS": "45"}},
{"geometry": {"type": "Point", "coordinates": [-79.9492764, 32.7827939]}, "type": "Feature", "properties": {"City": "Charleston", "Zip": "29401", "NAICS": "622210", "Source": "Division of Public Health Informatics, PHSIS, DHEC", "Type_": "General Acute Care Hospital", "Trauma": "III", "Alt_Name": null, "Method": "Imagery with Other", "Website": null, "Phone": "8437242901", "Address": "316 Calhoun St", "Lat": 32.782793, "POC": null, "Date_Creat": 1341273600000, "Long_": -79.949276, "Name": "Roper Hospital", "OBJECTID": 6634, "Ttl_Staff": 0, "Beds": 316, "FIPS": "45019", "Helipad": null, "State_ID": "38785221", "ID": "0006729401", "NAICS_Des": "General Medical And Surgical Hospitals", "State": "SC", "County": "Charleston", "Owner": null, "Date_Geol": 1369699200000, "ST_FIPS": "45"}},
{"geometry": {"type": "Point", "coordinates": [-79.9479214, 32.785882]}, "type": "Feature", "properties": {"City": "Charleston", "Zip": "29425", "NAICS": "622210", "Source": "Division of Public Health Informatics, PHSIS, DHEC", "Type_": "General Acute Care Hospital", "Trauma": "I", "Alt_Name": null, "Method": "Imagery with Other", "Website": null, "Phone": "8437923232", "Address": "169 Ashley Ave", "Lat": 32.785882, "POC": null, "Date_Creat": 1341273600000, "Long_": -79.947921, "Name": "Musc Medical Center", "OBJECTID": 6636, "Ttl_Staff": 0, "Beds": 604, "FIPS": "45019", "Helipad": null, "State_ID": "38783366", "ID": "0006929425", "NAICS_Des": "General Medical And Surgical Hospitals", "State": "SC", "County": "Charleston", "Owner": null, "Date_Geol": 1369699200000, "ST_FIPS": "45"}},
{"geometry": {"type": "Point", "coordinates": [-80.0424363, 32.8084282]}, "type": "Feature", "properties": {"City": "Charleston", "Zip": "29414", "NAICS": "622210", "Source": "Division of Public Health Informatics, PHSIS, DHEC", "Type_": "General Acute Care Hospital", "Trauma": "III", "Alt_Name": null, "Method": "Imagery with Other", "Website": null, "Phone": "8434021000", "Address": "2095 Henry Tecklenburg Dr", "Lat": 32.808428, "POC": null, "Date_Creat": 1341273600000, "Long_": -80.042436, "Name": "Bon Secours-St Francis Xavier Hospital", "OBJECTID": 6638, "Ttl_Staff": 0, "Beds": 204, "FIPS": "45019", "Helipad": null, "State_ID": "38784893", "ID": "0007829414", "NAICS_Des": "General Medical And Surgical Hospitals", "State": "SC", "County": "Charleston", "Owner": null, "Date_Geol": 1369699200000, "ST_FIPS": "45"}},
{"geometry": {"type": "Point", "coordinates": [-79.8505535, 32.8211809]}, "type": "Feature", "properties": {"City": "Mount Pleasant", "Zip": "29464", "NAICS": "622210", "Source": "Division of Public Health Informatics, PHSIS, DHEC", "Type_": "General Acute Care Hospital", "Trauma": "III", "Alt_Name": null, "Method": "Imagery with Other", "Website": null, "Phone": "8434166210", "Address": "2000 Hospital Dr", "Lat": 32.82118, "POC": null, "Date_Creat": 1341273600000, "Long_": -79.850553, "Name": "East Cooper Medical Center", "OBJECTID": 6639, "Ttl_Staff": 0, "Beds": 130, "FIPS": "45019", "Helipad": null, "State_ID": "38783785", "ID": "0008829464", "NAICS_Des": "General Medical And Surgical Hospitals", "State": "SC", "County": "Charleston", "Owner": null, "Date_Geol": 1369699200000, "ST_FIPS": "45"}},
{"geometry": {"type": "Point", "coordinates": [-80.1046911, 34.349876]}, "type": "Feature", "properties": {"City": "Hartsville", "Zip": "29550", "NAICS": "622210", "Source": "Division of Public Health Informatics, PHSIS, DHEC", "Type_": "General Acute Care Hospital", "Trauma": "III", "Alt_Name": null, "Method": "Imagery with Other", "Website": null, "Phone": "8433392100", "Address": "1304 W Bobo Newsom Hwy", "Lat": 34.349875, "POC": null, "Date_Creat": 1341273600000, "Long_": -80.104691, "Name": "Carolina Pines Regional Medical Center", "OBJECTID": 6649, "Ttl_Staff": 0, "Beds": 116, "FIPS": "45031", "Helipad": null, "State_ID": "39555498", "ID": "0005429550", "NAICS_Des": "General Medical And Surgical Hospitals", "State": "SC", "County": "Darlington", "Owner": null, "Date_Geol": 1369699200000, "ST_FIPS": "45"}},
{"geometry": {"type": "Point", "coordinates": [-81.114199, 34.0059619]}, "type": "Feature", "properties": {"City": "West Columbia", "Zip": "29169", "NAICS": "622210", "Source": "Division of Public Health Informatics, PHSIS, DHEC", "Type_": "General Acute Care Hospital", "Trauma": "III", "Alt_Name": null, "Method": "Imagery with Other", "Website": null, "Phone": "8037912115", "Address": "2720 Sunset Blvd", "Lat": 34.005961, "POC": null, "Date_Creat": 1341273600000, "Long_": -81.114198, "Name": "Lexington Medical Center", "OBJECTID": 6652, "Ttl_Staff": 0, "Beds": 414, "FIPS": "45063", "Helipad": null, "State_ID": "38782139", "ID": "0002429169", "NAICS_Des": "General Medical And Surgical Hospitals", "State": "SC", "County": "Lexington", "Owner": null, "Date_Geol": 1369699200000, "ST_FIPS": "45"}},
{"geometry": {"type": "Point", "coordinates": [-81.0327401, 34.0280306]}, "type": "Feature", "properties": {"City": "Columbia", "Zip": "29203", "NAICS": "622210", "Source": "Division of Public Health Informatics, PHSIS, DHEC", "Type_": "General Acute Care Hospital", "Trauma": "I", "Alt_Name": null, "Method": "Imagery with Other", "Website": null, "Phone": "8034347000", "Address": "5 Richland Medical Park Dr", "Lat": 34.02803, "POC": null, "Date_Creat": 1341273600000, "Long_": -81.03274, "Name": "Palmetto Health Richland", "OBJECTID": 6656, "Ttl_Staff": 0, "Beds": 579, "FIPS": "45079", "Helipad": null, "State_ID": "38691461", "ID": "0001429203", "NAICS_Des": "General Medical And Surgical Hospitals", "State": "SC", "County": "Richland", "Owner": null, "Date_Geol": 1369699200000, "ST_FIPS": "45"}},
{"geometry": {"type": "Point", "coordinates": [-80.8304582, 33.5402675]}, "type": "Feature", "properties": {"City": "Orangeburg", "Zip": "29118", "NAICS": "622210", "Source": "Division of Public Health Informatics, PHSIS, DHEC", "Type_": "General Acute Care Hospital", "Trauma": "III", "Alt_Name": null, "Method": "Imagery with Other", "Website": null, "Phone": "8033952461", "Address": "3000 Saint Matthews Rd", "Lat": 33.540267, "POC": null, "Date_Creat": 1341273600000, "Long_": -80.830458, "Name": "Regional Medical Center Of Orangeburg & Calhoun Counties", "OBJECTID": 6670, "Ttl_Staff": 0, "Beds": 247, "FIPS": "45075", "Helipad": null, "State_ID": "38783210", "ID": "0007929118", "NAICS_Des": "General Medical And Surgical Hospitals", "State": "SC", "County": "Orangeburg", "Owner": null, "Date_Geol": 1369699200000, "ST_FIPS": "45"}}
]}