{"type":"FeatureCollection","features":[
{"geometry": {"type": "Point", "coordinates": [-77.0102449, 38.9292766]}, "type": "Feature", "properties": {"City": "Washington Dc", "Zip": "20422", "NAICS": "622210", "Source": "http://data.dc.gov/metadata.aspx?id=38", "Type_": "General Acute Care Hospital", "Trauma": null, "Alt_Name": null, "Method": "Imagery", "Website": "http://www.washington.med.va.gov/", "Phone": null, "Address": "50 Irving Street Nw", "Lat": 38.929276, "POC": null, "Date_Creat": 1351123200000, "Long_": -77.010244, "Name": "Veterans Affairs Medical Center", "OBJECTID": 5271, "Ttl_Staff": 0, "Beds": 0, "FIPS": "11001", "Helipad": null, "State_ID": "243205", "ID": "0000120422", "NAICS_Des": "General Medical And Surgical Hospitals", "State": "DC", "County": "District Of Columbia", "Owner": null, "Date_Geol": 1362614400000, "ST_FIPS": "11"}},
{"geometry": {"type": "Point", "coordinates": [-76.9812195, 38.9411389]}, "type": "Feature", "properties": {"City": "Washington Dc", "Zip": "20017", "NAICS": "622210", "Source": "http://data.dc.gov/metadata.aspx?id=38", "Type_": "General Acute Care Hospital", "Trauma": null, "Alt_Name": null, "Method": "Imagery", "Website": "http://www.hscpediatriccenter.org/", "Phone": null, "Address": "1731 Bunker Hill Road Ne", "Lat": 38.941138, "POC": null, "Date_Creat": 1351123200000, "Long_": -76.981219, "Name": "The Hsc Pediatric Center", "OBJECTID": 5272, "Ttl_Staff": 0, "Beds": 0, "FIPS": "11001", "Helipad": null, "State_ID": "286452", "ID": "0000220017", "NAICS_Des": "General Medical And Surgical Hospitals", "State": "DC", "County": "District Of Columbia", "Owner": null, "Date_Geol": 1362614400000, "ST_FIPS": "11"}},
{"geometry": {"type": "Point", "coordinates": [-77.1092389, 38.9362208]}, "type": "Feature", "properties": {"City": "Washington Dc", "Zip": "20016", "NAICS": "622210", "Source": "http://data.dc.gov/metadata.aspx?id=38", "Type_": "General Acute Care Hospital", "Trauma": null, "Alt_Name": null, "Method": "Imagery", "Website": "http://www.sibley.org/", "Phone": null, "Address": "5255 Loughboro Road Nw", "Lat": 38.93622, "POC": null, "Date_Creat": 1351123200000, "Long_": -77.109238, "Name": "Sibley Memorial Hospital", "OBJECTID": 5273, "Ttl_Staff": 0, "Beds": 0, "FIPS": "11001", "Helipad": null, "State_ID": "295156", "ID": "0000320016", "NAICS_Des": "General Medical And Surgical Hospitals", "State": "DC", "County": "District Of Columbia", "Owner": null, "Date_Geol": 1362614400000, "ST_FIPS": "11"}},
{"geometry": {"type": "Point", "coordinates": [-77.0132255, 38.8248509]}, "type": "Feature", "properties": {"City": "Washington Dc", "Zip": "20032", "NAICS": "622210", "Source": "http://data.dc.gov/metadata.aspx?id=38", "Type_": "General Acute Care Hospital", "Trauma": null, "Alt_Name": null, "Method": "Imagery", "Website": "http://www.shwhadley.com/index.shtml", "Phone": null, "Address": "4601 Martin Luther King Jr Avenue Sw", "Lat": 38.82485, "POC": null, "Date_Creat": 1351123200000, "Long_": -77.013225, "Name": "Hadley Memorial Hospital", "OBJECTID": 5274, "Ttl_Staff": 0, "Beds": 0, "FIPS": "11001", "Helipad": null, "State_ID": "295152", "ID": "0000420032", "NAICS_Des": "General Medical And Surgical Hospitals", "State": "DC", "County": "District Of Columbia", "Owner": null, "Date_Geol": 1362614400000, "ST_FIPS": "11"}},
{"geometry": {"type": "Point", "coordinates": [-76.9912293, 38.9432873]}, "type": "Feature", "properties": {"City": "Washington Dc", "Zip": "20017", "NAICS": "622210", "Source": "http://data.dc.gov/metadata.aspx?id=38", "Type_": "General Acute Care Hospital", "Trauma": null, "Alt_Name": null, "Method": "Imagery", "Website": "http://www.provhosp.org/", "Phone": null, "Address": "1150 Varnum Street Ne", "Lat": 38.943287, "POC": null, "Date_Creat": 1351123200000, "Long_": -76.991229, "Name": "Providence Hospital", "OBJECTID": 5275, "Ttl_Staff": 0, "Beds": 0, "FIPS": "11001", "Helipad": null, "State_ID": "289609", "ID": "0000520017", "NAICS_Des": "General Medical And Surgical Hospitals", "State": "DC", "County": "District Of Columbia", "Owner": null, "Date_Geol": 1362614400000, "ST_FIPS": "11"}},
{"geometry": {"type": "Point", "coordinates": [-77.0156483, 38.9296519]}, "type": "Feature", "properties": {"City": "Washington Dc", "Zip": "20010", "NAICS": "622210", "Source": "http://data.dc.gov/metadata.aspx?id=38", "Type_": "General Acute Care Hospital", "Trauma": null, "Alt_Name": null, "Method": "Imagery", "Website": "http://www.whcenter.org/", "Phone": null, "Address": "110 Irving Street Nw", "Lat": 38.929651, "POC": null, "Date_Creat": 1351123200000, "Long_": -77.015648, "Name": "Washington Hospital Center", "OBJECTID": 5276, "Ttl_Staff": 0, "Beds": 0, "FIPS": "11001", "Helipad": null, "State_ID": "228314", "ID": "0000620010", "NAICS_Des": "General Medical And Surgical Hospitals", "State": "DC", "County": "District Of Columbia", "Owner": null, "Date_Geol": 1362614400000, "ST_FIPS": "11"}},
{"geometry": {"type": "Point", "coordinates": [-77.0200937, 38.9175484]}, "type": "Feature", "properties": {"City": "Washington Dc", "Zip": "20001", "NAICS": "622210", "Source": "http://data.dc.gov/metadata.aspx?id=38", "Type_": "General Acute Care Hospital", "Trauma": null, "Alt_Name": null, "Method": "Imagery", "Website": "http://www.huhosp.org/", "Phone": null, "Address": "2041 Georgia Avenue Nw", "Lat": 38.917548, "POC": null, "Date_Creat": 1351123200000, "Long_": -77.020093, "Name": "Howard University Hospital", "OBJECTID": 5277, "Ttl_Staff": 0, "Beds": 0, "FIPS": "11001", "Helipad": null, "State_ID": "279523", "ID": "0000720001", "NAICS_Des": "General Medical And Surgical Hospitals", "State": "DC", "County": "District Of Columbia", "Owner": null, "Date_Geol": 1362614400000, "ST_FIPS": "11"}},
{"geometry": {"type": "Point", "coordinates": [-77.0133435, 38.9305425]}, "type": "Feature", "properties": {"City": "Washington Dc", "Zip": "20010", "NAICS": "622210", "Source": "http://data.dc.gov/metadata.aspx?id=38", "Type_": "General Acute Care Hospital", "Trauma": null, "Alt_Name": null, "Method": "Imagery", "Website": "http://www.nrhrehab.org/", "Phone": null, "Address": "102 Irving Street Nw", "Lat": 38.930542, "POC": null, "Date_Creat": 1351123200000, "Long_": -77.013343, "Name": "National Rehabilitation Hospital", "OBJECTID": 5278, "Ttl_Staff": 0, "Beds": 0, "FIPS": "11001", "Helipad": null, "State_ID": "243364", "ID": "0000820010", "NAICS_Des": "General Medical And Surgical Hospitals", "State": "DC", "County": "District Of Columbia", "Owner": null, "Date_Geol": 1362614400000, "ST_FIPS": "11"}},
{"geometry": {"type": "Point", "coordinates": [-77.0143937, 38.9272661]}, "type": "Feature", "properties": {"City": "Washington Dc", "Zip": "20010", "NAICS": "622210", "Source": "http://data.dc.gov/metadata.aspx?id=38", "Type_": "General Acute Care Hospital", "Trauma": null, "Alt_Name": null, "Method": "Imagery", "Website": "http://www.childrensnational.org/", "Phone": null, "Address": "111 Michigan Avenue Nw", "Lat": 38.927266, "POC": null, "Date_Creat": 1351123200000, "Long_": -77.014393, "Name": "Children'S National Medical Center", "OBJECTID": 5279, "Ttl_Staff": 0, "Beds": 0, "FIPS": "11001", "Helipad": null, "State_ID": "243365", "ID": "0000920010", "NAICS_Des": "General Medical And Surgical Hospitals", "State": "DC", "County": "District Of Columbia", "Owner": null, "Date_Geol": 1362614400000, "ST_FIPS": "11"}},
{"geometry": {"type": "Point", "coordinates": [-76.9847507, 38.8360188]}, "type": "Feature", "properties": {"City": "Washington Dc", "Zip": "20032", "NAICS": "622210", "Source": "http://data.dc.gov/metadata.aspx?id=38", "Type_": "General Acute Care Hospital", "Trauma": null, "Alt_Name": null, "Method": "Imagery", "Website": "http://www.united-medicalcenter.com/", "Phone": null, "Address": "1310 Southern Avenue Se", "Lat": 38.836018, "POC": null, "Date_Creat": 1351123200000, "Long_": -76.98475, "Name": "United Medical Center", "OBJECTID": 5280, "Ttl_Staff": 0, "Beds": 0, "FIPS": "11001", "Helipad": null, "State_ID": "277936", "ID": "0001020032", "NAICS_Des": "General Medical And Surgical Hospitals", "State": "DC", "County": "District Of Columbia", "Owner": null, "Date_Geol": 1362614400000, "ST_FIPS": "11"}},
{"geometry": {"type": "Point", "coordinates": [-77.0752249, 38.9119147]}, "type": "Feature", "properties": {"City": "Washington Dc", "Zip": "20007", "NAICS": "622210", "Source": "http://data.dc.gov/metadata.aspx?id=38", "Type_": "General Acute Care Hospital", "Trauma": null, "Alt_Name": null, "Method": "Imagery", "Website": "http://www.georgetownuniversityhospital.org", "Phone": null, "Address": "3800 Reservoir Road Nw", "Lat": 38.911914, "POC": null, "Date_Creat": 1351123200000, "Long_": -77.075224, "Name": "Georgetown University Hospital", "OBJECTID": 5281, "Ttl_Staff": 0, "Beds": 0, "FIPS": "11001", "Helipad": null, "State_ID": "291547", "ID": "0001120007", "NAICS_Des": "General Medical And Surgical Hospitals", "State": "DC", "County": "District Of Columbia", "Owner": null, "Date_Geol": 1362614400000, "ST_FIPS": "11"}},
{"geometry": {"type": "Point", "coordinates": [-77.0506367, 38.901319]}, "type": "Feature", "properties": {"City": "Washington Dc", "Zip": "20037", "NAICS": "622210", "Source": "http://data.dc.gov/metadata.aspx?id=38", "Type_": "General Acute Care Hospital", "Trauma": null, "Alt_Name": null, "Method": "Imagery with Other", "Website": "http://gwhospital.com/", "Phone": null, "Address": "900 23Rd Street Nw", "Lat": 38.901319, "POC": null, "Date_Creat": 1351123200000, "Long_": -77.050636, "Name": "George Washington University Hospital", "OBJECTID": 5282, "Ttl_Staff": 0, "Beds": 0, "FIPS": "11001", "Helipad": null, "State_ID": "242349", "ID": "0001220037", "NAICS_Des": "General Medical And Surgical Hospitals", "State": "DC", "County": "District Of Columbia", "Owner": null, "Date_Geol": 1362614400000, "ST_FIPS": "11"}},
{"geometry": {"type": "Point", "coordinates": [-77.0779624, 38.9439026]}, "type": "Feature", "properties": {"City": "Washington Dc", "Zip": "20016", "NAICS": "622210", "Source": "http://data.dc.gov/metadata.aspx?id=38", "Type_": "General Acute Care Hospital", "Trauma": null, "Alt_Name": null, "Method": "Imagery with Other", "Website": "http://www.psychinstitute.com/", "Phone": null, "Address": "4228 Wisconsin Avenue Nw", "Lat": 38.943902, "POC": null, "Date_Creat": 1351123200000, "Long_": -77.077962, "Name": "Psychiatric Institute Of Washington", "OBJECTID": 5283, "Ttl_Staff": 0, "Beds": 0, "FIPS": "11001", "Helipad": null, "State_ID": "222976", "ID": "0001320016", "NAICS_Des": "General Medical And Surgical Hospitals", "State": "DC", "County": "District Of Columbia", "Owner": null, "Date_Geol": 1362614400000, "ST_FIPS": "11"}},
{"geometry": {"type": "Point", "coordinates": [-77.032451, 38.9768896]}, "type": "Feature", "properties": {"City": "Washington Dc", "Zip": "20012", "NAICS": "622210", "Source": "http://data.dc.gov/metadata.aspx?id=38", "Type_": "General Acute Care Hospital", "Trauma": null, "Alt_Name": null, "Method": "Imagery with Other", "Website": "http://www.wramc.amedd.army.mil/", "Phone": null, "Address": "6825 16Th Street Nw", "Lat": 38.976889, "POC": null, "Date_Creat": 1351123200000, "Long_": -77.032451, "Name": "Walter Reed Army Medical Center", "OBJECTID": 5284, "Ttl_Staff": 0, "Beds": 0, "FIPS": "11001", "Helipad": null, "State_ID": "292743", "ID": "0001420012", "NAICS_Des": "General Medical And Surgical Hospitals", "State": "DC", "County": "District Of Columbia", "Owner": null, "Date_Geol": 1362614400000, "ST_FIPS": "11"}},
{"geometry": {"type": "Point", "coordinates": [-76.9882553, 38.8479279]}, "type": "Feature", "properties": {"City": "Washington Dc", "Zip": "20032", "NAICS": "622210", "Source": "http://data.dc.gov/metadata.aspx?id=38", "Type_": "General Acute Care Hospital", "Trauma": null, "Alt_Name": null, "Method": "Imagery", "Website": "http://www.nlm.nih.gov/hmd/medtour/elizabeths.html", "Phone": null, "Address": "1100 Alabama Avenue Se", "Lat": 38.847927, "POC": null, "Date_Creat": 1351123200000, "Long_": -76.988255, "Name": "Saint Elizabeths Hospital", "OBJECTID": 5285, "Ttl_Staff": 0, "Beds": 0, "FIPS": "11001", "Helipad": null, "State_ID": "307946", "ID": "0001520032", "NAICS_Des": "General Medical And Surgical Hospitals", "State": "DC", "County": "District Of Columbia", "Owner": null, "Date_Geol": 1362614400000, "ST_FIPS": "11"}},
{"geometry": {"type": "Point", "coordinates": [-76.9953566, 38.8923218]}, "type": "Feature", "properties": {"City": "Washington", "Zip": "20002", "NAICS": "622210", "Source": "http://data.dc.gov/metadata.aspx?id=38", "Type_": "General Acute Care Hospital", "Trauma": null, "Alt_Name": null, "Method": "Imagery", "Website": "http://www.specialtyhospitalofwashington.com/", "Phone": null, "Address": "700 Constitution Avenue Ne", "Lat": 38.892321, "POC": null, "Date_Creat": 1351123200000, "Long_": -76.995356, "Name": "The Specialty Hospital Of Washington", "OBJECTID": 5286, "Ttl_Staff": 0, "Beds": 0, "FIPS": "11001", "Helipad": null, "State_ID": "295162", "ID": "0001620002", "NAICS_Des": "General Medical And Surgical Hospitals", "State": "DC", "County": "District Of Columbia", "Owner": null, "Date_Geol": 1362614400000, "ST_FIPS": "11"}},
{"geometry": {"type": "Point", "coordinates": [-76.6493767, 39.2885176]}, "type": "Feature", "properties": {"City": "Baltimore", "Zip": "21223", "NAICS": "622210", "Source": "http://dhmh.maryland.gov/ohcq/docs/Forms/DispForm.aspx?ID=89", "Type_": "General Acute Care Hospital", "Trauma": null, "Alt_Name": null, "Method": "Imagery with Other", "Website": null, "Phone": "4103623000", "Address": "2000 W Baltimore Street", "Lat": 39.288517, "POC": null, "Date_Creat": 1351123200000, "Long_": -76.649376, "Name": "Bon Secours Hospital", "OBJECTID": 5876, "Ttl_Staff": 0, "Beds": 0, "FIPS": "24510", "Helipad": null, "State_ID": null, "ID": "0000721223", "NAICS_Des": "General Medical And Surgical Hospitals", "State": "MD", "County": "Baltimore City", "Owner": null, "Date_Geol": 1369785600000, "ST_FIPS": "24"}},
{"geometry": {"type": "Point", "coordinates": [-76.708038, 39.3141144]}, "type": "Feature", "properties": {"City": "Baltimore", "Zip": "21207", "NAICS": "622210", "Source": "http://dhmh.maryland.gov/ohcq/docs/Forms/DispForm.aspx?ID=89", "Type_": "General Acute Care Hospital", "Trauma": null, "Alt_Name": null, "Method": "Imagery with Other", "Website": null, "Phone": "4104486701", "Address": "2200 Kernan Drive", "Lat": 39.314114, "POC": null, "Date_Creat": 1351123200000, "Long_": -76.708038, "Name": "James Lawrence Kernan Hospital Inc", "OBJECTID": 5877, "Ttl_Staff": 0, "Beds": 0, "FIPS": "24510", "Helipad": null, "State_ID": null, "ID": "0000821207", "NAICS_Des": "General Medical And Surgical Hospitals", "State": "MD", "County": "Baltimore City", "Owner": null, "Date_Geol": 1369785600000, "ST_FIPS": "24"}},
{"geometry": {"type": "Point", "coordinates": [-76.5919722, 39.2961087]}, "type": "Feature", "properties": {"City": "Baltimore", "Zip": "21287", "NAICS": "622210", "Source": "http://dhmh.maryland.gov/ohcq/docs/Forms/DispForm.aspx?ID=89", "Type_": "General Acute Care Hospital", "Trauma": null, "Alt_Name": null, "Method": "Imagery", "Website": null, "Phone": "4109559540", "Address": "600 North  Wolfe Street", "Lat": 39.296108, "POC": null, "Date_Creat": 1351123200000, "Long_": -76.591972, "Name": "Johns Hopkins Hospital, The", "OBJECTID": 5878, "Ttl_Staff": 0, "Beds": 0, "FIPS": "24510", "Helipad": null, "State_ID": null, "ID": "0000921287", "NAICS_Des": "General Medical And Surgical Hospitals", "State": "MD", "County": "Baltimore City", "Owner": null, "Date_Geol": 1369785600000, "ST_FIPS": "24"}},
{"geometry": {"type": "Point", "coordinates": [-76.5928187, 39.299281]}, "type": "Feature", "properties": {"City": "Baltimore", "Zip": "21205", "NAICS": "622210", "Source": "http://dhmh.maryland.gov/ohcq/docs/Forms/DispForm.aspx?ID=89", "Type_": "General Acute Care Hospital", "Trauma": null, "Alt_Name": null, "Method": "Imagery", "Website": null, "Phone": "4439239305", "Address": "707 N Broadway", "Lat": 39.29928, "POC": null, "Date_Creat": 1351123200000, "Long_": -76.592818, "Name": "Kennedy Kreiger Institute", "OBJECTID": 5879, "Ttl_Staff": 0, "Beds": 0, "FIPS": "24510", "Helipad": null, "State_ID": null, "ID": "0001021205", "NAICS_Des": "General Medical And Surgical Hospitals", "State": "MD", "County": "Baltimore City", "Owner": null, "Date_Geol": 1369785600000, "ST_FIPS": "24"}},
{"geometry": {"type": "Point", "coordinates": [-76.6648254, 39.354514]}, "type": "Feature", "properties": {"City": "Baltimore", "Zip": "21215", "NAICS": "622210", "Source": "http://dhmh.maryland.gov/ohcq/docs/Forms/DispForm.aspx?ID=89", "Type_": "General Acute Care Hospital", "Trauma": null, "Alt_Name": null, "Method": "Imagery", "Website": null, "Phone": "4106012204", "Address": "2434 W Belvedere Avenue", "Lat": 39.354513, "POC": null, "Date_Creat": 1351123200000, "Long_": -76.664825, "Name": "Levindale Hebrew Geriatric Center & Hospital", "OBJECTID": 5880, "Ttl_Staff": 0, "Beds": 0, "FIPS": "24510", "Helipad": null, "State_ID": null, "ID": "0001321215", "NAICS_Des": "General Medical And Surgical Hospitals", "State": "MD", "County": "Baltimore City", "Owner": null, "Date_Geol": 1369785600000, "ST_FIPS": "24"}},
{"geometry": {"type": "Point", "coordinates": [-76.6212208, 39.2999853]}, "type": "Feature", "properties": {"City": "Baltimore", "Zip": "21201", "NAICS": "622210", "Source": "http://dhmh.maryland.gov/ohcq/docs/Forms/DispForm.aspx?ID=89", "Type_": "General Acute Care Hospital", "Trauma": null, "Alt_Name": null, "Method": "Imagery with Other", "Website": null, "Phone": "4102258996", "Address": "827 Linden Ave", "Lat": 39.299985, "POC": null, "Date_Creat": 1351123200000, "Long_": -76.62122, "Name": "Maryland General  Hospital", "OBJECTID": 5881, "Ttl_Staff": 0, "Beds": 0, "FIPS": "24510", "Helipad": null, "State_ID": null, "ID": "0001621201", "NAICS_Des": "General Medical And Surgical Hospitals", "State": "MD", "County": "Baltimore City", "Owner": null, "Date_Geol": 1369785600000, "ST_FIPS": "24"}},
{"geometry": {"type": "Point", "coordinates": [-76.5872828, 39.3583958]}, "type": "Feature", "properties": {"City": "Baltimore", "Zip": "21239", "NAICS": "622210", "Source": "http://dhmh.maryland.gov/ohcq/docs/Forms/DispForm.aspx?ID=89", "Type_": "General Acute Care Hospital", "Trauma": null, "Alt_Name": null, "Method": "Imagery", "Website": null, "Phone": "4434443902", "Address": "5601 Loch Raven Blvd", "Lat": 39.358395, "POC": null, "Date_Creat": 1351123200000, "Long_": -76.587282, "Name": "Medstar Good Samaritan Hospital", "OBJECTID": 5882, "Ttl_Staff": 0, "Beds": 0, "FIPS": "24510", "Helipad": null, "State_ID": null, "ID": "0001821239", "NAICS_Des": "General Medical And Surgical Hospitals", "State": "MD", "County": "Baltimore City", "Owner": null, "Date_Geol": 1369785600000, "ST_FIPS": "24"}},
{"geometry": {"type": "Point", "coordinates": [-76.6141732, 39.2521638]}, "type": "Feature", "properties": {"City": "Baltimore", "Zip": "21225", "NAICS": "622210", "Source": "http://dhmh.maryland.gov/ohcq/docs/Forms/DispForm.aspx?ID=89", "Type_": "General Acute Care Hospital", "Trauma": null, "Alt_Name": null, "Method": "Imagery", "Website": null, "Phone": "4103503201", "Address": "3001 S Hanover Street", "Lat": 39.252163, "POC": null, "Date_Creat": 1351123200000, "Long_": -76.614173, "Name": "Medstar Harbor Hospital", "OBJECTID": 5883, "Ttl_Staff": 0, "Beds": 0, "FIPS": "24510", "Helipad": null, "State_ID": null, "ID": "0002021225", "NAICS_Des": "General Medical And Surgical Hospitals", "State": "MD", "County": "Baltimore City", "Owner": null, "Date_Geol": 1369785600000, "ST_FIPS": "24"}},
{"geometry": {"type": "Point", "coordinates": [-76.6128842, 39.2929216]}, "type": "Feature", "properties": {"City": "Baltimore", "Zip": "21202", "NAICS": "622210", "Source": "http://dhmh.maryland.gov/ohcq/docs/Forms/DispForm.aspx?ID=89", "Type_": "General Acute Care Hospital", "Trauma": null, "Alt_Name": null, "Method": "Imagery", "Website": null, "Phone": "4103329237", "Address": "301 St Paul Place", "Lat": 39.292921, "POC": null, "Date_Creat": 1351123200000, "Long_": -76.612884, "Name": "Mercy Medical Center Inc", "OBJECTID": 5884, "Ttl_Staff": 0, "Beds": 0, "FIPS": "24510", "Helipad": null, "State_ID": null, "ID": "0002321202", "NAICS_Des": "General Medical And Surgical Hospitals", "State": "MD", "County": "Baltimore City", "Owner": null, "Date_Geol": 1369785600000, "ST_FIPS": "24"}},
{"geometry": {"type": "Point", "coordinates": [-76.6536044, 39.3631708]}, "type": "Feature", "properties": {"City": "Baltimore", "Zip": "21209", "NAICS": "622210", "Source": "http://dhmh.maryland.gov/ohcq/docs/Forms/DispForm.aspx?ID=89", "Type_": "General Acute Care Hospital", "Trauma": null, "Alt_Name": null, "Method": "Imagery", "Website": null, "Phone": "4105785050", "Address": "1708 W Rogers Ave", "Lat": 39.36317, "POC": null, "Date_Creat": 1351123200000, "Long_": -76.653604, "Name": "Mount Washington Pediatric Hospital", "OBJECTID": 5885, "Ttl_Staff": 0, "Beds": 0, "FIPS": "24510", "Helipad": null, "State_ID": null, "ID": "0002621209", "NAICS_Des": "General Medical And Surgical Hospitals", "State": "MD", "County": "Baltimore City", "Owner": null, "Date_Geol": 1369785600000, "ST_FIPS": "24"}},
{"geometry": {"type": "Point", "coordinates": [-76.6721191, 39.2727699]}, "type": "Feature", "properties": {"City": "Baltimore", "Zip": "21229", "NAICS": "622210", "Source": "http://dhmh.maryland.gov/ohcq/docs/Forms/DispForm.aspx?ID=89", "Type_": "General Acute Care Hospital", "Trauma": null, "Alt_Name": null, "Method": "Imagery", "Website": null, "Phone": "4103682101", "Address": "900 Caton Avenue", "Lat": 39.272769, "POC": null, "Date_Creat": 1351123200000, "Long_": -76.672119, "Name": "Saint Agnes Hospital", "OBJECTID": 5886, "Ttl_Staff": 0, "Beds": 0, "FIPS": "24510", "Helipad": null, "State_ID": null, "ID": "0003621229", "NAICS_Des": "General Medical And Surgical Hospitals", "State": "MD", "County": "Baltimore City", "Owner": null, "Date_Geol": 1369785600000, "ST_FIPS": "24"}},
{"geometry": {"type": "Point", "coordinates": [-76.6618141, 39.3525405]}, "type": "Feature", "properties": {"City": "Baltimore", "Zip": "21215", "NAICS": "622210", "Source": "http://dhmh.maryland.gov/ohcq/docs/Forms/DispForm.aspx?ID=89", "Type_": "General Acute Care Hospital", "Trauma": null, "Alt_Name": null, "Method": "Imagery", "Website": null, "Phone": "4106015131", "Address": "2401 West Belvedere Ave", "Lat": 39.35254, "POC": null, "Date_Creat": 1351123200000, "Long_": -76.661814, "Name": "Sinai Hospital Of Baltimore", "OBJECTID": 5887, "Ttl_Staff": 0, "Beds": 0, "FIPS": "24510", "Helipad": null, "State_ID": null, "ID": "0003721215", "NAICS_Des": "General Medical And Surgical Hospitals", "State": "MD", "County": "Baltimore City", "Owner": null, "Date_Geol": 1369785600000, "ST_FIPS": "24"}},
{"geometry": {"type": "Point", "coordinates": [-76.6247451, 39.2879657]}, "type": "Feature", "properties": {"City": "Baltimore", "Zip": "21201", "NAICS": "622210", "Source": "http://dhmh.maryland.gov/ohcq/docs/Forms/DispForm.aspx?ID=89", "Type_": "General Acute Care Hospital", "Trauma": null, "Alt_Name": null, "Method": "Imagery", "Website": null, "Phone": "4103288667", "Address": "22 S Greene St", "Lat": 39.287965, "POC": null, "Date_Creat": 1351123200000, "Long_": -76.624745, "Name": "University Of Maryland Medical Center", "OBJECTID": 5888, "Ttl_Staff": 0, "Beds": 0, "FIPS": "24510", "Helipad": null, "State_ID": null, "ID": "0004121201", "NAICS_Des": "General Medical And Surgical Hospitals", "State": "MD", "County": "Baltimore City", "Owner": null, "Date_Geol": 1369785600000, "ST_FIPS": "24"}},
{"geometry": {"type": "Point", "coordinates": [-76.6249753, 39.2897423]}, "type": "Feature", "properties": {"City": "Baltimore", "Zip": "21201", "NAICS": "622210", "Source": "http://dhmh.maryland.gov/ohcq/docs/Forms/DispForm.aspx?ID=89", "Type_": "General Acute Care Hospital", "Trauma": null, "Alt_Name": null, "Method": "Imagery", "Website": null, "Phone": "4102096201", "Address": "630 W Fayette Street", "Lat": 39.289742, "POC": null, "Date_Creat": 1351123200000, "Long_": -76.624975, "Name": "Walter P Carter Center", "OBJECTID": 5889, "Ttl_Staff": 0, "Beds": 0, "FIPS": "24510", "Helipad": null, "State_ID": null, "ID": "0004221201", "NAICS_Des": "General Medical And Surgical Hospitals", "State": "MD", "County": "Baltimore City", "Owner": null, "Date_Geol": 1369785600000, "ST_FIPS": "24"}},
{"geometry": {"type": "Point", "coordinates": [-76.5467782, 39.2906788]}, "type": "Feature", "properties": {"City": "Baltimore", "Zip": "21224", "NAICS": "622210", "Source": "http://dhmh.maryland.gov/ohcq/docs/Forms/DispForm.aspx?ID=89", "Type_": "General Acute Care Hospital", "Trauma": null, "Alt_Name": null, "Method": "Imagery with Other", "Website": null, "Phone": "4105500123", "Address": "4940 Eastern Avenue", "Lat": 39.290678, "POC": null, "Date_Creat": 1351123200000, "Long_": -76.546778, "Name": "Johns Hopkins Bayview Medical Center", "OBJECTID": 5890, "Ttl_Staff": 0, "Beds": 0, "FIPS": "24510", "Helipad": null, "State_ID": null, "ID": "0004821224", "NAICS_Des": "General Medical And Surgical Hospitals", "State": "MD", "County": "Baltimore City", "Owner": null, "Date_Geol": 1369785600000, "ST_FIPS": "24"}},
{"geometry": {"type": "Point", "coordinates": [-76.6147393, 39.3290403]}, "type": "Feature", "properties": {"City": "Baltimore", "Zip": "21218", "NAICS": "622210", "Source": "http://dhmh.maryland.gov/ohcq/docs/Forms/DispForm.aspx?ID=89", "Type_": "General Acute Care Hospital", "Trauma": null, "Alt_Name": null, "Method": "Imagery", "Website": null, "Phone": "4105542227", "Address": "201 East University Parkway", "Lat": 39.32904, "POC": null, "Date_Creat": 1351123200000, "Long_": -76.614739, "Name": "Medstar Union Memorial Hospital", "OBJECTID": 5891, "Ttl_Staff": 0, "Beds": 0, "FIPS": "24510", "Helipad": null, "State_ID": null, "ID": "0004921218", "NAICS_Des": "General Medical And Surgical Hospitals", "State": "MD", "County": "Baltimore City", "Owner": null, "Date_Geol": 1369785600000, "ST_FIPS": "24"}},
{"geometry": {"type": "Point", "coordinates": [-77.6105994, 39.6769953]}, "type": "Feature", "properties": {"City": "Hagerstown", "Zip": "21740", "NAICS": "622210", "Source": "http://dhmh.maryland.gov/ohcq/docs/Forms/DispForm.aspx?ID=89", "Type_": "General Acute Care Hospital", "Trauma": null, "Alt_Name": null, "Method": "Imagery", "Website": null, "Phone": "3017330330", "Address": "13218 Brook Lane Drive", "Lat": 39.676995, "POC": null, "Date_Creat": 1351123200000, "Long_": -77.610599, "Name": "Brook Lane Health Services", "OBJECTID": 5897, "Ttl_Staff": 0, "Beds": 0, "FIPS": "24043", "Helipad": null, "State_ID": null, "ID": "0003421740", "NAICS_Des": "General Medical And Surgical Hospitals", "State": "MD", "County": "Washington", "Owner": null, "Date_Geol": 1369785600000, "ST_FIPS": "24"}},
{"geometry": {"type": "Point", "coordinates": [-77.6825058, 39.6218787]}, "type": "Feature", "properties": {"City": "Hagerstown", "Zip": "21742", "NAICS": "622210", "Source": "http://dhmh.maryland.gov/ohcq/docs/Forms/DispForm.aspx?ID=89", "Type_": "General Acute Care Hospital", "Trauma": null, "Alt_Name": null, "Method": "Imagery", "Website": null, "Phone": "2403139500", "Address": "11116 Medical Campus Road", "Lat": 39.621878, "POC": null, "Date_Creat": 1351123200000, "Long_": -77.682505, "Name": "Meritus Medical Center", "OBJECTID": 5898, "Ttl_Staff": 0, "Beds": 0, "FIPS": "24043", "Helipad": null, "State_ID": null, "ID": "0003521742", "NAICS_Des": "General Medical And Surgical Hospitals", "State": "MD", "County": "Washington", "Owner": null, "Date_Geol": 1369785600000, "ST_FIPS": "24"}},
{"geometry": {"type": "Point", "coordinates": [-77.7163119, 39.6624273]}, "type": "Feature", "properties": {"City": "Hagerstown", "Zip": "21742", "NAICS": "622210", "Source": "http://dhmh.maryland.gov/ohcq/docs/Forms/DispForm.aspx?ID=89", "Type_": "General Acute Care Hospital", "Trauma": null, "Alt_Name": null, "Method": "Imagery", "Website": null, "Phone": "3017454139", "Address": "1500 Pennsylvania Ave", "Lat": 39.662427, "POC": null, "Date_Creat": 1351123200000, "Long_": -77.716311, "Name": "Western Maryland Center", "OBJECTID": 5899, "Ttl_Staff": 0, "Beds": 0, "FIPS": "24043", "Helipad": null, "State_ID": null, "ID": "0003821742", "NAICS_Des": "General Medical And Surgical Hospitals", "State": "MD", "County": "Washington", "Owner": null, "Date_Geol": 1369785600000, "ST_FIPS": "24"}},
{"geometry": {"type": "Point", "coordinates": [-75.5957198, 38.3822986]}, "type": "Feature", "properties": {"City": "Salisbury", "Zip": "21802", "NAICS": "622210", "Source": "http://dhmh.maryland.gov/ohcq/docs/Forms/DispForm.aspx?ID=89", "Type_": "General Acute Care Hospital", "Trauma": null, "Alt_Name": null, "Method": "Imagery", "Website": null, "Phone": "4105434010", "Address": "315 Deer'S Head Hospital Road", "Lat": 38.382298, "POC": null, "Date_Creat": 1351123200000, "Long_": -75.595719, "Name": "Deer'S Head Center", "OBJECTID": 5900, "Ttl_Staff": 0, "Beds": 0, "FIPS": "24045", "Helipad": null, "State_ID": null, "ID": "0003921802", "NAICS_Des": "General Medical And Surgical Hospitals", "State": "MD", "County": "Wicomico", "Owner": null, "Date_Geol": 1369785600000, "ST_FIPS": "24"}},
{"geometry": {"type": "Point", "coordinates": [-75.5485003, 38.3694127]}, "type": "Feature", "properties": {"City": "Salisbury", "Zip": "21801", "NAICS": "622210", "Source": "http://dhmh.maryland.gov/ohcq/docs/Forms/DispForm.aspx?ID=89", "Type_": "General Acute Care Hospital", "Trauma": null, "Alt_Name": null, "Method": "Imagery", "Website": null, "Phone": "4102195500", "Address": "220 Tilghman Road", "Lat": 38.369412, "POC": null, "Date_Creat": 1351123200000, "Long_": -75.5485, "Name": "Healthsouth Chesapeake Rehabilitation Hospital", "OBJECTID": 5901, "Ttl_Staff": 0, "Beds": 0, "FIPS": "24045", "Helipad": null, "State_ID": null, "ID": "0004021801", "NAICS_Des": "General Medical And Surgical Hospitals", "State": "MD", "County": "Wicomico", "Owner": null, "Date_Geol": 1369785600000, "ST_FIPS": "24"}},
{"geometry": {"type": "Point", "coordinates": [-75.5989115, 38.3625628]}, "type": "Feature", "properties": {"City": "Salisbury", "Zip": "21801", "NAICS": "622210", "Source": "http://dhmh.maryland.gov/ohcq/docs/Forms/DispForm.aspx?ID=89", "Type_": "General Acute Care Hospital", "Trauma": null, "Alt_Name": null, "Method": "Imagery", "Website": null, "Phone": "4105437116", "Address": "100 E Carroll Ave", "Lat": 38.362562, "POC": null, "Date_Creat": 1351123200000, "Long_": -75.598911, "Name": "Peninsula Regional Medical Center", "OBJECTID": 5902, "Ttl_Staff": 0, "Beds": 0, "FIPS": "24045", "Helipad": null, "State_ID": null, "ID": "0004321801", "NAICS_Des": "General Medical And Surgical Hospitals", "State": "MD", "County": "Wicomico", "Owner": null, "Date_Geol": 1369785600000, "ST_FIPS": "24"}},
{"geometry": {"type": "Point", "coordinates": [-75.8524026, 37.9975674]}, "type": "Feature", "properties": {"City": "Crisfield", "Zip": "21817", "NAICS": "622210", "Source": "http://dhmh.maryland.gov/ohcq/docs/Forms/DispForm.aspx?ID=89", "Type_": "General Acute Care Hospital", "Trauma": null, "Alt_Name": null, "Method": "Imagery", "Website": null, "Phone": "4109683011", "Address": "201 Hall Highway", "Lat": 37.997567, "POC": null, "Date_Creat": 1351123200000, "Long_": -75.852402, "Name": "Edward Mccready Memorial Hospital", "OBJECTID": 5904, "Ttl_Staff": 0, "Beds": 0, "FIPS": "24039", "Helipad": null, "State_ID": null, "ID": "0003221817", "NAICS_Des": "General Medical And Surgical Hospitals", "State": "MD", "County": "Somerset", "Owner": null, "Date_Geol": 1369785600000, "ST_FIPS": "24"}},
{"geometry": {"type": "Point", "coordinates": [-76.6382703, 38.3021376]}, "type": "Feature", "properties": {"City": "Leonardtown", "Zip": "20650", "NAICS": "622210", "Source": "http://dhmh.maryland.gov/ohcq/docs/Forms/DispForm.aspx?ID=89", "Type_": "General Acute Care Hospital", "Trauma": null, "Alt_Name": null, "Method": "Imagery with Other", "Website": null, "Phone": "3014756001", "Address": "25500 Point Lookout Road", "Lat": 38.302137, "POC": null, "Date_Creat": 1351123200000, "Long_": -76.63827, "Name": "Medstar Saint Mary'S Hospital", "OBJECTID": 5905, "Ttl_Staff": 0, "Beds": 0, "FIPS": "24037", "Helipad": null, "State_ID": null, "ID": "0000620650", "NAICS_Des": "General Medical And Surgical Hospitals", "State": "MD", "County": "St. Mary'S", "Owner": null, "Date_Geol": 1369785600000, "ST_FIPS": "24"}},
{"geometry": {"type": "Point", "coordinates": [-77.1980211, 39.0976409]}, "type": "Feature", "properties": {"City": "Rockville", "Zip": "20850", "NAICS": "622210", "Source": "http://dhmh.maryland.gov/ohcq/docs/Forms/DispForm.aspx?ID=89", "Type_": "General Acute Care Hospital", "Trauma": null, "Alt_Name": null, "Method": "Imagery with Other", "Website": null, "Phone": "2408266472", "Address": "9901 Medical Ctr Dr", "Lat": 39.09764, "POC": null, "Date_Creat": 1351123200000, "Long_": -77.198021, "Name": "Shady Grove Adventist Hospital", "OBJECTID": 5906, "Ttl_Staff": 0, "Beds": 0, "FIPS": "24031", "Helipad": null, "State_ID": null, "ID": "0000420850", "NAICS_Des": "General Medical And Surgical Hospitals", "State": "MD", "County": "Montgomery", "Owner": null, "Date_Geol": 1369785600000, "ST_FIPS": "24"}},
{"geometry": {"type": "Point", "coordinates": [-77.0017581, 38.9853271]}, "type": "Feature", "properties": {"City": "Takoma Park", "Zip": "20912", "NAICS": "622210", "Source": "http://dhmh.maryland.gov/ohcq/docs/Forms/DispForm.aspx?ID=89", "Type_": "General Acute Care Hospital", "Trauma": null, "Alt_Name": null, "Method": "Imagery", "Website": null, "Phone": "3018915651", "Address": "7600 Carroll Ave", "Lat": 38.985327, "POC": null, "Date_Creat": 1351123200000, "Long_": -77.001758, "Name": "Washington Adventist Hospital", "OBJECTID": 5907, "Ttl_Staff": 0, "Beds": 0, "FIPS": "24031", "Helipad": null, "State_ID": null, "ID": "0000520912", "NAICS_Des": "General Medical And Surgical Hospitals", "State": "MD", "County": "Montgomery", "Owner": null, "Date_Geol": 1369785600000, "ST_FIPS": "24"}},
{"geometry": {"type": "Point", "coordinates": [-77.1991484, 39.0997772]}, "type": "Feature", "properties": {"City": "Rockville", "Zip": "20850", "NAICS": "622210", "Source": "http://dhmh.maryland.gov/ohcq/docs/Forms/DispForm.aspx?ID=89", "Type_": "General Acute Care Hospital", "Trauma": null, "Alt_Name": null, "Method": "Imagery with Other", "Website": null, "Phone": "3018384959", "Address": "14901 Broschart Road", "Lat": 39.099777, "POC": null, "Date_Creat": 1351123200000, "Long_": -77.199148, "Name": "Adventist Behavioral Health Rockville", "OBJECTID": 5908, "Ttl_Staff": 0, "Beds": 0, "FIPS": "24031", "Helipad": null, "State_ID": null, "ID": "0001520850", "NAICS_Des": "General Medical And Surgical Hospitals", "State": "MD", "County": "Montgomery", "Owner": null, "Date_Geol": 1369785600000, "ST_FIPS": "24"}},
{"geometry": {"type": "Point", "coordinates": [-77.1973134, 39.0956016]}, "type": "Feature", "properties": {"City": "Rockville", "Zip": "20850", "NAICS": "622210", "Source": "http://dhmh.maryland.gov/ohcq/docs/Forms/DispForm.aspx?ID=89", "Type_": "General Acute Care Hospital", "Trauma": null, "Alt_Name": null, "Method": "Imagery", "Website": null, "Phone": "2408646005", "Address": "9909 Medical Center Drive", "Lat": 39.095601, "POC": null, "Date_Creat": 1351123200000, "Long_": -77.197313, "Name": "Adventist Rehabilitation Hospital Of Maryland", "OBJECTID": 5909, "Ttl_Staff": 0, "Beds": 0, "FIPS": "24031", "Helipad": null, "State_ID": null, "ID": "0001720850", "NAICS_Des": "General Medical And Surgical Hospitals", "State": "MD", "County": "Montgomery", "Owner": null, "Date_Geol": 1369785600000, "ST_FIPS": "24"}},
{"geometry": {"type": "Point", "coordinates": [-77.0355734, 39.0148744]}, "type": "Feature", "properties": {"City": "Silver Spring", "Zip": "20910", "NAICS": "622210", "Source": "http://dhmh.maryland.gov/ohcq/docs/Forms/DispForm.aspx?ID=89", "Type_": "General Acute Care Hospital", "Trauma": null, "Alt_Name": null, "Method": "Imagery", "Website": null, "Phone": "3017547000", "Address": "1500 Forest Glen Road", "Lat": 39.014874, "POC": null, "Date_Creat": 1351123200000, "Long_": -77.035573, "Name": "Holy Cross Hospital", "OBJECTID": 5910, "Ttl_Staff": 0, "Beds": 0, "FIPS": "24031", "Helipad": null, "State_ID": null, "ID": "0001920910", "NAICS_Des": "General Medical And Surgical Hospitals", "State": "MD", "County": "Montgomery", "Owner": null, "Date_Geol": 1369785600000, "ST_FIPS": "24"}},
{"geometry": {"type": "Point", "coordinates": [-77.0547027, 39.1540397]}, "type": "Feature", "properties": {"City": "Olney", "Zip": "20832", "NAICS": "622210", "Source": "http://dhmh.maryland.gov/ohcq/docs/Forms/DispForm.aspx?ID=89", "Type_": "General Acute Care Hospital", "Trauma": null, "Alt_Name": null, "Method": "Imagery", "Website": null, "Phone": "3017748771", "Address": "18101 Prince Philip Drive", "Lat": 39.154039, "POC": null, "Date_Creat": 1351123200000, "Long_": -77.054702, "Name": "Medstar Montgomery Medical Center", "OBJECTID": 5911, "Ttl_Staff": 0, "Beds": 0, "FIPS": "24031", "Helipad": null, "State_ID": null, "ID": "0002120832", "NAICS_Des": "General Medical And Surgical Hospitals", "State": "MD", "County": "Montgomery", "Owner": null, "Date_Geol": 1369785600000, "ST_FIPS": "24"}},
{"geometry": {"type": "Point", "coordinates": [-77.1104136, 38.9973454]}, "type": "Feature", "properties": {"City": "Bethesda", "Zip": "20814", "NAICS": "622210", "Source": "http://dhmh.maryland.gov/ohcq/docs/Forms/DispForm.aspx?ID=89", "Type_": "General Acute Care Hospital", "Trauma": null, "Alt_Name": null, "Method": "Imagery", "Website": null, "Phone": "3018962576", "Address": "8600 Old Georgetown Rd", "Lat": 38.997345, "POC": null, "Date_Creat": 1351123200000, "Long_": -77.110413, "Name": "Suburban Hospital", "OBJECTID": 5912, "Ttl_Staff": 0, "Beds": 0, "FIPS": "24031", "Helipad": null, "State_ID": null, "ID": "0002220814", "NAICS_Des": "General Medical And Surgical Hospitals", "State": "MD", "County": "Montgomery", "Owner": null, "Date_Geol": 1369785600000, "ST_FIPS": "24"}},
{"geometry": {"type": "Point", "coordinates": [-76.8652504, 38.9826945]}, "type": "Feature", "properties": {"City": "Lanham", "Zip": "20706", "NAICS": "622210", "Source": "http://dhmh.maryland.gov/ohcq/docs/Forms/DispForm.aspx?ID=89", "Type_": "General Acute Care Hospital", "Trauma": null, "Alt_Name": null, "Method": "Imagery", "Website": null, "Phone": "3015528085", "Address": "8118 Good Luck Road", "Lat": 38.982694, "POC": null, "Date_Creat": 1351123200000, "Long_": -76.86525, "Name": "Doctors'  Community Hospital", "OBJECTID": 5913, "Ttl_Staff": 0, "Beds": 0, "FIPS": "24033", "Helipad": null, "State_ID": null, "ID": "0002420706", "NAICS_Des": "General Medical And Surgical Hospitals", "State": "MD", "County": "Prince George'S", "Owner": null, "Date_Geol": 1369785600000, "ST_FIPS": "24"}},
{"geometry": {"type": "Point", "coordinates": [-76.9927017, 38.7285634]}, "type": "Feature", "properties": {"City": "Fort Washington", "Zip": "20744", "NAICS": "622210", "Source": "http://dhmh.maryland.gov/ohcq/docs/Forms/DispForm.aspx?ID=89", "Type_": "General Acute Care Hospital", "Trauma": null, "Alt_Name": null, "Method": "Imagery", "Website": null, "Phone": "3012927000", "Address": "11711 Livingston Road", "Lat": 38.728563, "POC": null, "Date_Creat": 1351123200000, "Long_": -76.992701, "Name": "Fort Washington Hospital", "OBJECTID": 5914, "Ttl_Staff": 0, "Beds": 0, "FIPS": "24033", "Helipad": null, "State_ID": null, "ID": "0002520744", "NAICS_Des": "General Medical And Surgical Hospitals", "State": "MD", "County": "Prince George'S", "Owner": null, "Date_Geol": 1369785600000, "ST_FIPS": "24"}},
{"geometry": {"type": "Point", "coordinates": [-76.8811311, 39.0869771]}, "type": "Feature", "properties": {"City": "Laurel", "Zip": "20707", "NAICS": "622210", "Source": "http://dhmh.maryland.gov/ohcq/docs/Forms/DispForm.aspx?ID=89", "Type_": "General Acute Care Hospital", "Trauma": null, "Alt_Name": null, "Method": "Imagery with Other", "Website": null, "Phone": "3017254300", "Address": "7300 Van Dusen Road", "Lat": 39.086977, "POC": null, "Date_Creat": 1351123200000, "Long_": -76.881131, "Name": "Laurel Regional Medical Center", "OBJECTID": 5915, "Ttl_Staff": 0, "Beds": 0, "FIPS": "24033", "Helipad": null, "State_ID": null, "ID": "0002720707", "NAICS_Des": "General Medical And Surgical Hospitals", "State": "MD", "County": "Prince George'S", "Owner": null, "Date_Geol": 1369785600000, "ST_FIPS": "24"}},
{"geometry": {"type": "Point", "coordinates": [-76.9208298, 38.9307589]}, "type": "Feature", "properties": {"City": "Cheverly", "Zip": "20785", "NAICS": "622210", "Source": "http://dhmh.maryland.gov/ohcq/docs/Forms/DispForm.aspx?ID=89", "Type_": "General Acute Care Hospital", "Trauma": null, "Alt_Name": null, "Method": "Imagery", "Website": null, "Phone": "3016182000", "Address": "3001 Hospital Drive", "Lat": 38.930758, "POC": null, "Date_Creat": 1351123200000, "Long_": -76.920829, "Name": "Prince Georges Hospital Center", "OBJECTID": 5916, "Ttl_Staff": 0, "Beds": 0, "FIPS": "24033", "Helipad": null, "State_ID": null, "ID": "0002820785", "NAICS_Des": "General Medical And Surgical Hospitals", "State": "MD", "County": "Prince George'S", "Owner": null, "Date_Geol": 1369785600000, "ST_FIPS": "24"}},
{"geometry": {"type": "Point", "coordinates": [-76.9800222, 39.002568]}, "type": "Feature", "properties": {"City": "Silver Spring", "Zip": "20903", "NAICS": "622210", "Source": "http://dhmh.maryland.gov/ohcq/docs/Forms/DispForm.aspx?ID=89", "Type_": "General Acute Care Hospital", "Trauma": null, "Alt_Name": null, "Method": "Imagery", "Website": null, "Phone": "3014451046", "Address": "8901  New Hampshire Avenue", "Lat": 39.002567, "POC": null, "Date_Creat": 1351123200000, "Long_": -76.980022, "Name": "Saint Luke Institute", "OBJECTID": 5917, "Ttl_Staff": 0, "Beds": 0, "FIPS": "24033", "Helipad": null, "State_ID": null, "ID": "0002920903", "NAICS_Des": "General Medical And Surgical Hospitals", "State": "MD", "County": "Prince George'S", "Owner": null, "Date_Geol": 1369785600000, "ST_FIPS": "24"}},
{"geometry": {"type": "Point", "coordinates": [-76.8756925, 38.7483555]}, "type": "Feature", "properties": {"City": "Clinton", "Zip": "20735", "NAICS": "622210", "Source": "http://dhmh.maryland.gov/ohcq/docs/Forms/DispForm.aspx?ID=89", "Type_": "General Acute Care Hospital", "Trauma": null, "Alt_Name": null, "Method": "Imagery", "Website": null, "Phone": "3018774530", "Address": "7503 Surratts Rd", "Lat": 38.748355, "POC": null, "Date_Creat": 1351123200000, "Long_": -76.875692, "Name": "Southern Maryland Hospital Center", "OBJECTID": 5918, "Ttl_Staff": 0, "Beds": 0, "FIPS": "24033", "Helipad": null, "State_ID": null, "ID": "0003020735", "NAICS_Des": "General Medical And Surgical Hospitals", "State": "MD", "County": "Prince George'S", "Owner": null, "Date_Geol": 1369785600000, "ST_FIPS": "24"}},
{"geometry": {"type": "Point", "coordinates": [-76.9211153, 38.9307779]}, "type": "Feature", "properties": {"City": "Cheverly", "Zip": "20785", "NAICS": "622210", "Source": "http://dhmh.maryland.gov/ohcq/docs/Forms/DispForm.aspx?ID=89", "Type_": "General Acute Care Hospital", "Trauma": null, "Alt_Name": null, "Method": "Imagery", "Website": null, "Phone": "3014977953", "Address": "3001 Hospital Drive", "Lat": 38.930777, "POC": null, "Date_Creat": 1351123200000, "Long_": -76.921115, "Name": "Spellman Specialty Hospital And Nursing Care Cente", "OBJECTID": 5919, "Ttl_Staff": 0, "Beds": 0, "FIPS": "24033", "Helipad": null, "State_ID": null, "ID": "0003120785", "NAICS_Des": "General Medical And Surgical Hospitals", "State": "MD", "County": "Prince George'S", "Owner": null, "Date_Geol": 1369785600000, "ST_FIPS": "24"}},
{"geometry": {"type": "Point", "coordinates": [-76.0649393, 39.2174794]}, "type": "Feature", "properties": {"City": "Chestertown", "Zip": "21620", "NAICS": "622210", "Source": "http://dhmh.maryland.gov/ohcq/docs/Forms/DispForm.aspx?ID=89", "Type_": "General Acute Care Hospital", "Trauma": null, "Alt_Name": null, "Method": "Imagery", "Website": null, "Phone": "4107787668", "Address": "100 Brown St", "Lat": 39.217479, "POC": null, "Date_Creat": 1351123200000, "Long_": -76.064939, "Name": "Chester River Hospital Center", "OBJECTID": 5967, "Ttl_Staff": 0, "Beds": 0, "FIPS": "24029", "Helipad": null, "State_ID": null, "ID": "0001421620", "NAICS_Des": "General Medical And Surgical Hospitals", "State": "MD", "County": "Kent", "Owner": null, "Date_Geol": 1369785600000, "ST_FIPS": "24"}},
{"geometry": {"type": "Point", "coordinates": [-76.7953656, 39.1398487]}, "type": "Feature", "properties": {"City": "Jessup", "Zip": "20794", "NAICS": "622210", "Source": "http://dhmh.maryland.gov/ohcq/docs/Forms/DispForm.aspx?ID=89", "Type_": "General Acute Care Hospital", "Trauma": null, "Alt_Name": null, "Method": "Imagery with Other", "Website": null, "Phone": "4107243001", "Address": "8450 Dorsey Run Road", "Lat": 39.139848, "POC": null, "Date_Creat": 1351123200000, "Long_": -76.795365, "Name": "Clifton T Perkins Hospital Center", "OBJECTID": 5968, "Ttl_Staff": 0, "Beds": 0, "FIPS": "24027", "Helipad": null, "State_ID": null, "ID": "0000120794", "NAICS_Des": "General Medical And Surgical Hospitals", "State": "MD", "County": "Howard", "Owner": null, "Date_Geol": 1369785600000, "ST_FIPS": "24"}},
{"geometry": {"type": "Point", "coordinates": [-76.8858316, 39.2141029]}, "type": "Feature", "properties": {"City": "Columbia", "Zip": "21044", "NAICS": "622210", "Source": "http://dhmh.maryland.gov/ohcq/docs/Forms/DispForm.aspx?ID=89", "Type_": "General Acute Care Hospital", "Trauma": null, "Alt_Name": null, "Method": "Imagery", "Website": null, "Phone": "4107407710", "Address": "5755 Cedar Lane", "Lat": 39.214102, "POC": null, "Date_Creat": 1351123200000, "Long_": -76.885831, "Name": "Howard County General Hospital", "OBJECTID": 5969, "Ttl_Staff": 0, "Beds": 0, "FIPS": "24027", "Helipad": null, "State_ID": null, "ID": "0000221044", "NAICS_Des": "General Medical And Surgical Hospitals", "State": "MD", "County": "Howard", "Owner": null, "Date_Geol": 1369785600000, "ST_FIPS": "24"}},
{"geometry": {"type": "Point", "coordinates": [-76.793337, 39.2559017]}, "type": "Feature", "properties": {"City": "Ellicott City", "Zip": "21041", "NAICS": "622210", "Source": "http://dhmh.maryland.gov/ohcq/docs/Forms/DispForm.aspx?ID=89", "Type_": "General Acute Care Hospital", "Trauma": null, "Alt_Name": null, "Method": "Imagery", "Website": null, "Phone": "4104653322", "Address": "4100 College Avenue", "Lat": 39.255901, "POC": null, "Date_Creat": 1351123200000, "Long_": -76.793336, "Name": "Sheppard Pratt  At Ellicott City", "OBJECTID": 5970, "Ttl_Staff": 0, "Beds": 0, "FIPS": "24027", "Helipad": null, "State_ID": null, "ID": "0000321041", "NAICS_Des": "General Medical And Surgical Hospitals", "State": "MD", "County": "Howard", "Owner": null, "Date_Geol": 1369785600000, "ST_FIPS": "24"}},
{"geometry": {"type": "Point", "coordinates": [-76.0907925, 39.5429805]}, "type": "Feature", "properties": {"City": "Havre De Grace", "Zip": "21078", "NAICS": "622210", "Source": "http://dhmh.maryland.gov/ohcq/docs/Forms/DispForm.aspx?ID=89", "Type_": "General Acute Care Hospital", "Trauma": null, "Alt_Name": null, "Method": "Imagery", "Website": null, "Phone": "4436433303", "Address": "501 S Union Ave", "Lat": 39.54298, "POC": null, "Date_Creat": 1351123200000, "Long_": -76.090792, "Name": "Harford Memorial Hospital", "OBJECTID": 5971, "Ttl_Staff": 0, "Beds": 0, "FIPS": "24025", "Helipad": null, "State_ID": null, "ID": "0001121078", "NAICS_Des": "General Medical And Surgical Hospitals", "State": "MD", "County": "Harford", "Owner": null, "Date_Geol": 1369785600000, "ST_FIPS": "24"}},
{"geometry": {"type": "Point", "coordinates": [-76.3460827, 39.5193496]}, "type": "Feature", "properties": {"City": "Bel Air", "Zip": "21014", "NAICS": "622210", "Source": "http://dhmh.maryland.gov/ohcq/docs/Forms/DispForm.aspx?ID=89", "Type_": "General Acute Care Hospital", "Trauma": null, "Alt_Name": null, "Method": "Imagery", "Website": null, "Phone": "4436433303", "Address": "500 Upper Chesapeake Drive", "Lat": 39.519349, "POC": null, "Date_Creat": 1351123200000, "Long_": -76.346082, "Name": "Upper Chesapeake Medical Center", "OBJECTID": 5972, "Ttl_Staff": 0, "Beds": 0, "FIPS": "24025", "Helipad": null, "State_ID": null, "ID": "0001221014", "NAICS_Des": "General Medical And Surgical Hospitals", "State": "MD", "County": "Harford", "Owner": null, "Date_Geol": 1369785600000, "ST_FIPS": "24"}},
{"geometry": {"type": "Point", "coordinates": [-79.4009785, 39.4134407]}, "type": "Feature", "properties": {"City": "Oakland", "Zip": "21550", "NAICS": "622210", "Source": "http://dhmh.maryland.gov/ohcq/docs/Forms/DispForm.aspx?ID=89", "Type_": "General Acute Care Hospital", "Trauma": null, "Alt_Name": null, "Method": "Imagery", "Website": null, "Phone": "3015334173", "Address": "251 N Fourth St", "Lat": 39.41344, "POC": null, "Date_Creat": 1351123200000, "Long_": -79.400978, "Name": "Garrett County Memorial Hospital", "OBJECTID": 5973, "Ttl_Staff": 0, "Beds": 0, "FIPS": "24023", "Helipad": null, "State_ID": null, "ID": "0006321550", "NAICS_Des": "General Medical And Surgical Hospitals", "State": "MD", "County": "Garrett", "Owner": null, "Date_Geol": 1369785600000, "ST_FIPS": "24"}},
{"geometry": {"type": "Point", "coordinates": [-77.4146611, 39.4226567]}, "type": "Feature", "properties": {"City": "Frederick", "Zip": "21701", "NAICS": "622210", "Source": "http://dhmh.maryland.gov/ohcq/docs/Forms/DispForm.aspx?ID=89", "Type_": "General Acute Care Hospital", "Trauma": null, "Alt_Name": null, "Method": "Imagery", "Website": null, "Phone": "2405663300", "Address": "400 West Seventh St", "Lat": 39.422656, "POC": null, "Date_Creat": 1351123200000, "Long_": -77.414661, "Name": "Frederick Memorial Hospital", "OBJECTID": 6000, "Ttl_Staff": 0, "Beds": 0, "FIPS": "24021", "Helipad": null, "State_ID": null, "ID": "0006221701", "NAICS_Des": "General Medical And Surgical Hospitals", "State": "MD", "County": "Frederick", "Owner": null, "Date_Geol": 1369785600000, "ST_FIPS": "24"}},
{"geometry": {"type": "Point", "coordinates": [-76.4800685, 39.3515318]}, "type": "Feature", "properties": {"City": "Baltimore", "Zip": "21237", "NAICS": "622210", "Source": "http://dhmh.maryland.gov/ohcq/docs/Forms/DispForm.aspx?ID=89", "Type_": "General Acute Care Hospital", "Trauma": null, "Alt_Name": null, "Method": "Imagery", "Website": null, "Phone": "4437777850", "Address": "9000 Franklin Square Dr", "Lat": 39.351531, "POC": null, "Date_Creat": 1351123200000, "Long_": -76.480068, "Name": "Medstar Franklin Square Medical Center", "OBJECTID": 6001, "Ttl_Staff": 0, "Beds": 0, "FIPS": "24005", "Helipad": null, "State_ID": null, "ID": "0005021237", "NAICS_Des": "General Medical And Surgical Hospitals", "State": "MD", "County": "Baltimore", "Owner": null, "Date_Geol": 1369785600000, "ST_FIPS": "24"}},
{"geometry": {"type": "Point", "coordinates": [-76.6245565, 39.3908564]}, "type": "Feature", "properties": {"City": "Baltimore", "Zip": "21204", "NAICS": "622210", "Source": "http://dhmh.maryland.gov/ohcq/docs/Forms/DispForm.aspx?ID=89", "Type_": "General Acute Care Hospital", "Trauma": null, "Alt_Name": null, "Method": "Imagery", "Website": null, "Phone": "4438492000", "Address": "6701 North  Charles Street", "Lat": 39.390856, "POC": null, "Date_Creat": 1351123200000, "Long_": -76.624556, "Name": "Greater Baltimore Medical Center", "OBJECTID": 6002, "Ttl_Staff": 0, "Beds": 0, "FIPS": "24005", "Helipad": null, "State_ID": null, "ID": "0005121204", "NAICS_Des": "General Medical And Surgical Hospitals", "State": "MD", "County": "Baltimore", "Owner": null, "Date_Geol": 1369785600000, "ST_FIPS": "24"}},
{"geometry": {"type": "Point", "coordinates": [-76.7817919, 39.3587172]}, "type": "Feature", "properties": {"City": "Randallstown", "Zip": "21133", "NAICS": "622210", "Source": "http://dhmh.maryland.gov/ohcq/docs/Forms/DispForm.aspx?ID=89", "Type_": "General Acute Care Hospital", "Trauma": null, "Alt_Name": null, "Method": "Imagery", "Website": null, "Phone": "4105215995", "Address": "5401 Old Court Rd", "Lat": 39.358717, "POC": null, "Date_Creat": 1351123200000, "Long_": -76.781791, "Name": "Northwest Hospital Center", "OBJECTID": 6003, "Ttl_Staff": 0, "Beds": 0, "FIPS": "24005", "Helipad": null, "State_ID": null, "ID": "0005221133", "NAICS_Des": "General Medical And Surgical Hospitals", "State": "MD", "County": "Baltimore", "Owner": null, "Date_Geol": 1369785600000, "ST_FIPS": "24"}},
{"geometry": {"type": "Point", "coordinates": [-76.6110635, 39.3880572]}, "type": "Feature", "properties": {"City": "Towson", "Zip": "21204", "NAICS": "622210", "Source": "http://dhmh.maryland.gov/ohcq/docs/Forms/DispForm.aspx?ID=89", "Type_": "General Acute Care Hospital", "Trauma": null, "Alt_Name": null, "Method": "Imagery", "Website": null, "Phone": "4103371200", "Address": "7601 Osler Drive", "Lat": 39.388057, "POC": null, "Date_Creat": 1351123200000, "Long_": -76.611063, "Name": "Saint Joseph Medical Center", "OBJECTID": 6004, "Ttl_Staff": 0, "Beds": 0, "FIPS": "24005", "Helipad": null, "State_ID": null, "ID": "0005321204", "NAICS_Des": "General Medical And Surgical Hospitals", "State": "MD", "County": "Baltimore", "Owner": null, "Date_Geol": 1369785600000, "ST_FIPS": "24"}},
{"geometry": {"type": "Point", "coordinates": [-76.6225487, 39.3909529]}, "type": "Feature", "properties": {"City": "Baltimore", "Zip": "21204", "NAICS": "622210", "Source": "http://dhmh.maryland.gov/ohcq/docs/Forms/DispForm.aspx?ID=89", "Type_": "General Acute Care Hospital", "Trauma": null, "Alt_Name": null, "Method": "Imagery", "Website": null, "Phone": "4109383401", "Address": "6501 North  Charles Street", "Lat": 39.390952, "POC": null, "Date_Creat": 1351123200000, "Long_": -76.622548, "Name": "Sheppard Enoch Pratt Hospital, The", "OBJECTID": 6005, "Ttl_Staff": 0, "Beds": 0, "FIPS": "24005", "Helipad": null, "State_ID": null, "ID": "0005421204", "NAICS_Des": "General Medical And Surgical Hospitals", "State": "MD", "County": "Baltimore", "Owner": null, "Date_Geol": 1369785600000, "ST_FIPS": "24"}},
{"geometry": {"type": "Point", "coordinates": [-76.7224902, 39.2647936]}, "type": "Feature", "properties": {"City": "Catonsville", "Zip": "21228", "NAICS": "622210", "Source": "http://dhmh.maryland.gov/ohcq/docs/Forms/DispForm.aspx?ID=89", "Type_": "General Acute Care Hospital", "Trauma": null, "Alt_Name": null, "Method": "Imagery with Other", "Website": null, "Phone": "4104027455", "Address": "Wade Avenue", "Lat": 39.264793, "POC": null, "Date_Creat": 1351123200000, "Long_": -76.72249, "Name": "Spring Grove Hospital Center", "OBJECTID": 6006, "Ttl_Staff": 0, "Beds": 0, "FIPS": "24005", "Helipad": null, "State_ID": null, "ID": "0006521228", "NAICS_Des": "General Medical And Surgical Hospitals", "State": "MD", "County": "Baltimore", "Owner": null, "Date_Geol": 1369785600000, "ST_FIPS": "24"}},
{"geometry": {"type": "Point", "coordinates": [-78.7333176, 39.648002]}, "type": "Feature", "properties": {"City": "Cumberland", "Zip": "21502", "NAICS": "622210", "Source": "http://dhmh.maryland.gov/ohcq/docs/Forms/DispForm.aspx?ID=89", "Type_": "General Acute Care Hospital", "Trauma": null, "Alt_Name": null, "Method": "Imagery", "Website": null, "Phone": "2409642196", "Address": "12500 Willowbrook Road", "Lat": 39.648001, "POC": null, "Date_Creat": 1351123200000, "Long_": -78.733317, "Name": "Western Maryland Regional Medical Center", "OBJECTID": 6007, "Ttl_Staff": 0, "Beds": 0, "FIPS": "24001", "Helipad": null, "State_ID": null, "ID": "0004521502", "NAICS_Des": "General Medical And Surgical Hospitals", "State": "MD", "County": "Allegany", "Owner": null, "Date_Geol": 1369785600000, "ST_FIPS": "24"}},
{"geometry": {"type": "Point", "coordinates": [-78.7369762, 39.6612225]}, "type": "Feature", "properties": {"City": "Cumberland", "Zip": "21502", "NAICS": "622210", "Source": "http://dhmh.maryland.gov/ohcq/docs/Forms/DispForm.aspx?ID=89", "Type_": "General Acute Care Hospital", "Trauma": null, "Alt_Name": null, "Method": "Unverified", "Website": null, "Phone": "3017772240", "Address": "Country Club Road Po Box 1722", "Lat": 39.661222, "POC": null, "Date_Creat": 1351123200000, "Long_": -78.736976, "Name": "Thomas B Finan Center", "OBJECTID": 6008, "Ttl_Staff": 0, "Beds": 0, "FIPS": "24001", "Helipad": null, "State_ID": null, "ID": "0006421502", "NAICS_Des": "General Medical And Surgical Hospitals", "State": "MD", "County": "Allegany", "Owner": null, "Date_Geol": 1369785600000, "ST_FIPS": "24"}},
{"geometry": {"type": "Point", "coordinates": [-76.5346124, 38.9899267]}, "type": "Feature", "properties": {"City": "Annapolis", "Zip": "21401", "NAICS": "622210", "Source": "http://dhmh.maryland.gov/ohcq/docs/Forms/DispForm.aspx?ID=89", "Type_": "General Acute Care Hospital", "Trauma": null, "Alt_Name": null, "Method": "Imagery", "Website": null, "Phone": "4434811307", "Address": "2001 Medical Parkway", "Lat": 38.989926, "POC": null, "Date_Creat": 1351123200000, "Long_": -76.534612, "Name": "Anne Arundel Medical Center", "OBJECTID": 6009, "Ttl_Staff": 0, "Beds": 0, "FIPS": "24003", "Helipad": null, "State_ID": null, "ID": "0004621401", "NAICS_Des": "General Medical And Surgical Hospitals", "State": "MD", "County": "Anne Arundel", "Owner": null, "Date_Geol": 1369785600000, "ST_FIPS": "24"}},
{"geometry": {"type": "Point", "coordinates": [-76.6233563, 39.1381618]}, "type": "Feature", "properties": {"City": "Glen Burnie", "Zip": "21061", "NAICS": "622210", "Source": "http://dhmh.maryland.gov/ohcq/docs/Forms/DispForm.aspx?ID=89", "Type_": "General Acute Care Hospital", "Trauma": null, "Alt_Name": null, "Method": "Imagery", "Website": null, "Phone": "4107874400", "Address": "301 Hospital Dr", "Lat": 39.138161, "POC": null, "Date_Creat": 1351123200000, "Long_": -76.623356, "Name": "Baltimore Washington  Medical Center", "OBJECTID": 6010, "Ttl_Staff": 0, "Beds": 0, "FIPS": "24003", "Helipad": null, "State_ID": null, "ID": "0004721061", "NAICS_Des": "General Medical And Surgical Hospitals", "State": "MD", "County": "Anne Arundel", "Owner": null, "Date_Geol": 1369785600000, "ST_FIPS": "24"}},
{"geometry": {"type": "Point", "coordinates": [-76.5962726, 38.5599068]}, "type": "Feature", "properties": {"City": "Prince Frederick", "Zip": "20678", "NAICS": "622210", "Source": "http://dhmh.maryland.gov/ohcq/docs/Forms/DispForm.aspx?ID=89", "Type_": "General Acute Care Hospital", "Trauma": null, "Alt_Name": null, "Method": "Imagery", "Website": null, "Phone": "4105358239", "Address": "100 Hospital Road", "Lat": 38.559906, "POC": null, "Date_Creat": 1351123200000, "Long_": -76.596272, "Name": "Calvert Memorial Hospital", "OBJECTID": 6011, "Ttl_Staff": 0, "Beds": 0, "FIPS": "24009", "Helipad": null, "State_ID": null, "ID": "0005520678", "NAICS_Des": "General Medical And Surgical Hospitals", "State": "MD", "County": "Calvert", "Owner": null, "Date_Geol": 1369785600000, "ST_FIPS": "24"}},
{"geometry": {"type": "Point", "coordinates": [-76.9723283, 38.529313]}, "type": "Feature", "properties": {"City": "La Plata", "Zip": "20646", "NAICS": "622210", "Source": "http://dhmh.maryland.gov/ohcq/docs/Forms/DispForm.aspx?ID=89", "Type_": "General Acute Care Hospital", "Trauma": null, "Alt_Name": null, "Method": "Imagery", "Website": null, "Phone": "3016094265", "Address": "5 Garrett Avenue", "Lat": 38.529313, "POC": null, "Date_Creat": 1351123200000, "Long_": -76.972328, "Name": "Civista Medical Center", "OBJECTID": 6034, "Ttl_Staff": 0, "Beds": 0, "FIPS": "24017", "Helipad": null, "State_ID": null, "ID": "0005920646", "NAICS_Des": "General Medical And Surgical Hospitals", "State": "MD", "County": "Charles", "Owner": null, "Date_Geol": 1369785600000, "ST_FIPS": "24"}},
{"geometry": {"type": "Point", "coordinates": [-75.8318222, 39.6084278]}, "type": "Feature", "properties": {"City": "Elkton", "Zip": "21921", "NAICS": "622210", "Source": "http://dhmh.maryland.gov/ohcq/docs/Forms/DispForm.aspx?ID=89", "Type_": "General Acute Care Hospital", "Trauma": null, "Alt_Name": null, "Method": "Imagery", "Website": null, "Phone": "4103927009", "Address": "106 Bow Street", "Lat": 39.608427, "POC": null, "Date_Creat": 1351123200000, "Long_": -75.831822, "Name": "Union Hospital Of Cecil County", "OBJECTID": 6035, "Ttl_Staff": 0, "Beds": 0, "FIPS": "24015", "Helipad": null, "State_ID": null, "ID": "0005821921", "NAICS_Des": "General Medical And Surgical Hospitals", "State": "MD", "County": "Cecil", "Owner": null, "Date_Geol": 1369785600000, "ST_FIPS": "24"}},
{"geometry": {"type": "Point", "coordinates": [-76.0768561, 38.7696511]}, "type": "Feature", "properties": {"City": "Easton", "Zip": "21601", "NAICS": "622210", "Source": "http://dhmh.maryland.gov/ohcq/docs/Forms/DispForm.aspx?ID=89", "Type_": "General Acute Care Hospital", "Trauma": null, "Alt_Name": null, "Method": "Imagery", "Website": null, "Phone": "4108221000", "Address": "219 S Washington St", "Lat": 38.769651, "POC": null, "Date_Creat": 1351123200000, "Long_": -76.076856, "Name": "Memorial Hospital At Easton", "OBJECTID": 6097, "Ttl_Staff": 0, "Beds": 0, "FIPS": "24041", "Helipad": null, "State_ID": null, "ID": "0003321601", "NAICS_Des": "General Medical And Surgical Hospitals", "State": "MD", "County": "Talbot", "Owner": null, "Date_Geol": 1369785600000, "ST_FIPS": "24"}},
{"geometry": {"type": "Point", "coordinates": [-76.0578485, 38.5495393]}, "type": "Feature", "properties": {"City": "Cambridge", "Zip": "21613", "NAICS": "622210", "Source": "http://dhmh.maryland.gov/ohcq/docs/Forms/DispForm.aspx?ID=89", "Type_": "General Acute Care Hospital", "Trauma": null, "Alt_Name": null, "Method": "Imagery with Other", "Website": null, "Phone": "4102210288", "Address": "821 Fieldcrest Drive", "Lat": 38.549539, "POC": null, "Date_Creat": 1351123200000, "Long_": -76.057848, "Name": "Adventist  Behavioral Health Eastern Shore", "OBJECTID": 6103, "Ttl_Staff": 0, "Beds": 0, "FIPS": "24019", "Helipad": null, "State_ID": null, "ID": "0006021613", "NAICS_Des": "General Medical And Surgical Hospitals", "State": "MD", "County": "Dorchester", "Owner": null, "Date_Geol": 1369785600000, "ST_FIPS": "24"}},
{"geometry": {"type": "Point", "coordinates": [-76.0651472, 38.5408176]}, "type": "Feature", "properties": {"City": "Cambridge", "Zip": "21613", "NAICS": "622210", "Source": "http://dhmh.maryland.gov/ohcq/docs/Forms/DispForm.aspx?ID=89", "Type_": "General Acute Care Hospital", "Trauma": null, "Alt_Name": null, "Method": "Imagery with Other", "Website": null, "Phone": "4102212527", "Address": "5262 Woods Road", "Lat": 38.540817, "POC": null, "Date_Creat": 1351123200000, "Long_": -76.065147, "Name": "Eastern Shore Hospital Center", "OBJECTID": 6104, "Ttl_Staff": 0, "Beds": 0, "FIPS": "24019", "Helipad": null, "State_ID": null, "ID": "0006121613", "NAICS_Des": "General Medical And Surgical Hospitals", "State": "MD", "County": "Dorchester", "Owner": null, "Date_Geol": 1369785600000, "ST_FIPS": "24"}},
{"geometry": {"type": "Point", "coordinates": [-76.0672107, 38.5715914]}, "type": "Feature", "properties": {"City": "Cambridge", "Zip": "21613", "NAICS": "622210", "Source": "http://dhmh.maryland.gov/ohcq/docs/Forms/DispForm.aspx?ID=89", "Type_": "General Acute Care Hospital", "Trauma": null, "Alt_Name": null, "Method": "Imagery with Other", "Website": null, "Phone": "4102285511", "Address": "300 Bryn Street", "Lat": 38.571591, "POC": null, "Date_Creat": 1351123200000, "Long_": -76.06721, "Name": "Dorchester General Hospital", "OBJECTID": 6105, "Ttl_Staff": 0, "Beds": 0, "FIPS": "24019", "Helipad": null, "State_ID": null, "ID": "0006621613", "NAICS_Des": "General Medical And Surgical Hospitals", "State": "MD", "County": "Dorchester", "Owner": null, "Date_Geol": 1369785600000, "ST_FIPS": "24"}},
{"geometry": {"type": "Point", "coordinates": [-76.9907201, 39.558146]}, "type": "Feature", "properties": {"City": "Westminster", "Zip": "21157", "NAICS": "622210", "Source": "http://dhmh.maryland.gov/ohcq/docs/Forms/DispForm.aspx?ID=89", "Type_": "General Acute Care Hospital", "Trauma": null, "Alt_Name": null, "Method": "Imagery", "Website": null, "Phone": "4108716900", "Address": "200 Memorial Ave", "Lat": 39.558146, "POC": null, "Date_Creat": 1351123200000, "Long_": -76.99072, "Name": "Carroll Hospital Center", "OBJECTID": 6106, "Ttl_Staff": 0, "Beds": 0, "FIPS": "24013", "Helipad": null, "State_ID": null, "ID": "0005621157", "NAICS_Des": "General Medical And Surgical Hospitals", "State": "MD", "County": "Carroll", "Owner": null, "Date_Geol": 1369785600000, "ST_FIPS": "24"}},
{"geometry": {"type": "Point", "coordinates": [-76.9611955, 39.391315]}, "type": "Feature", "properties": {"City": "Sykesville", "Zip": "21784", "NAICS": "622210", "Source": "http://dhmh.maryland.gov/ohcq/docs/Forms/DispForm.aspx?ID=89", "Type_": "General Acute Care Hospital", "Trauma": null, "Alt_Name": null, "Method": "Unverified", "Website": null, "Phone": "4109707001", "Address": "6655 Sykesville Road", "Lat": 39.391315, "POC": null, "Date_Creat": 1351123200000, "Long_": -76.961195, "Name": "Springfield Hospital Center", "OBJECTID": 6107, "Ttl_Staff": 0, "Beds": 0, "FIPS": "24013", "Helipad": null, "State_ID": null, "ID": "0005721784", "NAICS_Des": "General Medical And Surgical Hospitals", "State": "MD", "County": "Carroll", "Owner": null, "Date_Geol": 1369785600000, "ST_FIPS": "24"}},
{"geometry": {"type": "Point", "coordinates": [-75.2113331, 38.3395252]}, "type": "Feature", "properties": {"City": "Berlin", "Zip": "21811", "NAICS": "622210", "Source": "http://dhmh.maryland.gov/ohcq/docs/Forms/DispForm.aspx?ID=89", "Type_": "General Acute Care Hospital", "Trauma": null, "Alt_Name": null, "Method": "Imagery", "Website": null, "Phone": "4106419601", "Address": "9733 Healthway Drive", "Lat": 38.339525, "POC": null, "Date_Creat": 1351123200000, "Long_": -75.211333, "Name": "Atlantic General Hospital", "OBJECTID": 6108, "Ttl_Staff": 0, "Beds": 0, "FIPS": "24047", "Helipad": null, "State_ID": null, "ID": "0004421811", "NAICS_Des": "General Medical And Surgical Hospitals", "State": "MD", "County": "Worcester", "Owner": null, "Date_Geol": 1369785600000, "ST_FIPS": "24"}}
]}