{"type":"FeatureCollection","features":[
{"geometry": {"type": "Point", "coordinates": [-83.0026159, 36.7025365]}, "type": "Feature", "properties": {"TITLE": " ", "FAC_SIZE": 0, "CONTACT": " ", "DATEOPEN": " ", "Latitude": 0, "Type": "Federal", "Website": "http://www.bop.gov/locations/institutions/lee/index.jsp", "Fax": "276-546-9115", "ZIP": "24263", "GENDER": "Male", "SPECPOP": " ", "Phone": "276-546-0150", "AVEDAILYPO": "1675", "OBJECTID": 1, "Longitude": 0, "STATE": "VA", "CITY": "Jonesville", "UPDATED": " ", "Facility": "US Penitentiary Lee", "ADDRESS1": "Lee County Industrial Park Hickory Flats Road", "ADDRESS2": "PO Box 900", "FACLEVEL": "High", "COMMENTS": "High", "SPECPRG": " ", "REGION": "USBOP Mid-Atlantic"}},
{"geometry": {"type": "Point", "coordinates": [-77.3463868, 37.3042369]}, "type": "Feature", "properties": {"TITLE": " ", "FAC_SIZE": 0, "CONTACT": " ", "DATEOPEN": " ", "Latitude": 0, "Type": "Federal", "Website": "http://www.bop.gov/locations/institutions/pem/index.jsp", "Fax": "804-504-7204", "ZIP": "23860", "GENDER": "Male", "SPECPOP": " ", "Phone": "804-504-7200", "AVEDAILYPO": "1855", "OBJECTID": 2, "Longitude": 0, "STATE": "VA", "CITY": "Hopewell", "UPDATED": " ", "Facility": "Petersburg Federal Correctional Institute - Medium", "ADDRESS1": "1060 River Road", "ADDRESS2": "PO Box 90042", "FACLEVEL": "Medium", "COMMENTS": "Medium", "SPECPRG": " ", "REGION": "USBOP Mid-Atlantic"}},
{"geometry": {"type": "Point", "coordinates": [-77.3488517, 37.2993696]}, "type": "Feature", "properties": {"TITLE": " ", "FAC_SIZE": 0, "CONTACT": " ", "DATEOPEN": " ", "Latitude": 0, "Type": "Federal", "Website": "http://www.bop.gov/locations/institutions/pet/index.jsp", "Fax": "804-863-1510", "ZIP": "23860", "GENDER": "Male", "SPECPOP": " ", "Phone": "804-733-7881", "AVEDAILYPO": "1291", "OBJECTID": 3, "Longitude": 0, "STATE": "VA", "CITY": "Hopewell", "UPDATED": " ", "Facility": "Petersburg Federal Correctional Institute - Low", "ADDRESS1": "1100 River Road", "ADDRESS2": "PO Box 90026", "FACLEVEL": "Low", "COMMENTS": "Low", "SPECPRG": " ", "REGION": "USBOP Mid-Atlantic"}},
{"geometry": {"type": "Point", "coordinates": [-80.6157086, 37.1307866]}, "type": "Feature", "properties": {"TITLE": "Warden", "FAC_SIZE": 52, "CONTACT": "Al Hollar", "DATEOPEN": "1955", "Latitude": 0, "Type": "State - VDOC", "Website": " ", "Fax": "540-831-6213", "ZIP": "24084", "GENDER": "Male", "SPECPOP": "N/A", "Phone": "540-831-5840", "AVEDAILYPO": "396", "OBJECTID": 4, "Longitude": 0, "STATE": "VA", "CITY": "Dublin", "UPDATED": "March 2007", "Facility": "Pulaski Correctional Unit", "ADDRESS1": "Old Rt 11, Morgans Cut Road", "ADDRESS2": "PO Box 1188", "FACLEVEL": "1", "COMMENTS": " ", "SPECPRG": "Substance Abuse TC", "REGION": "Western"}},
{"geometry": {"type": "Point", "coordinates": [-80.889041, 37.170324]}, "type": "Feature", "properties": {"TITLE": "Warden", "FAC_SIZE": 2100, "CONTACT": "Larry Jarvis", "DATEOPEN": "1946", "Latitude": 0, "Type": "State - VDOC", "Website": " ", "Fax": "276-688-2316", "ZIP": "24315-4960", "GENDER": "Male", "SPECPOP": "N/A", "Phone": "276-688-3341", "AVEDAILYPO": "601", "OBJECTID": 5, "Longitude": 0, "STATE": "VA", "CITY": "Bland", "UPDATED": "March 2007", "Facility": "Bland Correctional Center", "ADDRESS1": "256 Bland Farm Road", "ADDRESS2": " ", "FACLEVEL": "2", "COMMENTS": "Large argicultural prg furnishes meat & dairy products to 9 other WR Correctional Facilities", "SPECPRG": "N/A", "REGION": "Western"}},
{"geometry": {"type": "Point", "coordinates": [-81.3979976, 37.1440238]}, "type": "Feature", "properties": {"TITLE": "Superintendent", "FAC_SIZE": 51, "CONTACT": "Karen Polinsky", "DATEOPEN": "1963", "Latitude": 0, "Type": "State - VDOC", "Website": " ", "Fax": "276-988-5443", "ZIP": "24651", "GENDER": "Male", "SPECPOP": "Classifications", "Phone": "276-988-4701", "AVEDAILYPO": "137", "OBJECTID": 6, "Longitude": 0, "STATE": "VA", "CITY": "Tazewell", "UPDATED": "March 2007", "Facility": "Tazewell Correctional Unit #31", "ADDRESS1": "Route 3, Box 472", "ADDRESS2": "PO Box 472", "FACLEVEL": "1", "COMMENTS": "High Security under Level 1", "SPECPRG": "N/A", "REGION": "Western"}},
{"geometry": {"type": "Point", "coordinates": [-82.4625081, 36.9163817]}, "type": "Feature", "properties": {"TITLE": "Superintendent", "FAC_SIZE": 0, "CONTACT": "Jerry Armentrout", "DATEOPEN": "1964", "Latitude": 0, "Type": "State - VDOC", "Website": " ", "Fax": "276-395-7349", "ZIP": "24230-1198", "GENDER": "Male", "SPECPOP": "N/A", "Phone": "276-395-2384", "AVEDAILYPO": "111", "OBJECTID": 7, "Longitude": 0, "STATE": "VA", "CITY": "Coeburn", "UPDATED": "March 2007", "Facility": "Wise Correctional Unit", "ADDRESS1": "Highway 72 South", "ADDRESS2": "PO Box 1198", "FACLEVEL": "1", "COMMENTS": "High Security under Level 1", "SPECPRG": "N/A", "REGION": "Western"}},
{"geometry": {"type": "Point", "coordinates": [-79.8459789, 37.4237479]}, "type": "Feature", "properties": {"TITLE": "Warden", "FAC_SIZE": 71, "CONTACT": "J.D. Terry", "DATEOPEN": "1960", "Latitude": 0, "Type": "State - VDOC", "Website": " ", "Fax": "540-992-1284", "ZIP": "24175", "GENDER": "Male", "SPECPOP": "N/A", "Phone": "540-992-5811", "AVEDAILYPO": "342", "OBJECTID": 8, "Longitude": 0, "STATE": "VA", "CITY": "Troutville", "UPDATED": "March 2007", "Facility": "Botetourt Correctional Unit #25", "ADDRESS1": "201 State Drive", "ADDRESS2": "PO Box 250", "FACLEVEL": "1", "COMMENTS": "High Security under Level 1", "SPECPRG": "Substance Abuse Therapeutic Comm.", "REGION": "Western"}},
{"geometry": {"type": "Point", "coordinates": [-79.0683289, 37.2671697]}, "type": "Feature", "properties": {"TITLE": "Superintendent", "FAC_SIZE": 94, "CONTACT": "Howard Arthur, Sr.", "DATEOPEN": "1969", "Latitude": 0, "Type": "State - VDOC", "Website": " ", "Fax": "804-332-5858", "ZIP": "24588", "GENDER": "Male", "SPECPOP": "N/A", "Phone": "804-332-7354", "AVEDAILYPO": "137", "OBJECTID": 9, "Longitude": 0, "STATE": "VA", "CITY": "Rustburg", "UPDATED": "March 2007", "Facility": "Rustburg Correctional Unit", "ADDRESS1": "479 Camp Nine Rd", "ADDRESS2": " ", "FACLEVEL": "1", "COMMENTS": "High Security under Level 1", "SPECPRG": "N/A", "REGION": "Central"}},
{"geometry": {"type": "Point", "coordinates": [-79.9552187, 36.6232232]}, "type": "Feature", "properties": {"TITLE": "Superintendent", "FAC_SIZE": 85, "CONTACT": "Barry Kanode", "DATEOPEN": "1967", "Latitude": 0, "Type": "State - VDOC", "Website": " ", "Fax": "276-957-1230", "ZIP": "24148", "GENDER": "Male", "SPECPOP": "N/A", "Phone": "276-957-2234", "AVEDAILYPO": "137", "OBJECTID": 10, "Longitude": 0, "STATE": "VA", "CITY": "Ridgeway", "UPDATED": "March 2007", "Facility": "Patrick Henry Correctional Unit #28", "ADDRESS1": "18155 A. L. Philpott Highway", "ADDRESS2": "PO Box 1090", "FACLEVEL": "1", "COMMENTS": "High Security under Level 1", "SPECPRG": "N/A", "REGION": "Western"}},
{"geometry": {"type": "Point", "coordinates": [-81.509257, 36.830313]}, "type": "Feature", "properties": {"TITLE": "Warden", "FAC_SIZE": 0, "CONTACT": "Kenneth Osborne", "DATEOPEN": "1980", "Latitude": 0, "Type": "State - VDOC", "Website": " ", "Fax": "276-783-1486", "ZIP": "24354", "GENDER": "Male", "SPECPOP": "Accredited Mental Health Facility", "Phone": "276-783-7154", "AVEDAILYPO": "206", "OBJECTID": 11, "Longitude": 0, "STATE": "VA", "CITY": "Marion", "UPDATED": "March 2007", "Facility": "Marion Correction Treatment Center", "ADDRESS1": "110 Wright Street", "ADDRESS2": "PO Box 1027", "FACLEVEL": "2", "COMMENTS": "Treatment and housing of mental health inmates, originally opened in 1958 as Southwestern State Hospital", "SPECPRG": "N/A", "REGION": "Western"}},
{"geometry": {"type": "Point", "coordinates": [-82.7867694, 36.8421228]}, "type": "Feature", "properties": {"TITLE": "Warden", "FAC_SIZE": 0, "CONTACT": "Bryan Watson", "DATEOPEN": "1999", "Latitude": 0, "Type": "State - VDOC", "Website": " ", "Fax": "276-523-9622", "ZIP": "24219", "GENDER": " ", "SPECPOP": "Pending", "Phone": "276-523-3310", "AVEDAILYPO": "693", "OBJECTID": 12, "Longitude": 0, "STATE": "VA", "CITY": "Big Stone Gap", "UPDATED": "March 2007", "Facility": "Wallen's Ridge State Prison", "ADDRESS1": "272 Dogwood Drive", "ADDRESS2": "PO Box 759", "FACLEVEL": "6", "COMMENTS": "Super Maximum Security", "SPECPRG": "Pending", "REGION": "Western"}},
{"geometry": {"type": "Point", "coordinates": [-78.4747299, 37.5663019]}, "type": "Feature", "properties": {"TITLE": "Warden", "FAC_SIZE": 968, "CONTACT": "Harris Diggs", "DATEOPEN": "1982", "Latitude": 0, "Type": "State - VDOC", "Website": " ", "Fax": "434-391-5999", "ZIP": "23936", "GENDER": "Male", "SPECPOP": "Parole Violators", "Phone": "434-391-5980", "AVEDAILYPO": "960", "OBJECTID": 13, "Longitude": 0, "STATE": "VA", "CITY": "Dillwyn", "UPDATED": "March 2007", "Facility": "Buckingham Correctional Center", "ADDRESS1": "Route 20 N", "ADDRESS2": "PO Box 430", "FACLEVEL": "3", "COMMENTS": "Close custody facility", "SPECPRG": "N/A", "REGION": "Central"}},
{"geometry": {"type": "Point", "coordinates": [-78.470686, 37.5746083]}, "type": "Feature", "properties": {"TITLE": "Warden", "FAC_SIZE": 0, "CONTACT": "Lisa Edwards", "DATEOPEN": "1993", "Latitude": 0, "Type": "State - VDOC", "Website": " ", "Fax": "434-983-2294", "ZIP": "23936", "GENDER": "Male", "SPECPOP": "Parole Violators", "Phone": "434-983-4200", "AVEDAILYPO": "956", "OBJECTID": 14, "Longitude": 0, "STATE": "VA", "CITY": "Dillwyn", "UPDATED": "March 2007", "Facility": "Dillwyn Correctional Center", "ADDRESS1": "1522 Prison Road", "ADDRESS2": "PO Box 670", "FACLEVEL": "2", "COMMENTS": " ", "SPECPRG": "N/A", "REGION": "Northern"}},
{"geometry": {"type": "Point", "coordinates": [-79.1513034, 37.9917542]}, "type": "Feature", "properties": {"TITLE": "Superintendent", "FAC_SIZE": 162, "CONTACT": "Edward Meeks", "DATEOPEN": "1953", "Latitude": 0, "Type": "State - VDOC", "Website": " ", "Fax": "540-337-1511", "ZIP": "24440", "GENDER": "Male", "SPECPOP": "N/A", "Phone": "540-337-1818", "AVEDAILYPO": "113", "OBJECTID": 15, "Longitude": 0, "STATE": "VA", "CITY": "Greenville", "UPDATED": "March 2007", "Facility": "Cold Springs Correctional Unit #10", "ADDRESS1": "221 Spitler Circle", "ADDRESS2": " ", "FACLEVEL": "1", "COMMENTS": "High Security under Level 1", "SPECPRG": "N/A", "REGION": "Northern"}},
{"geometry": {"type": "Point", "coordinates": [-79.3678253, 38.0610681]}, "type": "Feature", "properties": {"TITLE": "Warden", "FAC_SIZE": 841, "CONTACT": "Dan Braxton", "DATEOPEN": "1986", "Latitude": 0, "Type": "State - VDOC", "Website": " ", "Fax": "540-997-7222", "ZIP": "24430", "GENDER": "Male", "SPECPOP": "N/A", "Phone": "540-997-7000", "AVEDAILYPO": "1148", "OBJECTID": 16, "Longitude": 0, "STATE": "VA", "CITY": "Craigsville", "UPDATED": "March 2007", "Facility": "Augusta Correctional Center", "ADDRESS1": "1821 Estaline Valley Road", "ADDRESS2": "PO Box 1000", "FACLEVEL": "3", "COMMENTS": "Close custody facility - 4", "SPECPRG": "N/A", "REGION": "Northern"}},
{"geometry": {"type": "Point", "coordinates": [-82.5498772, 37.1117251]}, "type": "Feature", "properties": {"TITLE": "Chief Warden", "FAC_SIZE": 0, "CONTACT": "Tracy Ray", "DATEOPEN": "1998", "Latitude": 0, "Type": "State - VDOC", "Website": " ", "Fax": "540-796-7531", "ZIP": "24279", "GENDER": " ", "SPECPOP": "Pending", "Phone": "540-796-7510", "AVEDAILYPO": "985", "OBJECTID": 17, "Longitude": 0, "STATE": "VA", "CITY": "Pound", "UPDATED": "March 2007", "Facility": "Red Onion State Prison", "ADDRESS1": "10800 H. Jack Rose Highway", "ADDRESS2": "PO Box 970", "FACLEVEL": "6", "COMMENTS": "Super Maximum Security", "SPECPRG": "Pending", "REGION": "Western"}},
{"geometry": {"type": "Point", "coordinates": [-77.3307576, 37.8328769]}, "type": "Feature", "properties": {"TITLE": "Superintendent", "FAC_SIZE": 142, "CONTACT": "Bobby Soles", "DATEOPEN": "1965", "Latitude": 0, "Type": "State - VDOC", "Website": " ", "Fax": "804-994-2784", "ZIP": "23069", "GENDER": "Male", "SPECPOP": "N/A", "Phone": "804-994-2161", "AVEDAILYPO": "138", "OBJECTID": 18, "Longitude": 0, "STATE": "VA", "CITY": "Hanover", "UPDATED": "March 2007", "Facility": "Caroline Correctional Unit #2", "ADDRESS1": "31285 Camp Road", "ADDRESS2": " ", "FACLEVEL": "1", "COMMENTS": "High Security under Level 1", "SPECPRG": "N/A", "REGION": "Northern"}},
{"geometry": {"type": "Point", "coordinates": [-78.0176655, 38.3636603]}, "type": "Feature", "properties": {"TITLE": "Warden", "FAC_SIZE": 0, "CONTACT": "Randy Mathena", "DATEOPEN": "1994", "Latitude": 0, "Type": "State - VDOC", "Website": " ", "Fax": "540-829-7383", "ZIP": "22729", "GENDER": "Male", "SPECPOP": "N/A", "Phone": "540-829-6483", "AVEDAILYPO": "1181", "OBJECTID": 19, "Longitude": 0, "STATE": "VA", "CITY": "Mitchells", "UPDATED": "March 2007", "Facility": "Coffeewood Correctional Center", "ADDRESS1": "12352 Coffeewood Drive", "ADDRESS2": "PO Box 500", "FACLEVEL": "2", "COMMENTS": " ", "SPECPRG": "N/A", "REGION": "Central"}},
{"geometry": {"type": "Point", "coordinates": [-77.3754541, 38.8491599]}, "type": "Feature", "properties": {"TITLE": "Superintenent", "FAC_SIZE": 15, "CONTACT": "Gloria Bryan", "DATEOPEN": "1954", "Latitude": 0, "Type": "State - VDOC", "Website": " ", "Fax": "703-830-0791", "ZIP": "22030", "GENDER": "Male", "SPECPOP": "Classifications", "Phone": "703-830-8828", "AVEDAILYPO": "233", "OBJECTID": 20, "Longitude": 0, "STATE": "VA", "CITY": "Fairfax", "UPDATED": "March 2007", "Facility": "Fairfax Correctional Unit #30", "ADDRESS1": "4800 West Ox Road", "ADDRESS2": "PO Box 487", "FACLEVEL": "1", "COMMENTS": "High Security under Level 1", "SPECPRG": "N/A", "REGION": "Northern"}},
{"geometry": {"type": "Point", "coordinates": [-78.2700376, 37.9829078]}, "type": "Feature", "properties": {"TITLE": "Warden", "FAC_SIZE": 0, "CONTACT": "Barbara Wheeler", "DATEOPEN": "1998", "Latitude": 0, "Type": "State - VDOC", "Website": " ", "Fax": "434-984-9626", "ZIP": "22974", "GENDER": "Female", "SPECPOP": "Pending", "Phone": "434-984-3700", "AVEDAILYPO": "899", "OBJECTID": 21, "Longitude": 0, "STATE": "VA", "CITY": "Troy", "UPDATED": "March 2007", "Facility": "Fluvanna Correctional Center for Women", "ADDRESS1": "Route 250 West", "ADDRESS2": "PO Box 1000", "FACLEVEL": "3", "COMMENTS": " ", "SPECPRG": "Pending", "REGION": "Central"}},
{"geometry": {"type": "Point", "coordinates": [-76.6734499, 37.9554958]}, "type": "Feature", "properties": {"TITLE": "Superintendent", "FAC_SIZE": 0, "CONTACT": "Claude Mitchell", "DATEOPEN": "1959", "Latitude": 0, "Type": "State - VDOC", "Website": " ", "Fax": "804-333-9671", "ZIP": "22472", "GENDER": "Male", "SPECPOP": "N/A", "Phone": "804-333-3577", "AVEDAILYPO": "113", "OBJECTID": 22, "Longitude": 0, "STATE": "VA", "CITY": "Haynesville", "UPDATED": "March 2007", "Facility": "Haynesville Correctional Unit #17", "ADDRESS1": "Camp Seventeen Road", "ADDRESS2": "PO Box 39", "FACLEVEL": "1", "COMMENTS": "High Security under Level 1", "SPECPRG": "N/A", "REGION": "Northern"}},
{"geometry": {"type": "Point", "coordinates": [-77.2552226, 36.7241517]}, "type": "Feature", "properties": {"TITLE": "Warden", "FAC_SIZE": 2630, "CONTACT": "James V Beale", "DATEOPEN": "1937", "Latitude": 0, "Type": "State - VDOC", "Website": " ", "Fax": "434-658-3501", "ZIP": "23829", "GENDER": "Male", "SPECPOP": "N/A", "Phone": "434-658-4174", "AVEDAILYPO": "494", "OBJECTID": 23, "Longitude": 0, "STATE": "VA", "CITY": "Capron", "UPDATED": "March 2007", "Facility": "Southampton Correctional Center", "ADDRESS1": "14545 Old Belfield Road", "ADDRESS2": " ", "FACLEVEL": "3", "COMMENTS": "Other facilities on property: Southampton Intensive Treatment Cnt, Southampton Recp & Classification Cnt, Southampton Men's Detention Cnt, & Diversion Cnt for Women", "SPECPRG": "N/A", "REGION": "Eastern"}},
{"geometry": {"type": "Point", "coordinates": [-78.3637895, 36.6607057]}, "type": "Feature", "properties": {"TITLE": "Warden", "FAC_SIZE": 189, "CONTACT": "Charlie Davis", "DATEOPEN": "1976", "Latitude": 0, "Type": "State - VDOC", "Website": " ", "Fax": "434-738-0556", "ZIP": "23917", "GENDER": "Male", "SPECPOP": "Classification/Intake", "Phone": "434-738-6114", "AVEDAILYPO": "709", "OBJECTID": 24, "Longitude": 0, "STATE": "VA", "CITY": "Boydton", "UPDATED": "March 2007", "Facility": "Mecklenburg Correctional Center", "ADDRESS1": "960 Prison Road", "ADDRESS2": "PO Box 500", "FACLEVEL": "3", "COMMENTS": "1998 facility became a classification center, prior to that it housed death row inmates and mental health bedss", "SPECPRG": "N/A", "REGION": "Central"}},
{"geometry": {"type": "Point", "coordinates": [-78.3010709, 36.7219685]}, "type": "Feature", "properties": {"TITLE": "Warden", "FAC_SIZE": 362, "CONTACT": "Henry Ponton", "DATEOPEN": "1962", "Latitude": 0, "Type": "State - VDOC", "Website": " ", "Fax": "434-447-2096", "ZIP": "23915", "GENDER": "Male", "SPECPOP": "N/A", "Phone": "434-447-3857", "AVEDAILYPO": "487", "OBJECTID": 25, "Longitude": 0, "STATE": "VA", "CITY": "Baskerville", "UPDATED": "March 2007", "Facility": "Baskerville Correctional Unit", "ADDRESS1": "4150 Hayes Mill Rd", "ADDRESS2": " ", "FACLEVEL": "1", "COMMENTS": "High Security under Level 1", "SPECPRG": "N/A", "REGION": "Central"}},
{"geometry": {"type": "Point", "coordinates": [-78.9310508, 36.7278534]}, "type": "Feature", "properties": {"TITLE": "Superintendent", "FAC_SIZE": 113, "CONTACT": "W.J. Townley", "DATEOPEN": "1955", "Latitude": 0, "Type": "State - VDOC", "Website": " ", "Fax": "434-572-4807", "ZIP": "24558", "GENDER": "Male", "SPECPOP": "N/A", "Phone": "434-572-2683", "AVEDAILYPO": "247", "OBJECTID": 26, "Longitude": 0, "STATE": "VA", "CITY": "Halifax", "UPDATED": "March 2007", "Facility": "Halifax Correctional Unit #23", "ADDRESS1": "1200 Farm Road", "ADDRESS2": "Box 1789", "FACLEVEL": "1", "COMMENTS": "High Security under Level 1", "SPECPRG": "N/A", "REGION": "Central"}},
{"geometry": {"type": "Point", "coordinates": [-77.8220842, 36.7765771]}, "type": "Feature", "properties": {"TITLE": "Warden", "FAC_SIZE": 0, "CONTACT": "H Randolph Powell", "DATEOPEN": "1982", "Latitude": 0, "Type": "State - VDOC", "Website": " ", "Fax": "804-848-4647", "ZIP": "23868", "GENDER": "Male", "SPECPOP": "Parole Violators", "Phone": "804-848-4131", "AVEDAILYPO": "663", "OBJECTID": 27, "Longitude": 0, "STATE": "VA", "CITY": "Lawrenceville", "UPDATED": "March 2007", "Facility": "Brunswick Correctional Center", "ADDRESS1": "1147 Planters Road", "ADDRESS2": "PO Box 207C", "FACLEVEL": "3", "COMMENTS": "Medium custody facility", "SPECPRG": "Mental Health Sheltered Care Beds", "REGION": "Eastern"}},
{"geometry": {"type": "Point", "coordinates": [-78.1750959, 37.1831233]}, "type": "Feature", "properties": {"TITLE": "Warden", "FAC_SIZE": 539, "CONTACT": "Douglas Vaughan", "DATEOPEN": "1984", "Latitude": 0, "Type": "State - VDOC", "Website": " ", "Fax": "434-767-4865", "ZIP": "23922", "GENDER": "Male", "SPECPOP": "N/A", "Phone": "434-767-5543", "AVEDAILYPO": "1150", "OBJECTID": 28, "Longitude": 0, "STATE": "VA", "CITY": "Burkeville", "UPDATED": "March 2007", "Facility": "Nottoway Correctional Center", "ADDRESS1": "650 Shutt Road", "ADDRESS2": "PO Box 488", "FACLEVEL": "4", "COMMENTS": " ", "SPECPRG": "N/A", "REGION": "Central"}},
{"geometry": {"type": "Point", "coordinates": [-77.8884116, 37.6759465]}, "type": "Feature", "properties": {"TITLE": "Warden", "FAC_SIZE": 0, "CONTACT": "Wendy Hobbs", "DATEOPEN": "1931", "Latitude": 0, "Type": "State - VDOC", "Website": " ", "Fax": "804-784-5037", "ZIP": "23063", "GENDER": "Female", "SPECPOP": "Classification, Medical, Parole Violators", "Phone": "804-784-3582", "AVEDAILYPO": "469", "OBJECTID": 29, "Longitude": 0, "STATE": "VA", "CITY": "Goochland", "UPDATED": "March 2007", "Facility": "Virginia Correctional Center for Women", "ADDRESS1": "2841 River Road", "ADDRESS2": " ", "FACLEVEL": "2", "COMMENTS": " ", "SPECPRG": "Substance abuse therapeutic comm., work release, mental health sheltered care beds", "REGION": "Central"}},
{"geometry": {"type": "Point", "coordinates": [-77.835251, 37.6250737]}, "type": "Feature", "properties": {"TITLE": "Warden", "FAC_SIZE": 2595, "CONTACT": "Eddie Pearson", "DATEOPEN": "1926", "Latitude": 0, "Type": "State - VDOC", "Website": " ", "Fax": "804-403-3202", "ZIP": "23160", "GENDER": "Male", "SPECPOP": "Infirmary", "Phone": "804-598-4251", "AVEDAILYPO": "801", "OBJECTID": 30, "Longitude": 0, "STATE": "VA", "CITY": "State Farm", "UPDATED": "March 2007", "Facility": "Powhatan Correctional Center", "ADDRESS1": " ", "ADDRESS2": " ", "FACLEVEL": "3", "COMMENTS": "Main facilites constructed in 1952", "SPECPRG": "Mental Health Sheltered Care Beds", "REGION": "Central"}},
{"geometry": {"type": "Point", "coordinates": [-77.8277211, 37.6448574]}, "type": "Feature", "properties": {"TITLE": "Warden", "FAC_SIZE": 1202, "CONTACT": "Samuel V. Pruett", "DATEOPEN": "1896", "Latitude": 0, "Type": "State - VDOC", "Website": " ", "Fax": "804-556-6328", "ZIP": "23160", "GENDER": "Male", "SPECPOP": "N/A", "Phone": "804-748-3551", "AVEDAILYPO": "444", "OBJECTID": 31, "Longitude": 0, "STATE": "VA", "CITY": "State Farm", "UPDATED": "March 2007", "Facility": "James River Correctional Center", "ADDRESS1": " ", "ADDRESS2": " ", "FACLEVEL": "2", "COMMENTS": "Dairy farm operation, SOS Pen Pal prg for training of hard-to-adopt dogs (8-week prg)", "SPECPRG": "N/A", "REGION": "Central"}},
{"geometry": {"type": "Point", "coordinates": [-77.8507006, 37.6215231]}, "type": "Feature", "properties": {"TITLE": "Warden", "FAC_SIZE": 0, "CONTACT": "Alton Baskerville", "DATEOPEN": "1989", "Latitude": 0, "Type": "State - VDOC", "Website": " ", "Fax": "804-403-3400", "ZIP": "23160", "GENDER": "Male", "SPECPOP": "Classification & Intake, Infirmary", "Phone": "804-598-5503", "AVEDAILYPO": "903", "OBJECTID": 32, "Longitude": 0, "STATE": "VA", "CITY": "State Farm", "UPDATED": "March 2007", "Facility": "Deep Meadow Correctional Center", "ADDRESS1": " ", "ADDRESS2": " ", "FACLEVEL": "1", "COMMENTS": "High Security under Level 1, rebuilt in 1989, previously known as Powahtan North", "SPECPRG": "N/A", "REGION": "Central"}},
{"geometry": {"type": "Point", "coordinates": [-77.670603, 37.1729668]}, "type": "Feature", "properties": {"TITLE": "Superintendent", "FAC_SIZE": 186, "CONTACT": "Jim Snodgrass", "DATEOPEN": "1950", "Latitude": 0, "Type": "State - VDOC", "Website": " ", "Fax": "804-265-5474", "ZIP": "23833", "GENDER": "Male", "SPECPOP": "N/A", "Phone": "804-265-5744", "AVEDAILYPO": "113", "OBJECTID": 33, "Longitude": 0, "STATE": "VA", "CITY": "Church Road", "UPDATED": "March 2007", "Facility": "Dinwiddie Correctional Unit #27", "ADDRESS1": "13510 Cox Rd", "ADDRESS2": "PO Box 40", "FACLEVEL": "1", "COMMENTS": "High Security under Level 1, first permanent field unit", "SPECPRG": "N/A", "REGION": "Central"}},
{"geometry": {"type": "Point", "coordinates": [-77.5631209, 37.4036551]}, "type": "Feature", "properties": {"TITLE": "Superintendent", "FAC_SIZE": 74, "CONTACT": "Tammy C Brown", "DATEOPEN": "1971", "Latitude": 0, "Type": "State - VDOC", "Website": " ", "Fax": "804-796-4207", "ZIP": "23832", "GENDER": "Female", "SPECPOP": "N/A", "Phone": "804-796-4277", "AVEDAILYPO": "231", "OBJECTID": 34, "Longitude": 0, "STATE": "VA", "CITY": "Chesterfield", "UPDATED": "March 2007", "Facility": "Pocahontas Correctional Unit #13", "ADDRESS1": "6900 Courthouse Rd", "ADDRESS2": " ", "FACLEVEL": "2", "COMMENTS": " ", "SPECPRG": "N/A", "REGION": "Central"}},
{"geometry": {"type": "Point", "coordinates": [-78.211561, 37.0150221]}, "type": "Feature", "properties": {"TITLE": "Warden", "FAC_SIZE": 205, "CONTACT": "Carole Wallace", "DATEOPEN": "1995", "Latitude": 0, "Type": "State - VDOC", "Website": " ", "Fax": "434-696-2155", "ZIP": "23974", "GENDER": "Male", "SPECPOP": "N/A", "Phone": "434-696-2045", "AVEDAILYPO": "1127", "OBJECTID": 35, "Longitude": 0, "STATE": "VA", "CITY": "Victoria", "UPDATED": "March 2007", "Facility": "Lunenburg Correctional Center", "ADDRESS1": "285P Highway 49", "ADDRESS2": "PO Box Y", "FACLEVEL": "2", "COMMENTS": " ", "SPECPRG": "N/A", "REGION": "Central"}},
{"geometry": {"type": "Point", "coordinates": [-77.8154313, 36.7819037]}, "type": "Feature", "properties": {"TITLE": "Warden", "FAC_SIZE": 0, "CONTACT": "Ed Wright", "DATEOPEN": "1998", "Latitude": 0, "Type": "State - VDOC", "Website": " ", "Fax": "434-848-0232", "ZIP": "23868", "GENDER": " ", "SPECPOP": "N/A", "Phone": "434-848-9349", "AVEDAILYPO": "1535", "OBJECTID": 36, "Longitude": 0, "STATE": "VA", "CITY": "Lawrenceville", "UPDATED": "March 2007", "Facility": "Lawrenceville Correctional Center", "ADDRESS1": "1607 Planters Road", "ADDRESS2": " ", "FACLEVEL": "3", "COMMENTS": "Private correctional facility", "SPECPRG": "N/A", "REGION": "Central"}},
{"geometry": {"type": "Point", "coordinates": [-77.4863856, 36.7986755]}, "type": "Feature", "properties": {"TITLE": "Chief Warden", "FAC_SIZE": 1105, "CONTACT": "George Hinkle", "DATEOPEN": "1990", "Latitude": 0, "Type": "State - VDOC", "Website": " ", "Fax": "434-535-7060", "ZIP": "23870-0614", "GENDER": "Male", "SPECPOP": "Death Chamber, Segregation Unit, Infirmary", "Phone": "434-535-7000", "AVEDAILYPO": "3007", "OBJECTID": 37, "Longitude": 0, "STATE": "VA", "CITY": "Jarrett", "UPDATED": "March 2007", "Facility": "Greensville Correctional Center/Work Center", "ADDRESS1": "901 Corrections Way", "ADDRESS2": " ", "FACLEVEL": "3", "COMMENTS": "Work Center built in 1995 - fac 1", "SPECPRG": "Mental Health Sheltered Care Beds", "REGION": "Eastern"}},
{"geometry": {"type": "Point", "coordinates": [-76.1835971, 36.6103219]}, "type": "Feature", "properties": {"TITLE": "Warden", "FAC_SIZE": 180, "CONTACT": "John Garman", "DATEOPEN": "1973", "Latitude": 0, "Type": "State - VDOC", "Website": " ", "Fax": "757-421-4750", "ZIP": "23328-6482", "GENDER": "Male", "SPECPOP": "Youthful Offenders", "Phone": "757-421-7141", "AVEDAILYPO": "531", "OBJECTID": 38, "Longitude": 0, "STATE": "VA", "CITY": "Chesapeake", "UPDATED": "March 2007", "Facility": "St. Brides Correctional Center", "ADDRESS1": "701 Sanderson Road", "ADDRESS2": "PO Box 16482", "FACLEVEL": "2", "COMMENTS": " ", "SPECPRG": "N/A", "REGION": "Eastern"}},
{"geometry": {"type": "Point", "coordinates": [-76.1781243, 36.6144045]}, "type": "Feature", "properties": {"TITLE": "Warden", "FAC_SIZE": 0, "CONTACT": "Patricia Terrangi", "DATEOPEN": "1994", "Latitude": 0, "Type": "State - VDOC", "Website": " ", "Fax": "757-421-0938", "ZIP": "23328-6481", "GENDER": " ", "SPECPOP": "Classification", "Phone": "757-421-0095", "AVEDAILYPO": "929", "OBJECTID": 39, "Longitude": 0, "STATE": "VA", "CITY": "Chesapeake", "UPDATED": "March 2007", "Facility": "Indian Creek Correctional Center", "ADDRESS1": "801 Sanderson Road", "ADDRESS2": "PO Box 16481", "FACLEVEL": "2", "COMMENTS": "Multi-disciplinary, thereapeutic community for treatment of substance abuse, largest substanc abuse community in VA & one of the largest in the nation", "SPECPRG": "Substance Abuse Therapeutic Community", "REGION": "Eastern"}},
{"geometry": {"type": "Point", "coordinates": [-77.2468234, 36.7291952]}, "type": "Feature", "properties": {"TITLE": "Warden", "FAC_SIZE": 0, "CONTACT": "Keith Davis", "DATEOPEN": "1994", "Latitude": 0, "Type": "State - VDOC", "Website": " ", "Fax": "434-658-9303", "ZIP": "23829", "GENDER": "Male", "SPECPOP": "Geriatic and Assisted Living Inmates", "Phone": "434-658-4368", "AVEDAILYPO": "467", "OBJECTID": 40, "Longitude": 0, "STATE": "VA", "CITY": "Capron", "UPDATED": "March 2007", "Facility": "Deerfield Correctional Center", "ADDRESS1": "21360 Deerfield Drive", "ADDRESS2": " ", "FACLEVEL": "2", "COMMENTS": "Rebuilt in 1994", "SPECPRG": "Substance abuse, sex offender, life skills", "REGION": "Eastern"}},
{"geometry": {"type": "Point", "coordinates": [-77.1988095, 37.0463261]}, "type": "Feature", "properties": {"TITLE": "Chief Warden", "FAC_SIZE": 0, "CONTACT": "Loretta Kelly", "DATEOPEN": "1998", "Latitude": 0, "Type": "State - VDOC", "Website": " ", "Fax": "804-834-4084", "ZIP": "23891", "GENDER": " ", "SPECPOP": "Death Row", "Phone": "804-834-9967", "AVEDAILYPO": "1143", "OBJECTID": 41, "Longitude": 0, "STATE": "VA", "CITY": "Waverly", "UPDATED": "March 2007", "Facility": "Sussex I State Prison", "ADDRESS1": "24414 Musselwhite Drive", "ADDRESS2": " ", "FACLEVEL": "5", "COMMENTS": "Maximum security, home of Commonwealth of Virginia's Death Row Population", "SPECPRG": "None", "REGION": "Eastern"}},
{"geometry": {"type": "Point", "coordinates": [-77.205479, 37.0521377]}, "type": "Feature", "properties": {"TITLE": "Warden", "FAC_SIZE": 0, "CONTACT": "David Everette", "DATEOPEN": "1999", "Latitude": 0, "Type": "State - VDOC", "Website": " ", "Fax": "804-834-4473", "ZIP": "23891", "GENDER": " ", "SPECPOP": "Level 5 - Washington D.C - Department of Corrections", "Phone": "804-834-2678", "AVEDAILYPO": "1267", "OBJECTID": 42, "Longitude": 0, "STATE": "VA", "CITY": "Waverly", "UPDATED": "March 2007", "Facility": "Sussex II State Prison", "ADDRESS1": "24427 Musselwhite Drive", "ADDRESS2": " ", "FACLEVEL": "5", "COMMENTS": "Maximum custody, currently holds Washington D.C's DOC prinsoners", "SPECPRG": "None", "REGION": "Eastern"}},
{"geometry": {"type": "Point", "coordinates": [-77.8355743, 37.6262519]}, "type": "Feature", "properties": {"TITLE": "Asst. Warden", "FAC_SIZE": 0, "CONTACT": "Layton Lester", "DATEOPEN": "1978", "Latitude": 0, "Type": "State - VDOC", "Website": " ", "Fax": "804-598-1254", "ZIP": "23160", "GENDER": "Male", "SPECPOP": "Classification", "Phone": "804-598-4251", "AVEDAILYPO": "413", "OBJECTID": 43, "Longitude": 0, "STATE": "VA", "CITY": "State Farm", "UPDATED": "March 2007", "Facility": "Powhatan Reception and Class Center", "ADDRESS1": " ", "ADDRESS2": " ", "FACLEVEL": "3", "COMMENTS": "High Security under Level 1", "SPECPRG": "N/A", "REGION": "Central"}},
{"geometry": {"type": "Point", "coordinates": [-76.6705843, 37.9575158]}, "type": "Feature", "properties": {"TITLE": "Warden", "FAC_SIZE": 125, "CONTACT": "Dan Mahon", "DATEOPEN": "1993", "Latitude": 0, "Type": "State - VDOC", "Website": " ", "Fax": "804-333-0192", "ZIP": "22472", "GENDER": "Male", "SPECPOP": "N/A", "Phone": "804-333-3577", "AVEDAILYPO": "1074", "OBJECTID": 44, "Longitude": 0, "STATE": "VA", "CITY": "Haynesville", "UPDATED": "March 2007", "Facility": "Haynesville Correctional Center", "ADDRESS1": "650 Barn Field Road", "ADDRESS2": "PO Box 129", "FACLEVEL": "2", "COMMENTS": " ", "SPECPRG": "N/A", "REGION": "Northern"}},
{"geometry": {"type": "Point", "coordinates": [-79.1500887, 37.9921608]}, "type": "Feature", "properties": {"TITLE": "Superintendent", "FAC_SIZE": 0, "CONTACT": "Edward Meeks", "DATEOPEN": "1995", "Latitude": 0, "Type": "State - VDOC", "Website": " ", "Fax": "540-337-3426", "ZIP": "24440", "GENDER": "Male", "SPECPOP": "N/A", "Phone": "540-337-2913", "AVEDAILYPO": "150", "OBJECTID": 45, "Longitude": 0, "STATE": "VA", "CITY": "Greenville", "UPDATED": "March 2007", "Facility": "Cold Springs Work Center #42", "ADDRESS1": "192 Spitler Circle", "ADDRESS2": " ", "FACLEVEL": "1", "COMMENTS": "Low Security", "SPECPRG": "N/A", "REGION": "Northern"}},
{"geometry": {"type": "Point", "coordinates": [-77.2483206, 36.7238653]}, "type": "Feature", "properties": {"TITLE": "Asst. Warden", "FAC_SIZE": 0, "CONTACT": "Willette Copeland", "DATEOPEN": "1977", "Latitude": 0, "Type": "State - VDOC", "Website": " ", "Fax": "434-658-3501", "ZIP": "23829", "GENDER": "Male", "SPECPOP": "Classification", "Phone": "434-658-4174", "AVEDAILYPO": "185", "OBJECTID": 46, "Longitude": 0, "STATE": "VA", "CITY": "Capron", "UPDATED": "March 2007", "Facility": "Southampton Work Center", "ADDRESS1": "15172 Old Belfield Road", "ADDRESS2": " ", "FACLEVEL": "3", "COMMENTS": " ", "SPECPRG": "N/A", "REGION": "Eastern"}},
{"geometry": {"type": "Point", "coordinates": [-81.9792917, 37.2233485]}, "type": "Feature", "properties": {"TITLE": "Warden", "FAC_SIZE": 159, "CONTACT": "Kathy Bassett", "DATEOPEN": "1990", "Latitude": 0, "Type": "State - VDOC", "Website": " ", "Fax": "276-498-4369", "ZIP": "24631", "GENDER": "Male", "SPECPOP": "Protective Custody Unit", "Phone": "276-498-7411", "AVEDAILYPO": "853", "OBJECTID": 47, "Longitude": 0, "STATE": "VA", "CITY": "Oakwood", "UPDATED": "March 2007", "Facility": "Keen Mountain Correctional Center", "ADDRESS1": "State Route 629", "ADDRESS2": "PO Box 860", "FACLEVEL": "4", "COMMENTS": "Close custody facility", "SPECPRG": "N/A", "REGION": "Western"}},
{"geometry": {"type": "Point", "coordinates": [-77.8272503, 36.7753161]}, "type": "Feature", "properties": {"TITLE": "Warden", "FAC_SIZE": 0, "CONTACT": "Ed Wright", "DATEOPEN": "1990", "Latitude": 0, "Type": "State - VDOC", "Website": " ", "Fax": "804-848-4647", "ZIP": "23868", "GENDER": "Female", "SPECPOP": "Work Center for Women", "Phone": "804-848-4131", "AVEDAILYPO": " ", "OBJECTID": 48, "Longitude": 0, "STATE": "VA", "CITY": "Lawrenceville", "UPDATED": "March 2007", "Facility": "Brunswick Work Center for Women", "ADDRESS1": "1147 Planters Road", "ADDRESS2": "PO Box 207C", "FACLEVEL": "1", "COMMENTS": " ", "SPECPRG": "N/A", "REGION": "Central"}},
{"geometry": {"type": "Point", "coordinates": [-78.1722959, 37.1848029]}, "type": "Feature", "properties": {"TITLE": "Assistant Warden", "FAC_SIZE": 0, "CONTACT": "Carl Manis", "DATEOPEN": "1995", "Latitude": 0, "Type": "State - VDOC", "Website": " ", "Fax": "434-767-4291", "ZIP": "23922", "GENDER": "Male", "SPECPOP": "N/A", "Phone": "434-767-5543", "AVEDAILYPO": " ", "OBJECTID": 49, "Longitude": 0, "STATE": "VA", "CITY": "Burkeville", "UPDATED": "March 2007", "Facility": "Nottoway Work Center", "ADDRESS1": " ", "ADDRESS2": "PO Box 397", "FACLEVEL": "1", "COMMENTS": " ", "SPECPRG": "N/A", "REGION": "Central"}},
{"geometry": {"type": "Point", "coordinates": [-77.8286764, 37.6443667]}, "type": "Feature", "properties": {"TITLE": "Warden", "FAC_SIZE": 0, "CONTACT": "Samuel V. Pruett", "DATEOPEN": "1995", "Latitude": 0, "Type": "State - VDOC", "Website": " ", "Fax": "804-556-6328", "ZIP": "23160", "GENDER": "Male", "SPECPOP": "N/A", "Phone": "804-748-3551", "AVEDAILYPO": " ", "OBJECTID": 50, "Longitude": 0, "STATE": "VA", "CITY": "State Farm", "UPDATED": "March 2007", "Facility": "James River Work Center", "ADDRESS1": " ", "ADDRESS2": " ", "FACLEVEL": "2", "COMMENTS": " ", "SPECPRG": "N/A", "REGION": "Central"}},
{"geometry": {"type": "Point", "coordinates": [-79.4216058, 36.7999836]}, "type": "Feature", "properties": {"TITLE": "Warden", "FAC_SIZE": 1024, "CONTACT": "Jeff Dillman", "DATEOPEN": "2007", "Latitude": 0, "Type": "State - VDOC", "Website": " ", "Fax": "434-432-7210", "ZIP": "24531", "GENDER": " ", "SPECPOP": " ", "Phone": "434-432-7207", "AVEDAILYPO": " ", "OBJECTID": 51, "Longitude": 0, "STATE": "VA", "CITY": "Chatham", "UPDATED": "March 2007", "Facility": "Green Rock Correctional Center", "ADDRESS1": "Beverly Heights Road", "ADDRESS2": "PO Box 1000", "FACLEVEL": " ", "COMMENTS": " ", "SPECPRG": " ", "REGION": "Western"}},
{"geometry": {"type": "Point", "coordinates": [-81.3635536, 37.2972881]}, "type": "Feature", "properties": {"TITLE": "Warden", "FAC_SIZE": 0, "CONTACT": "Stan Young", "DATEOPEN": "2007", "Latitude": 0, "Type": "State - VDOC", "Website": " ", "Fax": "276-945-9472", "ZIP": "24635", "GENDER": " ", "SPECPOP": " ", "Phone": "276-945-9173", "AVEDAILYPO": " ", "OBJECTID": 52, "Longitude": 0, "STATE": "VA", "CITY": "Pocahontas", "UPDATED": "March 2007", "Facility": "Pocahantas State Correctional Center", "ADDRESS1": "920 Old River Road", "ADDRESS2": "PO Box 518", "FACLEVEL": " ", "COMMENTS": " ", "SPECPRG": " ", "REGION": "Western"}},
{"geometry": {"type": "Point", "coordinates": [-77.5725864, 37.5171734]}, "type": "Feature", "properties": {"TITLE": "Superintendent", "FAC_SIZE": 0, "CONTACT": "Kathryn B. Dickerson", "DATEOPEN": " ", "Latitude": 0, "Type": "State - VDJJ", "Website": " ", "Fax": "804-323-2310", "ZIP": "23235", "GENDER": "Male", "SPECPOP": "N/A", "Phone": "804-323-2335", "AVEDAILYPO": "40", "OBJECTID": 53, "Longitude": 0, "STATE": "VA", "CITY": "Bon Air", "UPDATED": "March 2007", "Facility": "Oak Ridge Juvenile Correctional Center", "ADDRESS1": "1801 Bon Air Road", "ADDRESS2": " ", "FACLEVEL": " ", "COMMENTS": "Offenders with developmental disabilities & severe behavior disorders.  Population is borderline to moderately retarded range.  Specialized prgs: Behavioral \"token ecomony\" prg, Sex Offender & Substance Abuse.", "SPECPRG": "N/A", "REGION": "Central"}},
{"geometry": {"type": "Point", "coordinates": [-77.5698208, 37.5170557]}, "type": "Feature", "properties": {"TITLE": "Superintendent", "FAC_SIZE": 0, "CONTACT": "Linda McWilliams", "DATEOPEN": " ", "Latitude": 0, "Type": "State - VDJJ", "Website": " ", "Fax": " ", "ZIP": "23235", "GENDER": "Co-ed", "SPECPOP": "N/A", "Phone": "804-323-2550", "AVEDAILYPO": "280", "OBJECTID": 54, "Longitude": 0, "STATE": "VA", "CITY": "Bon Air", "UPDATED": "March 2007", "Facility": "Bon Air Juvenile Correctional Center", "ADDRESS1": "1900 Chatsworth Avenue", "ADDRESS2": " ", "FACLEVEL": " ", "COMMENTS": "Male offenders are 15 - 16 years and the females are of all ages.  Specialized prgs: Substance Abuse and Anger Management.", "SPECPRG": "N/A", "REGION": "Central"}},
{"geometry": {"type": "Point", "coordinates": [-77.5734687, 37.5175467]}, "type": "Feature", "properties": {"TITLE": "Superintendent", "FAC_SIZE": 0, "CONTACT": "William Schoof", "DATEOPEN": " ", "Latitude": 0, "Type": "State - VDJJ", "Website": " ", "Fax": " ", "ZIP": "23235", "GENDER": "Male", "SPECPOP": "N/A", "Phone": "804-323-2600", "AVEDAILYPO": "166", "OBJECTID": 55, "Longitude": 0, "STATE": "VA", "CITY": "Bon Air", "UPDATED": "March 2007", "Facility": "Oak Ridge Reception and Diagnostic Center", "ADDRESS1": "1601 Bon Air Road", "ADDRESS2": " ", "FACLEVEL": " ", "COMMENTS": "Intake pt for all juveniles, confinement for 30 days while undergoing various evaluations (medical, academic, psychological, and social).", "SPECPRG": "N/A", "REGION": "Central"}},
{"geometry": {"type": "Point", "coordinates": [-77.9118897, 37.665658]}, "type": "Feature", "properties": {"TITLE": "Superintendent", "FAC_SIZE": 0, "CONTACT": "Michael S. Ito", "DATEOPEN": " ", "Latitude": 0, "Type": "State - VDJJ", "Website": " ", "Fax": "804-556-7220", "ZIP": "23014", "GENDER": "Male", "SPECPOP": "N/A", "Phone": "804-556-3316", "AVEDAILYPO": "322", "OBJECTID": 56, "Longitude": 0, "STATE": "VA", "CITY": "Beaumont", "UPDATED": "March 2007", "Facility": "Beaumont Juvenile Correctional Center", "ADDRESS1": "3500 Beaumont Road", "ADDRESS2": "PO Box 491", "FACLEVEL": " ", "COMMENTS": "Juveniles are from 16 - 21 years old, close custody facility with medium security.  Prgs include Sex Offender Treatment, Substance Abuse, & Anger Management.  College bound  & SAT prgs offered.", "SPECPRG": "N/A", "REGION": "Central"}},
{"geometry": {"type": "Point", "coordinates": [-78.0258454, 38.3617099]}, "type": "Feature", "properties": {"TITLE": "Superintendent", "FAC_SIZE": 0, "CONTACT": "Crystal M. Wynn", "DATEOPEN": " ", "Latitude": 0, "Type": "State - VDJJ", "Website": " ", "Fax": " ", "ZIP": "22729", "GENDER": "Co-ed", "SPECPOP": "N/A", "Phone": "804-727-3333", "AVEDAILYPO": "112", "OBJECTID": 57, "Longitude": 0, "STATE": "VA", "CITY": "Mitchells", "UPDATED": "March 2007", "Facility": "Culpeper Juvenile Correctional Center", "ADDRESS1": "12240 Coffeewood Drive", "ADDRESS2": "PO Box 1000", "FACLEVEL": " ", "COMMENTS": "Older and most aggressive offenders are housed here, College Bound and SAT testing prgs are offered.", "SPECPRG": "N/A", "REGION": "Northern"}},
{"geometry": {"type": "Point", "coordinates": [-79.5094034, 37.5852213]}, "type": "Feature", "properties": {"TITLE": "Superintendent", "FAC_SIZE": 0, "CONTACT": "John C. Loving, Jr.", "DATEOPEN": " ", "Latitude": 0, "Type": "State - VDJJ", "Website": " ", "Fax": "540-291-2461", "ZIP": "24579-3051", "GENDER": "Male", "SPECPOP": "N/A", "Phone": "540-291-2129", "AVEDAILYPO": "71", "OBJECTID": 58, "Longitude": 0, "STATE": "VA", "CITY": "Natural Bridge Station", "UPDATED": "March 2007", "Facility": "Natural Bridge Juvenile Correctional Center", "ADDRESS1": "1425 Arnolds Valley Road", "ADDRESS2": "HC 62, Box 103", "FACLEVEL": " ", "COMMENTS": "All ages with lower security risks, a limited number of major & serious offenders placed here as step-down or transition prior to release.  Specialized prgs: Substance Abuse, Anger Management, & Independent Living.", "SPECPRG": "N/A", "REGION": "Northern"}},
{"geometry": {"type": "Point", "coordinates": [-77.3398078, 37.7531435]}, "type": "Feature", "properties": {"TITLE": "Superintendent", "FAC_SIZE": 0, "CONTACT": "Sharon P Havens", "DATEOPEN": " ", "Latitude": 0, "Type": "State - VDJJ", "Website": " ", "Fax": "804-537-5907", "ZIP": "23069", "GENDER": "Male", "SPECPOP": "N/A", "Phone": "804-537-5316", "AVEDAILYPO": "154", "OBJECTID": 59, "Longitude": 0, "STATE": "VA", "CITY": "Hanover", "UPDATED": "March 2007", "Facility": "Hanover Juvenile Correctional Center", "ADDRESS1": "7093 Broad Neck Road", "ADDRESS2": " ", "FACLEVEL": " ", "COMMENTS": "All ages, moderate to serious offenses.  Specialized prgs: JROTC, Anger Management, Sex Offenders Treatment, and Substance Abuse Treatment.", "SPECPRG": "N/A", "REGION": "Northern"}},
{"geometry": {"type": "Point", "coordinates": [-77.3589686, 37.7111932]}, "type": "Feature", "properties": {"TITLE": "Superintendent", "FAC_SIZE": 0, "CONTACT": "Sharon Havens", "DATEOPEN": " ", "Latitude": 0, "Type": "State - VDJJ", "Website": " ", "Fax": " ", "ZIP": "23069", "GENDER": "Co-ed", "SPECPOP": "N/A", "Phone": "804-537-5316", "AVEDAILYPO": "98", "OBJECTID": 60, "Longitude": 0, "STATE": "VA", "CITY": "Hanover", "UPDATED": "March 2007", "Facility": "Barrett Juvenile Correctional Center", "ADDRESS1": "11391 Barrett Center Road", "ADDRESS2": "PO Box 507", "FACLEVEL": " ", "COMMENTS": "Intensive Substance Abuse Treatment Prg, first of its kind in nation to be accredited by the CARF.", "SPECPRG": "N/A", "REGION": "Central"}},
{"geometry": {"type": "Point", "coordinates": [-78.494514, 38.005984]}, "type": "Feature", "properties": {"TITLE": "Superintendent", "FAC_SIZE": 0, "CONTACT": "Ronald Matthews", "DATEOPEN": " ", "Latitude": 38.005984, "Type": "Regional", "Website": "http://www.acrj.org/", "Fax": "434-977-9617", "ZIP": "22902", "GENDER": " ", "SPECPOP": " ", "Phone": "434-977-6981", "AVEDAILYPO": " ", "OBJECTID": 61, "Longitude": -78.494514, "STATE": "VA", "CITY": "Charlottesville", "UPDATED": " ", "Facility": "Albemarle/Charlottesville Regional Jail", "ADDRESS1": "160 Peregory Lane", "ADDRESS2": " ", "FACLEVEL": " ", "COMMENTS": "Albemarle, Charlottesville, Nelson", "SPECPRG": " ", "REGION": " "}},
{"geometry": {"type": "Point", "coordinates": [-78.116703, 38.227445]}, "type": "Feature", "properties": {"TITLE": "Superintendent", "FAC_SIZE": 0, "CONTACT": "F. G. Aylor", "DATEOPEN": " ", "Latitude": 38.227445, "Type": "Regional", "Website": "http://www.cvrj.org/", "Fax": " ", "ZIP": "22960", "GENDER": " ", "SPECPOP": " ", "Phone": "540-672-3222", "AVEDAILYPO": " ", "OBJECTID": 62, "Longitude": -78.116703, "STATE": "VA", "CITY": "Orange", "UPDATED": " ", "Facility": "Central Virginia Regional Jail", "ADDRESS1": "13021 James Madison Hwy", "ADDRESS2": " ", "FACLEVEL": " ", "COMMENTS": "Fluvanna, Greene, Louisa, Madison, Orange", "SPECPRG": " ", "REGION": " "}},
{"geometry": {"type": "Point", "coordinates": [-80.678406, 37.085464]}, "type": "Feature", "properties": {"TITLE": "Superintendent", "FAC_SIZE": 0, "CONTACT": "Donnie M. Simpkins", "DATEOPEN": " ", "Latitude": 37.085464, "Type": "Regional", "Website": "http://www.nrvrj.org/", "Fax": " ", "ZIP": "24084", "GENDER": " ", "SPECPOP": " ", "Phone": "540-643-2000", "AVEDAILYPO": " ", "OBJECTID": 63, "Longitude": -80.678406, "STATE": "VA", "CITY": "Dublin", "UPDATED": " ", "Facility": "New River Valley Regional Jail", "ADDRESS1": "108 Baker Road", "ADDRESS2": " ", "FACLEVEL": " ", "COMMENTS": "Bland, Carroll, Giles, Grayson, Floyd, Pulaski, Radford, Wythe", "SPECPRG": " ", "REGION": " "}},
{"geometry": {"type": "Point", "coordinates": [-76.791312, 37.964663]}, "type": "Feature", "properties": {"TITLE": "Superintendent", "FAC_SIZE": 0, "CONTACT": "Jeffery W. Frazier", "DATEOPEN": " ", "Latitude": 37.964663, "Type": "Regional", "Website": "http://www.nnrj.state.va.us/", "Fax": " ", "ZIP": "22572", "GENDER": " ", "SPECPOP": " ", "Phone": "804-333-6419", "AVEDAILYPO": " ", "OBJECTID": 64, "Longitude": -76.791312, "STATE": "VA", "CITY": "Warsaw", "UPDATED": " ", "Facility": "Northern Neck Regional Jail", "ADDRESS1": "3908 Richmond Road", "ADDRESS2": " ", "FACLEVEL": " ", "COMMENTS": "Richmond, Westmoreland, Northumberland, Warsaw", "SPECPRG": " ", "REGION": " "}},
{"geometry": {"type": "Point", "coordinates": [-77.353711, 37.760219]}, "type": "Feature", "properties": {"TITLE": "Superintendent", "FAC_SIZE": 0, "CONTACT": "James C. Willett", "DATEOPEN": " ", "Latitude": 37.760219, "Type": "Regional", "Website": "http://www.co.hanover.va.us/regionaljail/default.htm", "Fax": " ", "ZIP": "23069", "GENDER": " ", "SPECPOP": " ", "Phone": "804-365-6400", "AVEDAILYPO": " ", "OBJECTID": 65, "Longitude": -77.353711, "STATE": "VA", "CITY": "Hanover", "UPDATED": " ", "Facility": "Pamunkey Regional Jail", "ADDRESS1": "7240 Courtland Farm Rd", "ADDRESS2": " ", "FACLEVEL": " ", "COMMENTS": "Hanover, Caroline, Ashland", "SPECPRG": " ", "REGION": " "}},
{"geometry": {"type": "Point", "coordinates": [-77.266808, 38.112798]}, "type": "Feature", "properties": {"TITLE": "Superintendent", "FAC_SIZE": 0, "CONTACT": "Sandra Thacker", "DATEOPEN": " ", "Latitude": 38.112798, "Type": "Regional", "Website": "http://www.pcrj.org/", "Fax": " ", "ZIP": "22427", "GENDER": " ", "SPECPOP": " ", "Phone": "804-633-0043", "AVEDAILYPO": " ", "OBJECTID": 66, "Longitude": -77.266808, "STATE": "VA", "CITY": "Bowling Green", "UPDATED": " ", "Facility": "Peumansend Creek Regional Jail", "ADDRESS1": "11093 S.W. Lewis Memorial Drive", "ADDRESS2": " ", "FACLEVEL": " ", "COMMENTS": "Alexandria, Richmond City, Arlington, Loudoun, Prince William, Caroline", "SPECPRG": " ", "REGION": " "}},
{"geometry": {"type": "Point", "coordinates": [-77.479241, 38.751695]}, "type": "Feature", "properties": {"TITLE": "Superintendent", "FAC_SIZE": 0, "CONTACT": "Charles Land", "DATEOPEN": " ", "Latitude": 38.751695, "Type": "Regional", "Website": "http://www.pwcgov.org/default.aspx?topic=040014", "Fax": " ", "ZIP": "20110", "GENDER": " ", "SPECPOP": " ", "Phone": "703-792-6420", "AVEDAILYPO": " ", "OBJECTID": 67, "Longitude": -77.479241, "STATE": "VA", "CITY": "Manassas", "UPDATED": " ", "Facility": "Prince William - Manassas Adult Detention Center", "ADDRESS1": "9320 Lee Avenue", "ADDRESS2": " ", "FACLEVEL": " ", "COMMENTS": " ", "SPECPRG": " ", "REGION": " "}},
{"geometry": {"type": "Point", "coordinates": [-77.42218, 38.406688]}, "type": "Feature", "properties": {"TITLE": "Superintendent", "FAC_SIZE": 0, "CONTACT": "Joseph A. Higgs, Jr.", "DATEOPEN": " ", "Latitude": 38.406688, "Type": "Regional", "Website": "http://www.rrj.state.va.us/", "Fax": " ", "ZIP": "22555", "GENDER": " ", "SPECPOP": " ", "Phone": "540-288-5245", "AVEDAILYPO": " ", "OBJECTID": 68, "Longitude": -77.42218, "STATE": "VA", "CITY": "Stafford", "UPDATED": " ", "Facility": "Rappahannock Regional Jail", "ADDRESS1": "1745 Jefferson Davis Hwy", "ADDRESS2": " ", "FACLEVEL": " ", "COMMENTS": " ", "SPECPRG": " ", "REGION": " "}},
{"geometry": {"type": "Point", "coordinates": [-77.341703, 37.30798]}, "type": "Feature", "properties": {"TITLE": "Superintendent", "FAC_SIZE": 0, "CONTACT": "Darnley R. Hodge", "DATEOPEN": " ", "Latitude": 37.30798, "Type": "Regional", "Website": "http://www.riversideregionaljailva.net/", "Fax": " ", "ZIP": "23860", "GENDER": " ", "SPECPOP": " ", "Phone": "804-524-6600", "AVEDAILYPO": " ", "OBJECTID": 69, "Longitude": -77.341703, "STATE": "VA", "CITY": "Hopewell", "UPDATED": " ", "Facility": "Riverside Regional Jail", "ADDRESS1": "1000 River Road", "ADDRESS2": " ", "FACLEVEL": " ", "COMMENTS": "Colonial Heights, Hopewell, Petersburg, Charles City, Chesterfield, Prince George, Surry", "SPECPRG": " ", "REGION": " "}},
{"geometry": {"type": "Point", "coordinates": [-79.425047, 37.804617]}, "type": "Feature", "properties": {"TITLE": "Superintendent", "FAC_SIZE": 0, "CONTACT": "John M. Higgins", "DATEOPEN": " ", "Latitude": 37.804617, "Type": "Regional", "Website": "http://www.ci.lexington.va.us/jail.htm", "Fax": " ", "ZIP": "24450", "GENDER": " ", "SPECPOP": " ", "Phone": "540-464-1188", "AVEDAILYPO": " ", "OBJECTID": 70, "Longitude": -79.425047, "STATE": "VA", "CITY": "Lexington", "UPDATED": " ", "Facility": "Rockbridge Regional Jail", "ADDRESS1": "258 Greenhouse Road", "ADDRESS2": " ", "FACLEVEL": " ", "COMMENTS": "Rockbridge, Lexington, Buena Vista, Glasgow, Goshen", "SPECPRG": " ", "REGION": " "}},
{"geometry": {"type": "Point", "coordinates": [-77.51584, 36.739564]}, "type": "Feature", "properties": {"TITLE": "Superintendent", "FAC_SIZE": 0, "CONTACT": "Lance Forsythe", "DATEOPEN": " ", "Latitude": 36.739564, "Type": "Regional", "Website": "http://www.greensvillecountyva.gov/Court%20Systems/southside_regional_jail.htm", "Fax": " ", "ZIP": "23847", "GENDER": " ", "SPECPOP": " ", "Phone": "434-634-2254", "AVEDAILYPO": " ", "OBJECTID": 71, "Longitude": -77.51584, "STATE": "VA", "CITY": "Emporia", "UPDATED": " ", "Facility": "Southside Regional Jail", "ADDRESS1": "244 Uriah Branch Way", "ADDRESS2": " ", "FACLEVEL": " ", "COMMENTS": " ", "SPECPRG": " ", "REGION": " "}},
{"geometry": {"type": "Point", "coordinates": [-79.145215, 37.412866]}, "type": "Feature", "properties": {"TITLE": "Superintendent", "FAC_SIZE": 0, "CONTACT": "Christopher R. Webb", "DATEOPEN": " ", "Latitude": 37.412866, "Type": "Regional", "Website": " ", "Fax": " ", "ZIP": "24504", "GENDER": " ", "SPECPOP": " ", "Phone": "434-847-3100", "AVEDAILYPO": " ", "OBJECTID": 72, "Longitude": -79.145215, "STATE": "VA", "CITY": "Lynchburg", "UPDATED": " ", "Facility": "Blue Ridge Regional Jail Authority", "ADDRESS1": "510 Ninth Street", "ADDRESS2": " ", "FACLEVEL": " ", "COMMENTS": " ", "SPECPRG": " ", "REGION": " "}},
{"geometry": {"type": "Point", "coordinates": [-76.36452, 36.808455]}, "type": "Feature", "properties": {"TITLE": "Superintendent", "FAC_SIZE": 0, "CONTACT": "Roy W. Cherry", "DATEOPEN": " ", "Latitude": 36.808455, "Type": "Regional", "Website": " ", "Fax": " ", "ZIP": "23701", "GENDER": " ", "SPECPOP": " ", "Phone": "757-488-7500", "AVEDAILYPO": " ", "OBJECTID": 73, "Longitude": -76.36452, "STATE": "VA", "CITY": "Portsmouth", "UPDATED": " ", "Facility": "Hampton Roads Regional Jail", "ADDRESS1": "2690 Elmhurst Lane", "ADDRESS2": " ", "FACLEVEL": " ", "COMMENTS": "Hampton, Newport News, Norfolk, Portsmouth", "SPECPRG": " ", "REGION": " "}},
{"geometry": {"type": "Point", "coordinates": [-76.592979, 37.608212]}, "type": "Feature", "properties": {"TITLE": "Superintendent", "FAC_SIZE": 0, "CONTACT": "David L. Harmon", "DATEOPEN": " ", "Latitude": 37.608212, "Type": "Regional", "Website": " ", "Fax": " ", "ZIP": "23149", "GENDER": " ", "SPECPOP": " ", "Phone": "804-758-2338", "AVEDAILYPO": " ", "OBJECTID": 74, "Longitude": -76.592979, "STATE": "VA", "CITY": "Saluda", "UPDATED": " ", "Facility": "Middle Peninsula Regional Jail", "ADDRESS1": "170 Oak Landing Road", "ADDRESS2": " ", "FACLEVEL": " ", "COMMENTS": " ", "SPECPRG": " ", "REGION": " "}},
{"geometry": {"type": "Point", "coordinates": [-79.010019, 38.19178]}, "type": "Feature", "properties": {"TITLE": "Superintendent", "FAC_SIZE": 0, "CONTACT": "Jack Lee", "DATEOPEN": " ", "Latitude": 38.19178, "Type": "Regional", "Website": " ", "Fax": " ", "ZIP": "24402", "GENDER": " ", "SPECPOP": " ", "Phone": "540-245-5420", "AVEDAILYPO": " ", "OBJECTID": 75, "Longitude": -79.010019, "STATE": "VA", "CITY": "Staunton", "UPDATED": " ", "Facility": "Middle River Regional Jail", "ADDRESS1": "350 Technology Dr", "ADDRESS2": "PO Box 2744", "FACLEVEL": " ", "COMMENTS": " ", "SPECPRG": " ", "REGION": " "}},
{"geometry": {"type": "Point", "coordinates": [-78.144579, 39.198647]}, "type": "Feature", "properties": {"TITLE": "Superintendent", "FAC_SIZE": 0, "CONTACT": "Fred D. Hildebrand", "DATEOPEN": " ", "Latitude": 39.198647, "Type": "Regional", "Website": "http://www.co.frederick.va.us/Regional_Jail/Reg_jail.htm", "Fax": " ", "ZIP": "22603", "GENDER": " ", "SPECPOP": " ", "Phone": "540-665-6374", "AVEDAILYPO": " ", "OBJECTID": 76, "Longitude": -78.144579, "STATE": "VA", "CITY": "Winchester", "UPDATED": " ", "Facility": "Northwestern Regional Adult Detention Center", "ADDRESS1": "141 Fort Collier Road", "ADDRESS2": " ", "FACLEVEL": " ", "COMMENTS": " ", "SPECPRG": " ", "REGION": " "}},
{"geometry": {"type": "Point", "coordinates": [-78.428594, 37.324227]}, "type": "Feature", "properties": {"TITLE": "Superintendent", "FAC_SIZE": 0, "CONTACT": "Lewis W. Barlow", "DATEOPEN": " ", "Latitude": 37.324227, "Type": "Regional", "Website": " ", "Fax": " ", "ZIP": "23901", "GENDER": " ", "SPECPOP": " ", "Phone": "434-392-1601", "AVEDAILYPO": " ", "OBJECTID": 77, "Longitude": -78.428594, "STATE": "VA", "CITY": "Farmville", "UPDATED": " ", "Facility": "Piedmont Regional Jail", "ADDRESS1": "801 Industrial Park Rd", "ADDRESS2": " ", "FACLEVEL": " ", "COMMENTS": "Amelia, Buckingham, Cumberland, Lunenburg, Nottoway, Prince Edward", "SPECPRG": " ", "REGION": " "}},
{"geometry": {"type": "Point", "coordinates": [-81.911835, 36.7325]}, "type": "Feature", "properties": {"TITLE": "Superintendent", "FAC_SIZE": 0, "CONTACT": "Lee Noble", "DATEOPEN": " ", "Latitude": 36.7325, "Type": "Regional", "Website": "http://www.swvrja.com/", "Fax": " ", "ZIP": "24361", "GENDER": " ", "SPECPOP": " ", "Phone": "276-739-3520", "AVEDAILYPO": " ", "OBJECTID": 78, "Longitude": -81.911835, "STATE": "VA", "CITY": "Abingdon", "UPDATED": " ", "Facility": "Southwest Virginia Regional Jail", "ADDRESS1": "15205 Joe Derting Dr", "ADDRESS2": " ", "FACLEVEL": " ", "COMMENTS": " ", "SPECPRG": " ", "REGION": " "}},
{"geometry": {"type": "Point", "coordinates": [-76.603606, 37.216566]}, "type": "Feature", "properties": {"TITLE": "Superintendent", "FAC_SIZE": 0, "CONTACT": "John R. Kuplinski", "DATEOPEN": " ", "Latitude": 37.216566, "Type": "Regional", "Website": " ", "Fax": " ", "ZIP": "23185", "GENDER": " ", "SPECPOP": " ", "Phone": "757-820-3900", "AVEDAILYPO": " ", "OBJECTID": 79, "Longitude": -76.603606, "STATE": "VA", "CITY": "Williamsburg", "UPDATED": " ", "Facility": "Virginia Peninsula Regional Jail", "ADDRESS1": "9320 Merrimac Trail", "ADDRESS2": " ", "FACLEVEL": " ", "COMMENTS": "York, James City, Williamsburg, Poquoson", "SPECPRG": " ", "REGION": " "}},
{"geometry": {"type": "Point", "coordinates": [-76.582693, 36.764701]}, "type": "Feature", "properties": {"TITLE": "Superintendent", "FAC_SIZE": 0, "CONTACT": "Jeffery L. Newton", "DATEOPEN": " ", "Latitude": 36.764701, "Type": "Regional", "Website": "http://www.wtrj.org/", "Fax": "757-539-6409", "ZIP": "23434", "GENDER": " ", "SPECPOP": " ", "Phone": "757-539-3119", "AVEDAILYPO": " ", "OBJECTID": 80, "Longitude": -76.582693, "STATE": "VA", "CITY": "Suffolk", "UPDATED": " ", "Facility": "Western Tidewater Regional Jail", "ADDRESS1": "2402 Godwin Boulevard", "ADDRESS2": " ", "FACLEVEL": " ", "COMMENTS": "Suffolk, Franklin, Isle of Wight", "SPECPRG": " ", "REGION": " "}},
{"geometry": {"type": "Point", "coordinates": [-82.9948319, 36.7058771]}, "type": "Feature", "properties": {"TITLE": " ", "FAC_SIZE": 0, "CONTACT": " ", "DATEOPEN": " ", "Latitude": 0, "Type": "Federal", "Website": "http://www.bop.gov/locations/institutions/lee/index.jsp", "Fax": "276-546-9115", "ZIP": "24263", "GENDER": "Male", "SPECPOP": " ", "Phone": "276-546-0150", "AVEDAILYPO": "133", "OBJECTID": 81, "Longitude": 0, "STATE": "VA", "CITY": "Jonesville", "UPDATED": " ", "Facility": "US Penitentiary Lee - Satellite Camp", "ADDRESS1": "Lee County Industrial Park Hickory Flats Road", "ADDRESS2": "PO Box 644", "FACLEVEL": "Minimum Security", "COMMENTS": "High", "SPECPRG": " ", "REGION": "USBOP Mid-Atlantic"}},
{"geometry": {"type": "Point", "coordinates": [-77.3460349, 37.300541]}, "type": "Feature", "properties": {"TITLE": " ", "FAC_SIZE": 0, "CONTACT": " ", "DATEOPEN": " ", "Latitude": 0, "Type": "Federal", "Website": "http://www.bop.gov/locations/institutions/pet/index.jsp", "Fax": "804-863-1510", "ZIP": "23860", "GENDER": "Male", "SPECPOP": " ", "Phone": "804-733-7881", "AVEDAILYPO": "347", "OBJECTID": 82, "Longitude": 0, "STATE": "VA", "CITY": "Hopewell", "UPDATED": " ", "Facility": "Petersburg Federal Correctional Institute - Low - Satellite Camp", "ADDRESS1": "1100 River Road", "ADDRESS2": "PO Box 90026", "FACLEVEL": "Low", "COMMENTS": "Low", "SPECPRG": " ", "REGION": "USBOP Mid-Atlantic"}},
{"geometry": {"type": "Point", "coordinates": [-76.2504882, 36.7184957]}, "type": "Feature", "properties": {"TITLE": null, "FAC_SIZE": 669, "CONTACT": null, "DATEOPEN": null, "Latitude": null, "Type": "Local", "Website": null, "Fax": null, "ZIP": null, "GENDER": null, "SPECPOP": null, "Phone": "757-382-6231", "AVEDAILYPO": null, "OBJECTID": 83, "Longitude": null, "STATE": "VA", "CITY": "Chesapeake", "UPDATED": "August 2008", "Facility": "Chesapeake City Jail", "ADDRESS1": "400 Albemarle Drive", "ADDRESS2": null, "FACLEVEL": null, "COMMENTS": null, "SPECPRG": null, "REGION": null}},
{"geometry": {"type": "Point", "coordinates": [-76.2528462, 36.7184688]}, "type": "Feature", "properties": {"TITLE": null, "FAC_SIZE": 150, "CONTACT": null, "DATEOPEN": null, "Latitude": null, "Type": null, "Website": null, "Fax": null, "ZIP": null, "GENDER": null, "SPECPOP": null, "Phone": "757-382-6364", "AVEDAILYPO": null, "OBJECTID": 84, "Longitude": null, "STATE": "VA", "CITY": "Chesapeake", "UPDATED": "August 2008", "Facility": "Tidewater Detention Home", "ADDRESS1": "420 Albemarle Drive", "ADDRESS2": null, "FACLEVEL": null, "COMMENTS": null, "SPECPRG": null, "REGION": null}}
]}