{"type":"FeatureCollection","features":[
{"geometry": {"type": "Point", "coordinates": [-117.93367, 34.34613]}, "type": "Feature", "properties": {"NAME": "Mt. Waterman", "OBJECTID": 1, "LONG": -117.93367, "STATE": "CALIFORNIA", "LAT": 34.34613, "TYPE": "Cross-Country"}},
{"geometry": {"type": "Point", "coordinates": [-105.45278, 36.59449]}, "type": "Feature", "properties": {"NAME": "Als Run", "OBJECTID": 2, "LONG": -105.45278, "STATE": "NEW MEXICO", "LAT": 36.59449, "TYPE": "Cross-Country"}},
{"geometry": {"type": "Point", "coordinates": [-105.45278, 36.59449]}, "type": "Feature", "properties": {"NAME": "High Noon", "OBJECTID": 3, "LONG": -105.45278, "STATE": "NEW MEXICO", "LAT": 36.59449, "TYPE": "Cross-Country"}},
{"geometry": {"type": "Point", "coordinates": [-105.45278, 36.59449]}, "type": "Feature", "properties": {"NAME": "Psycho Path", "OBJECTID": 4, "LONG": -105.45278, "STATE": "NEW MEXICO", "LAT": 36.59449, "TYPE": "Cross-Country"}},
{"geometry": {"type": "Point", "coordinates": [-105.45278, 36.59449]}, "type": "Feature", "properties": {"NAME": "Snakedance", "OBJECTID": 5, "LONG": -105.45278, "STATE": "NEW MEXICO", "LAT": 36.59449, "TYPE": "Cross-Country"}},
{"geometry": {"type": "Point", "coordinates": [-105.45278, 36.59449]}, "type": "Feature", "properties": {"NAME": "Totemoff", "OBJECTID": 6, "LONG": -105.45278, "STATE": "NEW MEXICO", "LAT": 36.59449, "TYPE": "Cross-Country"}},
{"geometry": {"type": "Point", "coordinates": [-105.45278, 36.59449]}, "type": "Feature", "properties": {"NAME": "Whitefeather", "OBJECTID": 7, "LONG": -105.45278, "STATE": "NEW MEXICO", "LAT": 36.59449, "TYPE": "Cross-Country"}},
{"geometry": {"type": "Point", "coordinates": [-87.90361, 45.78694]}, "type": "Feature", "properties": {"NAME": "Norway Mt.", "OBJECTID": 8, "LONG": -87.90361, "STATE": "MICHIGAN", "LAT": 45.78694, "TYPE": "Cross-Country"}},
{"geometry": {"type": "Point", "coordinates": [-113.99639, 47.02361]}, "type": "Feature", "properties": {"NAME": "Montana Snow Bowl", "OBJECTID": 9, "LONG": -113.99639, "STATE": "MONTANA", "LAT": 47.02361, "TYPE": "Cross-Country"}},
{"geometry": {"type": "Point", "coordinates": [-114.35278, 48.485]}, "type": "Feature", "properties": {"NAME": "Big Mt.", "OBJECTID": 10, "LONG": -114.35278, "STATE": "MONTANA", "LAT": 48.485, "TYPE": "Cross-Country"}},
{"geometry": {"type": "Point", "coordinates": [-85.60333, 34.54]}, "type": "Feature", "properties": {"NAME": "Cloudmont-Mentone Ski Area", "OBJECTID": 11, "LONG": -85.60333, "STATE": "ALABAMA", "LAT": 34.54, "TYPE": "Both"}},
{"geometry": {"type": "Point", "coordinates": [-111.96611, 35.36667]}, "type": "Feature", "properties": {"NAME": "Cococino XC Ski Trail", "OBJECTID": 12, "LONG": -111.96611, "STATE": "ARIZONA", "LAT": 35.36667, "TYPE": "Alpine"}},
{"geometry": {"type": "Point", "coordinates": [-111.69517, 35.32782]}, "type": "Feature", "properties": {"NAME": "Snowbowl Ski Area", "OBJECTID": 13, "LONG": -111.69517, "STATE": "ARIZONA", "LAT": 35.32782, "TYPE": "Both"}},
{"geometry": {"type": "Point", "coordinates": [-109.56344, 33.97341]}, "type": "Feature", "properties": {"NAME": "Sunrise Peak Ski Area", "OBJECTID": 14, "LONG": -109.56344, "STATE": "ARIZONA", "LAT": 33.97341, "TYPE": "Both"}},
{"geometry": {"type": "Point", "coordinates": [-112.19241, 35.2106]}, "type": "Feature", "properties": {"NAME": "Williams Ski Area", "OBJECTID": 15, "LONG": -112.19241, "STATE": "ARIZONA", "LAT": 35.2106, "TYPE": "Both"}},
{"geometry": {"type": "Point", "coordinates": [-120.23907, 39.1574]}, "type": "Feature", "properties": {"NAME": "Alpine Meadows Ski Area", "OBJECTID": 16, "LONG": -120.23907, "STATE": "CALIFORNIA", "LAT": 39.1574, "TYPE": "Both"}},
{"geometry": {"type": "Point", "coordinates": [-119.6643, 37.66243]}, "type": "Feature", "properties": {"NAME": "Badger Pass Ski Area", "OBJECTID": 17, "LONG": -119.6643, "STATE": "CALIFORNIA", "LAT": 37.66243, "TYPE": "Both"}},
{"geometry": {"type": "Point", "coordinates": [-120.26461, 38.56102]}, "type": "Feature", "properties": {"NAME": "Bear River Resort Ski Area", "OBJECTID": 18, "LONG": -120.26461, "STATE": "CALIFORNIA", "LAT": 38.56102, "TYPE": "Both"}},
{"geometry": {"type": "Point", "coordinates": [-120.0446, 38.49213]}, "type": "Feature", "properties": {"NAME": "Bear Valley Ski Area", "OBJECTID": 19, "LONG": -120.0446, "STATE": "CALIFORNIA", "LAT": 38.49213, "TYPE": "Both"}},
{"geometry": {"type": "Point", "coordinates": [-118.84861, 36.69889]}, "type": "Feature", "properties": {"NAME": "Big Meadows Nordic Ski Trail", "OBJECTID": 20, "LONG": -118.84861, "STATE": "CALIFORNIA", "LAT": 36.69889, "TYPE": "Alpine"}},
{"geometry": {"type": "Point", "coordinates": [-117.69194, 34.36917]}, "type": "Feature", "properties": {"NAME": "Blue Ridge Ski Lift", "OBJECTID": 21, "LONG": -117.69194, "STATE": "CALIFORNIA", "LAT": 34.36917, "TYPE": "Both"}},
{"geometry": {"type": "Point", "coordinates": [-120.35101, 39.33157]}, "type": "Feature", "properties": {"NAME": "Boreal Ridge Ski Area", "OBJECTID": 22, "LONG": -120.35101, "STATE": "CALIFORNIA", "LAT": 39.33157, "TYPE": "Both"}},
{"geometry": {"type": "Point", "coordinates": [-120.0385, 38.92908]}, "type": "Feature", "properties": {"NAME": "Camp Richardson Cross Country Ski Ar", "OBJECTID": 23, "LONG": -120.0385, "STATE": "CALIFORNIA", "LAT": 38.92908, "TYPE": "Alpine"}},
{"geometry": {"type": "Point", "coordinates": [-120.26104, 41.55598]}, "type": "Feature", "properties": {"NAME": "Cedar Pass Ski Area", "OBJECTID": 24, "LONG": -120.26104, "STATE": "CALIFORNIA", "LAT": 41.55598, "TYPE": "Both"}},
{"geometry": {"type": "Point", "coordinates": [-119.15651, 37.22716]}, "type": "Feature", "properties": {"NAME": "Chinese Peak Ski Area", "OBJECTID": 25, "LONG": -119.15651, "STATE": "CALIFORNIA", "LAT": 37.22716, "TYPE": "Both"}},
{"geometry": {"type": "Point", "coordinates": [-120.26361, 41.555]}, "type": "Feature", "properties": {"NAME": "Cidar Pass Ski Course", "OBJECTID": 26, "LONG": -120.26361, "STATE": "CALIFORNIA", "LAT": 41.555, "TYPE": "Both"}},
{"geometry": {"type": "Point", "coordinates": [-120.90278, 40.34528]}, "type": "Feature", "properties": {"NAME": "Coppervale Ski Tow", "OBJECTID": 27, "LONG": -120.90278, "STATE": "CALIFORNIA", "LAT": 40.34528, "TYPE": "Both"}},
{"geometry": {"type": "Point", "coordinates": [-120.19907, 39.18657]}, "type": "Feature", "properties": {"NAME": "Deer Park Ski Area", "OBJECTID": 28, "LONG": -120.19907, "STATE": "CALIFORNIA", "LAT": 39.18657, "TYPE": "Both"}},
{"geometry": {"type": "Point", "coordinates": [-119.95016, 38.18631]}, "type": "Feature", "properties": {"NAME": "Dodge Ridge Ski Area", "OBJECTID": 29, "LONG": -119.95016, "STATE": "CALIFORNIA", "LAT": 38.18631, "TYPE": "Both"}},
{"geometry": {"type": "Point", "coordinates": [-120.3299, 39.32351]}, "type": "Feature", "properties": {"NAME": "Donner Summit Ski Area", "OBJECTID": 30, "LONG": -120.3299, "STATE": "CALIFORNIA", "LAT": 39.32351, "TYPE": "Both"}},
{"geometry": {"type": "Point", "coordinates": [-120.12046, 39.9735]}, "type": "Feature", "properties": {"NAME": "Eagles Peak Ski Area", "OBJECTID": 31, "LONG": -120.12046, "STATE": "CALIFORNIA", "LAT": 39.9735, "TYPE": "Both"}},
{"geometry": {"type": "Point", "coordinates": [-116.86447, 34.22642]}, "type": "Feature", "properties": {"NAME": "Gold Mine Ski Area", "OBJECTID": 32, "LONG": -116.86447, "STATE": "CALIFORNIA", "LAT": 34.22642, "TYPE": "Both"}},
{"geometry": {"type": "Point", "coordinates": [-120.15628, 39.1549]}, "type": "Feature", "properties": {"NAME": "Granlibakken Ski Area", "OBJECTID": 33, "LONG": -120.15628, "STATE": "CALIFORNIA", "LAT": 39.1549, "TYPE": "Both"}},
{"geometry": {"type": "Point", "coordinates": [-117.07222, 34.23611]}, "type": "Feature", "properties": {"NAME": "Green Valley Ski Area", "OBJECTID": 34, "LONG": -117.07222, "STATE": "CALIFORNIA", "LAT": 34.23611, "TYPE": "Both"}},
{"geometry": {"type": "Point", "coordinates": [-117.67833, 34.36472]}, "type": "Feature", "properties": {"NAME": "Holiday Hill Ski Lift", "OBJECTID": 35, "LONG": -117.67833, "STATE": "CALIFORNIA", "LAT": 34.36472, "TYPE": "Alpine"}},
{"geometry": {"type": "Point", "coordinates": [-120.16739, 39.0799]}, "type": "Feature", "properties": {"NAME": "Homewood Ski Area", "OBJECTID": 36, "LONG": -120.16739, "STATE": "CALIFORNIA", "LAT": 39.0799, "TYPE": "Both"}},
{"geometry": {"type": "Point", "coordinates": [-119.07263, 37.75133]}, "type": "Feature", "properties": {"NAME": "June Mountain Ski Area", "OBJECTID": 37, "LONG": -119.07263, "STATE": "CALIFORNIA", "LAT": 37.75133, "TYPE": "Both"}},
{"geometry": {"type": "Point", "coordinates": [-120.04294, 38.67824]}, "type": "Feature", "properties": {"NAME": "Kirkwood Ski Area", "OBJECTID": 38, "LONG": -120.04294, "STATE": "CALIFORNIA", "LAT": 38.67824, "TYPE": "Both"}},
{"geometry": {"type": "Point", "coordinates": [-117.89811, 34.35113]}, "type": "Feature", "properties": {"NAME": "Kratka Ridge Ski Area", "OBJECTID": 39, "LONG": -117.89811, "STATE": "CALIFORNIA", "LAT": 34.35113, "TYPE": "Both"}},
{"geometry": {"type": "Point", "coordinates": [-117.67977, 34.36919]}, "type": "Feature", "properties": {"NAME": "Mount High East Ski Area", "OBJECTID": 40, "LONG": -117.67977, "STATE": "CALIFORNIA", "LAT": 34.36919, "TYPE": "Both"}},
{"geometry": {"type": "Point", "coordinates": [-117.43059, 34.36696]}, "type": "Feature", "properties": {"NAME": "Mount High East Ski Area", "OBJECTID": 41, "LONG": -117.43059, "STATE": "CALIFORNIA", "LAT": 34.36696, "TYPE": "Alpine"}},
{"geometry": {"type": "Point", "coordinates": [-117.69199, 34.37169]}, "type": "Feature", "properties": {"NAME": "Mount High West Ski Area", "OBJECTID": 42, "LONG": -117.69199, "STATE": "CALIFORNIA", "LAT": 34.37169, "TYPE": "Both"}},
{"geometry": {"type": "Point", "coordinates": [-117.7406, 34.35474]}, "type": "Feature", "properties": {"NAME": "Mount High West Ski Area", "OBJECTID": 43, "LONG": -117.7406, "STATE": "CALIFORNIA", "LAT": 34.35474, "TYPE": "Alpine"}},
{"geometry": {"type": "Point", "coordinates": [-120.04905, 38.49547]}, "type": "Feature", "properties": {"NAME": "Mount Reba Ski Area", "OBJECTID": 44, "LONG": -120.04905, "STATE": "CALIFORNIA", "LAT": 38.49547, "TYPE": "Both"}},
{"geometry": {"type": "Point", "coordinates": [-122.20194, 41.32222]}, "type": "Feature", "properties": {"NAME": "Mount Shasta Ski Park Resort", "OBJECTID": 45, "LONG": -122.20194, "STATE": "CALIFORNIA", "LAT": 41.32222, "TYPE": "Both"}},
{"geometry": {"type": "Point", "coordinates": [-117.93367, 34.34613]}, "type": "Feature", "properties": {"NAME": "Mount Waterman Ski Area", "OBJECTID": 46, "LONG": -117.93367, "STATE": "CALIFORNIA", "LAT": 34.34613, "TYPE": "Alpine"}},
{"geometry": {"type": "Point", "coordinates": [-120.12268, 39.25573]}, "type": "Feature", "properties": {"NAME": "North Star Ski Area", "OBJECTID": 47, "LONG": -120.12268, "STATE": "CALIFORNIA", "LAT": 39.25573, "TYPE": "Both"}},
{"geometry": {"type": "Point", "coordinates": [-120.1024, 39.27323]}, "type": "Feature", "properties": {"NAME": "Northstar-at-Tahoe Ski Area", "OBJECTID": 48, "LONG": -120.1024, "STATE": "CALIFORNIA", "LAT": 39.27323, "TYPE": "Alpine"}},
{"geometry": {"type": "Point", "coordinates": [-120.20212, 39.18157]}, "type": "Feature", "properties": {"NAME": "Powder Bowl Ski Area", "OBJECTID": 49, "LONG": -120.20212, "STATE": "CALIFORNIA", "LAT": 39.18157, "TYPE": "Both"}},
{"geometry": {"type": "Point", "coordinates": [-118.55925, 35.70915]}, "type": "Feature", "properties": {"NAME": "Shirley Meadow Ski Area", "OBJECTID": 50, "LONG": -118.55925, "STATE": "CALIFORNIA", "LAT": 35.70915, "TYPE": "Both"}},
{"geometry": {"type": "Point", "coordinates": [-120.07806, 38.79694]}, "type": "Feature", "properties": {"NAME": "Sierra Ski Ranch", "OBJECTID": 51, "LONG": -120.07806, "STATE": "CALIFORNIA", "LAT": 38.79694, "TYPE": "Both"}},
{"geometry": {"type": "Point", "coordinates": [-120.20767, 38.63241]}, "type": "Feature", "properties": {"NAME": "Silver Basin Ski Area", "OBJECTID": 52, "LONG": -120.20767, "STATE": "CALIFORNIA", "LAT": 38.63241, "TYPE": "Both"}},
{"geometry": {"type": "Point", "coordinates": [-120.035, 38.80667]}, "type": "Feature", "properties": {"NAME": "Ski Echo Tahoe", "OBJECTID": 53, "LONG": -120.035, "STATE": "CALIFORNIA", "LAT": 38.80667, "TYPE": "Both"}},
{"geometry": {"type": "Point", "coordinates": [-121.52111, 40.47278]}, "type": "Feature", "properties": {"NAME": "Ski Heil Peak", "OBJECTID": 54, "LONG": -121.52111, "STATE": "CALIFORNIA", "LAT": 40.47278, "TYPE": "Both"}},
{"geometry": {"type": "Point", "coordinates": [-116.91667, 34.23444]}, "type": "Feature", "properties": {"NAME": "Snow Forest Ski Area", "OBJECTID": 55, "LONG": -116.91667, "STATE": "CALIFORNIA", "LAT": 34.23444, "TYPE": "Alpine"}},
{"geometry": {"type": "Point", "coordinates": [-116.89028, 34.22861]}, "type": "Feature", "properties": {"NAME": "Snow Summit Ski Area", "OBJECTID": 56, "LONG": -116.89028, "STATE": "CALIFORNIA", "LAT": 34.22861, "TYPE": "Both"}},
{"geometry": {"type": "Point", "coordinates": [-117.03472, 34.21722]}, "type": "Feature", "properties": {"NAME": "Snow Valley Ski Area", "OBJECTID": 57, "LONG": -117.03472, "STATE": "CALIFORNIA", "LAT": 34.21722, "TYPE": "Alpine"}},
{"geometry": {"type": "Point", "coordinates": [-120.38351, 39.31907]}, "type": "Feature", "properties": {"NAME": "Soda Springs Ski Area", "OBJECTID": 58, "LONG": -120.38351, "STATE": "CALIFORNIA", "LAT": 39.31907, "TYPE": "Both"}},
{"geometry": {"type": "Point", "coordinates": [-120.25184, 39.19129]}, "type": "Feature", "properties": {"NAME": "Squaw Valley Ski Area", "OBJECTID": 59, "LONG": -120.25184, "STATE": "CALIFORNIA", "LAT": 39.19129, "TYPE": "Both"}},
{"geometry": {"type": "Point", "coordinates": [-121.28938, 40.28931]}, "type": "Feature", "properties": {"NAME": "Stover Mountain Ski Area", "OBJECTID": 60, "LONG": -121.28938, "STATE": "CALIFORNIA", "LAT": 40.28931, "TYPE": "Both"}},
{"geometry": {"type": "Point", "coordinates": [-120.33573, 39.30434]}, "type": "Feature", "properties": {"NAME": "Sugar Bowl Ski Area", "OBJECTID": 61, "LONG": -120.33573, "STATE": "CALIFORNIA", "LAT": 39.30434, "TYPE": "Both"}},
{"geometry": {"type": "Point", "coordinates": [-117.68421, 34.38835]}, "type": "Feature", "properties": {"NAME": "Sunrise Ski Area", "OBJECTID": 62, "LONG": -117.68421, "STATE": "CALIFORNIA", "LAT": 34.38835, "TYPE": "Both"}},
{"geometry": {"type": "Point", "coordinates": [-120.27157, 39.3524]}, "type": "Feature", "properties": {"NAME": "Tahoe Donner Ski Area", "OBJECTID": 63, "LONG": -120.27157, "STATE": "CALIFORNIA", "LAT": 39.3524, "TYPE": "Both"}},
{"geometry": {"type": "Point", "coordinates": [-120.15917, 39.065]}, "type": "Feature", "properties": {"NAME": "Tahoe Ski Bowl Area", "OBJECTID": 64, "LONG": -120.15917, "STATE": "CALIFORNIA", "LAT": 39.065, "TYPE": "Both"}},
{"geometry": {"type": "Point", "coordinates": [-119.00556, 37.61861]}, "type": "Feature", "properties": {"NAME": "Tamarack Cross Country Ski Center", "OBJECTID": 65, "LONG": -119.00556, "STATE": "CALIFORNIA", "LAT": 37.61861, "TYPE": "Alpine"}},
{"geometry": {"type": "Point", "coordinates": [-105.87309, 39.6436]}, "type": "Feature", "properties": {"NAME": "Arapaho Basin Ski Area", "OBJECTID": 66, "LONG": -105.87309, "STATE": "COLORADO", "LAT": 39.6436, "TYPE": "Both"}},
{"geometry": {"type": "Point", "coordinates": [-106.81694, 39.19111]}, "type": "Feature", "properties": {"NAME": "Aspen Highlands Ski Area", "OBJECTID": 67, "LONG": -106.81694, "STATE": "COLORADO", "LAT": 39.19111, "TYPE": "Alpine"}},
{"geometry": {"type": "Point", "coordinates": [-106.82861, 39.17611]}, "type": "Feature", "properties": {"NAME": "Aspen Mountain Ski Area", "OBJECTID": 68, "LONG": -106.82861, "STATE": "COLORADO", "LAT": 39.17611, "TYPE": "Both"}},
{"geometry": {"type": "Point", "coordinates": [-105.78003, 39.79943]}, "type": "Feature", "properties": {"NAME": "Berthoud Pass Ski Area", "OBJECTID": 69, "LONG": -105.78003, "STATE": "COLORADO", "LAT": 39.79943, "TYPE": "Both"}},
{"geometry": {"type": "Point", "coordinates": [-106.07393, 39.47388]}, "type": "Feature", "properties": {"NAME": "Breckenridge Ski Area", "OBJECTID": 70, "LONG": -106.07393, "STATE": "COLORADO", "LAT": 39.47388, "TYPE": "Both"}},
{"geometry": {"type": "Point", "coordinates": [-106.81694, 39.19111]}, "type": "Feature", "properties": {"NAME": "Buttermilk Ski Area", "OBJECTID": 71, "LONG": -106.81694, "STATE": "COLORADO", "LAT": 39.19111, "TYPE": "Both"}},
{"geometry": {"type": "Point", "coordinates": [-107.86952, 37.28308]}, "type": "Feature", "properties": {"NAME": "Chapman Hill Municipal Ski Area", "OBJECTID": 72, "LONG": -107.86952, "STATE": "COLORADO", "LAT": 37.28308, "TYPE": "Both"}},
{"geometry": {"type": "Point", "coordinates": [-105.58501, 38.11752]}, "type": "Feature", "properties": {"NAME": "Conquistador Ski Area", "OBJECTID": 73, "LONG": -105.58501, "STATE": "COLORADO", "LAT": 38.11752, "TYPE": "Both"}},
{"geometry": {"type": "Point", "coordinates": [-106.30228, 39.36055]}, "type": "Feature", "properties": {"NAME": "Cooper Hill Ski Area", "OBJECTID": 74, "LONG": -106.30228, "STATE": "COLORADO", "LAT": 39.36055, "TYPE": "Both"}},
{"geometry": {"type": "Point", "coordinates": [-106.16143, 39.48638]}, "type": "Feature", "properties": {"NAME": "Copper Mountain Ski Area", "OBJECTID": 75, "LONG": -106.16143, "STATE": "COLORADO", "LAT": 39.48638, "TYPE": "Both"}},
{"geometry": {"type": "Point", "coordinates": [-106.94306, 38.88333]}, "type": "Feature", "properties": {"NAME": "Crested Butte Ski Area", "OBJECTID": 76, "LONG": -106.94306, "STATE": "COLORADO", "LAT": 38.88333, "TYPE": "Both"}},
{"geometry": {"type": "Point", "coordinates": [-105.12583, 37.34781]}, "type": "Feature", "properties": {"NAME": "Cuchara Valley Ski Area", "OBJECTID": 77, "LONG": -105.12583, "STATE": "COLORADO", "LAT": 37.34781, "TYPE": "Both"}},
{"geometry": {"type": "Point", "coordinates": [-105.76806, 39.83278]}, "type": "Feature", "properties": {"NAME": "First Creek Ski Cabin", "OBJECTID": 78, "LONG": -105.76806, "STATE": "COLORADO", "LAT": 39.83278, "TYPE": "Alpine"}},
{"geometry": {"type": "Point", "coordinates": [-105.73031, 39.56806]}, "type": "Feature", "properties": {"NAME": "Geneva Basin Ski Area", "OBJECTID": 79, "LONG": -105.73031, "STATE": "COLORADO", "LAT": 39.56806, "TYPE": "Both"}},
{"geometry": {"type": "Point", "coordinates": [-105.63111, 39.93556]}, "type": "Feature", "properties": {"NAME": "Guinn Mountain Ski Trail", "OBJECTID": 80, "LONG": -105.63111, "STATE": "COLORADO", "LAT": 39.93556, "TYPE": "Alpine"}},
{"geometry": {"type": "Point", "coordinates": [-108.05444, 37.29778]}, "type": "Feature", "properties": {"NAME": "Hesperus Ski Center", "OBJECTID": 81, "LONG": -108.05444, "STATE": "COLORADO", "LAT": 37.29778, "TYPE": "Both"}},
{"geometry": {"type": "Point", "coordinates": [-106.83896, 40.48276]}, "type": "Feature", "properties": {"NAME": "Howelsen Hill Ski Area", "OBJECTID": 82, "LONG": -106.83896, "STATE": "COLORADO", "LAT": 40.48276, "TYPE": "Both"}},
{"geometry": {"type": "Point", "coordinates": [-105.77837, 39.92471]}, "type": "Feature", "properties": {"NAME": "Idlewild Ski Area", "OBJECTID": 83, "LONG": -105.77837, "STATE": "COLORADO", "LAT": 39.92471, "TYPE": "Both"}},
{"geometry": {"type": "Point", "coordinates": [-105.7292, 39.24472]}, "type": "Feature", "properties": {"NAME": "Indian Mountain Ski Area", "OBJECTID": 84, "LONG": -105.7292, "STATE": "COLORADO", "LAT": 39.24472, "TYPE": "Both"}},
{"geometry": {"type": "Point", "coordinates": [-105.58642, 39.93527]}, "type": "Feature", "properties": {"NAME": "Jenny Creek Ski Area", "OBJECTID": 85, "LONG": -105.58642, "STATE": "COLORADO", "LAT": 39.93527, "TYPE": "Both"}},
{"geometry": {"type": "Point", "coordinates": [-105.95338, 39.59055]}, "type": "Feature", "properties": {"NAME": "Keystone Ski Area", "OBJECTID": 86, "LONG": -105.95338, "STATE": "COLORADO", "LAT": 39.59055, "TYPE": "Both"}},
{"geometry": {"type": "Point", "coordinates": [-105.59087, 39.9361]}, "type": "Feature", "properties": {"NAME": "Lake Eldora Ski Area", "OBJECTID": 87, "LONG": -105.59087, "STATE": "COLORADO", "LAT": 39.9361, "TYPE": "Both"}},
{"geometry": {"type": "Point", "coordinates": [-105.90116, 39.67805]}, "type": "Feature", "properties": {"NAME": "Loveland Ski Area", "OBJECTID": 88, "LONG": -105.90116, "STATE": "COLORADO", "LAT": 39.67805, "TYPE": "Both"}},
{"geometry": {"type": "Point", "coordinates": [-105.77115, 39.86805]}, "type": "Feature", "properties": {"NAME": "Mary Jane Ski Area", "OBJECTID": 89, "LONG": -105.77115, "STATE": "COLORADO", "LAT": 39.86805, "TYPE": "Both"}},
{"geometry": {"type": "Point", "coordinates": [-106.33949, 38.51029]}, "type": "Feature", "properties": {"NAME": "Monarch Ski Area", "OBJECTID": 90, "LONG": -106.33949, "STATE": "COLORADO", "LAT": 38.51029, "TYPE": "Both"}},
{"geometry": {"type": "Point", "coordinates": [-105.06167, 38.8864]}, "type": "Feature", "properties": {"NAME": "Pikes Peak Ski Area", "OBJECTID": 91, "LONG": -105.06167, "STATE": "COLORADO", "LAT": 38.8864, "TYPE": "Both"}},
{"geometry": {"type": "Point", "coordinates": [-108.15899, 39.06749]}, "type": "Feature", "properties": {"NAME": "Powderhorn Ski Area", "OBJECTID": 92, "LONG": -108.15899, "STATE": "COLORADO", "LAT": 39.06749, "TYPE": "Both"}},
{"geometry": {"type": "Point", "coordinates": [-107.82814, 37.62445]}, "type": "Feature", "properties": {"NAME": "Purgatory Ski Area", "OBJECTID": 93, "LONG": -107.82814, "STATE": "COLORADO", "LAT": 37.62445, "TYPE": "Both"}},
{"geometry": {"type": "Point", "coordinates": [-104.34611, 37.00528]}, "type": "Feature", "properties": {"NAME": "Raton Ski Basin", "OBJECTID": 94, "LONG": -104.34611, "STATE": "COLORADO", "LAT": 37.00528, "TYPE": "Both"}},
{"geometry": {"type": "Point", "coordinates": [-105.5367, 40.16082]}, "type": "Feature", "properties": {"NAME": "Rock Creek Ski Area", "OBJECTID": 95, "LONG": -105.5367, "STATE": "COLORADO", "LAT": 40.16082, "TYPE": "Both"}},
{"geometry": {"type": "Point", "coordinates": [-105.12084, 38.09196]}, "type": "Feature", "properties": {"NAME": "San Isabel Ski Area", "OBJECTID": 96, "LONG": -105.12084, "STATE": "COLORADO", "LAT": 38.09196, "TYPE": "Both"}},
{"geometry": {"type": "Point", "coordinates": [-105.7675, 39.81583]}, "type": "Feature", "properties": {"NAME": "Sevenmile Ski Trail", "OBJECTID": 97, "LONG": -105.7675, "STATE": "COLORADO", "LAT": 39.81583, "TYPE": "Alpine"}},
{"geometry": {"type": "Point", "coordinates": [-105.90421, 40.03999]}, "type": "Feature", "properties": {"NAME": "Silver Creek Ski Area", "OBJECTID": 98, "LONG": -105.90421, "STATE": "COLORADO", "LAT": 40.03999, "TYPE": "Both"}},
{"geometry": {"type": "Point", "coordinates": [-105.64531, 39.82693]}, "type": "Feature", "properties": {"NAME": "Silver Lake Ski Area", "OBJECTID": 99, "LONG": -105.64531, "STATE": "COLORADO", "LAT": 39.82693, "TYPE": "Both"}},
{"geometry": {"type": "Point", "coordinates": [-107.3475, 37.76472]}, "type": "Feature", "properties": {"NAME": "Ski Hi Ranch", "OBJECTID": 100, "LONG": -107.3475, "STATE": "COLORADO", "LAT": 37.76472, "TYPE": "Alpine"}},
{"geometry": {"type": "Point", "coordinates": [-107.06583, 39.11889]}, "type": "Feature", "properties": {"NAME": "Snowmass Ski Area", "OBJECTID": 101, "LONG": -107.06583, "STATE": "COLORADO", "LAT": 39.11889, "TYPE": "Both"}},
{"geometry": {"type": "Point", "coordinates": [-105.52002, 39.68527]}, "type": "Feature", "properties": {"NAME": "Squaw Pass Ski Area", "OBJECTID": 102, "LONG": -105.52002, "STATE": "COLORADO", "LAT": 39.68527, "TYPE": "Both"}},
{"geometry": {"type": "Point", "coordinates": [-106.8673, 40.24442]}, "type": "Feature", "properties": {"NAME": "Stagecoach Ski Area", "OBJECTID": 103, "LONG": -106.8673, "STATE": "COLORADO", "LAT": 40.24442, "TYPE": "Both"}},
{"geometry": {"type": "Point", "coordinates": [-106.77285, 40.45637]}, "type": "Feature", "properties": {"NAME": "Steamboat Ski Area", "OBJECTID": 104, "LONG": -106.77285, "STATE": "COLORADO", "LAT": 40.45637, "TYPE": "Both"}},
{"geometry": {"type": "Point", "coordinates": [-108.32009, 37.58418]}, "type": "Feature", "properties": {"NAME": "Stoner Ski Area", "OBJECTID": 105, "LONG": -108.32009, "STATE": "COLORADO", "LAT": 37.58418, "TYPE": "Both"}},
{"geometry": {"type": "Point", "coordinates": [-107.84342, 37.92612]}, "type": "Feature", "properties": {"NAME": "Telluride Ski Area", "OBJECTID": 106, "LONG": -107.84342, "STATE": "COLORADO", "LAT": 37.92612, "TYPE": "Both"}},
{"geometry": {"type": "Point", "coordinates": [-105.14862, 38.76751]}, "type": "Feature", "properties": {"NAME": "Tenderfoot Ski Area", "OBJECTID": 107, "LONG": -105.14862, "STATE": "COLORADO", "LAT": 38.76751, "TYPE": "Both"}},
{"geometry": {"type": "Point", "coordinates": [-106.37505, 39.61416]}, "type": "Feature", "properties": {"NAME": "Vail Ski Area", "OBJECTID": 108, "LONG": -106.37505, "STATE": "COLORADO", "LAT": 39.61416, "TYPE": "Both"}},
{"geometry": {"type": "Point", "coordinates": [-105.77392, 39.88332]}, "type": "Feature", "properties": {"NAME": "Winter Park Ski Area", "OBJECTID": 109, "LONG": -105.77392, "STATE": "COLORADO", "LAT": 39.88332, "TYPE": "Both"}},
{"geometry": {"type": "Point", "coordinates": [-73.30778, 41.83167]}, "type": "Feature", "properties": {"NAME": "Mohawk Mountain Ski Area", "OBJECTID": 110, "LONG": -73.30778, "STATE": "CONNECTICUT", "LAT": 41.83167, "TYPE": "Both"}},
{"geometry": {"type": "Point", "coordinates": [-72.92556, 41.5825]}, "type": "Feature", "properties": {"NAME": "Mt. Southington Ski Area", "OBJECTID": 111, "LONG": -72.92556, "STATE": "CONNECTICUT", "LAT": 41.5825, "TYPE": "Both"}},
{"geometry": {"type": "Point", "coordinates": [-72.52667, 41.75056]}, "type": "Feature", "properties": {"NAME": "Northview Ski Slope", "OBJECTID": 112, "LONG": -72.52667, "STATE": "CONNECTICUT", "LAT": 41.75056, "TYPE": "Both"}},
{"geometry": {"type": "Point", "coordinates": [-72.7125, 41.51722]}, "type": "Feature", "properties": {"NAME": "Powder Ridge Ski Area", "OBJECTID": 113, "LONG": -72.7125, "STATE": "CONNECTICUT", "LAT": 41.51722, "TYPE": "Both"}},
{"geometry": {"type": "Point", "coordinates": [-72.9775, 41.88222]}, "type": "Feature", "properties": {"NAME": "Ski Sundown", "OBJECTID": 114, "LONG": -72.9775, "STATE": "CONNECTICUT", "LAT": 41.88222, "TYPE": "Both"}},
{"geometry": {"type": "Point", "coordinates": [-72.84611, 41.75528]}, "type": "Feature", "properties": {"NAME": "Winding Trails Cross Country Ski Cen", "OBJECTID": 115, "LONG": -72.84611, "STATE": "CONNECTICUT", "LAT": 41.75528, "TYPE": "Alpine"}},
{"geometry": {"type": "Point", "coordinates": [-73.34917, 41.79833]}, "type": "Feature", "properties": {"NAME": "Woodbury Ski Area", "OBJECTID": 116, "LONG": -73.34917, "STATE": "CONNECTICUT", "LAT": 41.79833, "TYPE": "Both"}},
{"geometry": {"type": "Point", "coordinates": [-83.33333, 34.9875]}, "type": "Feature", "properties": {"NAME": "Sky Valley Ski Area", "OBJECTID": 117, "LONG": -83.33333, "STATE": "GEORGIA", "LAT": 34.9875, "TYPE": "Both"}},
{"geometry": {"type": "Point", "coordinates": [-114.40833, 43.655]}, "type": "Feature", "properties": {"NAME": "Bald Mountain Ski Area", "OBJECTID": 118, "LONG": -114.40833, "STATE": "IDAHO", "LAT": 43.655, "TYPE": "Both"}},
{"geometry": {"type": "Point", "coordinates": [-111.28914, 44.14964]}, "type": "Feature", "properties": {"NAME": "Bear Gulch Ski Area", "OBJECTID": 119, "LONG": -111.28914, "STATE": "IDAHO", "LAT": 44.14964, "TYPE": "Both"}},
{"geometry": {"type": "Point", "coordinates": [-113.55921, 43.50823]}, "type": "Feature", "properties": {"NAME": "Blizzard Mountain Ski Area", "OBJECTID": 120, "LONG": -113.55921, "STATE": "IDAHO", "LAT": 43.50823, "TYPE": "Both"}},
{"geometry": {"type": "Point", "coordinates": [-112.33139, 42.86825]}, "type": "Feature", "properties": {"NAME": "Caribou Ski Area", "OBJECTID": 121, "LONG": -112.33139, "STATE": "IDAHO", "LAT": 42.86825, "TYPE": "Both"}},
{"geometry": {"type": "Point", "coordinates": [-115.82262, 43.82905]}, "type": "Feature", "properties": {"NAME": "City Ski Area", "OBJECTID": 122, "LONG": -115.82262, "STATE": "IDAHO", "LAT": 43.82905, "TYPE": "Both"}},
{"geometry": {"type": "Point", "coordinates": [-114.34222, 43.67917]}, "type": "Feature", "properties": {"NAME": "Dollar Mountain Ski Area", "OBJECTID": 123, "LONG": -114.34222, "STATE": "IDAHO", "LAT": 43.67917, "TYPE": "Both"}},
{"geometry": {"type": "Point", "coordinates": [-116.92822, 44.62931]}, "type": "Feature", "properties": {"NAME": "Hitt Mountain Ski Area", "OBJECTID": 124, "LONG": -116.92822, "STATE": "IDAHO", "LAT": 44.62931, "TYPE": "Both"}},
{"geometry": {"type": "Point", "coordinates": [-111.62999, 43.64575]}, "type": "Feature", "properties": {"NAME": "Kelly Canyon Ski Area", "OBJECTID": 125, "LONG": -111.62999, "STATE": "IDAHO", "LAT": 43.64575, "TYPE": "Both"}},
{"geometry": {"type": "Point", "coordinates": [-116.82547, 46.81569]}, "type": "Feature", "properties": {"NAME": "Lamarack Ski Area", "OBJECTID": 126, "LONG": -116.82547, "STATE": "IDAHO", "LAT": 46.81569, "TYPE": "Both"}},
{"geometry": {"type": "Point", "coordinates": [-113.19448, 43.83324]}, "type": "Feature", "properties": {"NAME": "Little Lost Ski Area", "OBJECTID": 127, "LONG": -113.19448, "STATE": "IDAHO", "LAT": 43.83324, "TYPE": "Both"}},
{"geometry": {"type": "Point", "coordinates": [-114.57652, 46.63655]}, "type": "Feature", "properties": {"NAME": "Lolo Pass Ski Area", "OBJECTID": 128, "LONG": -114.57652, "STATE": "IDAHO", "LAT": 46.63655, "TYPE": "Both"}},
{"geometry": {"type": "Point", "coordinates": [-115.69684, 47.45488]}, "type": "Feature", "properties": {"NAME": "Lookout Pass Ski Area", "OBJECTID": 129, "LONG": -115.69684, "STATE": "IDAHO", "LAT": 47.45488, "TYPE": "Both"}},
{"geometry": {"type": "Point", "coordinates": [-114.2856, 42.18824]}, "type": "Feature", "properties": {"NAME": "Magic Mountain Ski Area", "OBJECTID": 130, "LONG": -114.2856, "STATE": "IDAHO", "LAT": 42.18824, "TYPE": "Both"}},
{"geometry": {"type": "Point", "coordinates": [-116.65667, 47.06583]}, "type": "Feature", "properties": {"NAME": "North-South Ski Bowl", "OBJECTID": 131, "LONG": -116.65667, "STATE": "IDAHO", "LAT": 47.06583, "TYPE": "Both"}},
{"geometry": {"type": "Point", "coordinates": [-116.16181, 44.92821]}, "type": "Feature", "properties": {"NAME": "Payette Lake Ski Area", "OBJECTID": 132, "LONG": -116.16181, "STATE": "IDAHO", "LAT": 44.92821, "TYPE": "Alpine"}},
{"geometry": {"type": "Point", "coordinates": [-116.1632, 44.92988]}, "type": "Feature", "properties": {"NAME": "Payette Lakes Ski Area", "OBJECTID": 133, "LONG": -116.1632, "STATE": "IDAHO", "LAT": 44.92988, "TYPE": "Both"}},
{"geometry": {"type": "Point", "coordinates": [-112.15276, 42.77575]}, "type": "Feature", "properties": {"NAME": "Pebble Creek Ski Area", "OBJECTID": 134, "LONG": -112.15276, "STATE": "IDAHO", "LAT": 42.77575, "TYPE": "Both"}},
{"geometry": {"type": "Point", "coordinates": [-111.3272, 43.53159]}, "type": "Feature", "properties": {"NAME": "Pine Basin Ski Area", "OBJECTID": 135, "LONG": -111.3272, "STATE": "IDAHO", "LAT": 43.53159, "TYPE": "Both"}},
{"geometry": {"type": "Point", "coordinates": [-116.62578, 48.28348]}, "type": "Feature", "properties": {"NAME": "Pine Street Ski Area", "OBJECTID": 136, "LONG": -116.62578, "STATE": "IDAHO", "LAT": 48.28348, "TYPE": "Both"}},
{"geometry": {"type": "Point", "coordinates": [-113.61197, 42.31213]}, "type": "Feature", "properties": {"NAME": "Pomerelle Ski Area", "OBJECTID": 137, "LONG": -113.61197, "STATE": "IDAHO", "LAT": 42.31213, "TYPE": "Both"}},
{"geometry": {"type": "Point", "coordinates": [-116.61328, 48.38654]}, "type": "Feature", "properties": {"NAME": "Schweitzer Basin Ski Area", "OBJECTID": 138, "LONG": -116.61328, "STATE": "IDAHO", "LAT": 48.38654, "TYPE": "Both"}},
{"geometry": {"type": "Point", "coordinates": [-116.13714, 47.48959]}, "type": "Feature", "properties": {"NAME": "Silverhorn Ski Area", "OBJECTID": 139, "LONG": -116.13714, "STATE": "IDAHO", "LAT": 47.48959, "TYPE": "Both"}},
{"geometry": {"type": "Point", "coordinates": [-116.09127, 45.86904]}, "type": "Feature", "properties": {"NAME": "Snow Haven Ski Area", "OBJECTID": 140, "LONG": -116.09127, "STATE": "IDAHO", "LAT": 45.86904, "TYPE": "Both"}},
{"geometry": {"type": "Point", "coordinates": [-111.93082, 43.32548]}, "type": "Feature", "properties": {"NAME": "Taylor Mountain Ski Area", "OBJECTID": 141, "LONG": -111.93082, "STATE": "IDAHO", "LAT": 43.32548, "TYPE": "Both"}},
{"geometry": {"type": "Point", "coordinates": [-90.42889, 42.41667]}, "type": "Feature", "properties": {"NAME": "Chestnut Mountain", "OBJECTID": 142, "LONG": -90.42889, "STATE": "ILLINOIS", "LAT": 42.41667, "TYPE": "Both"}},
{"geometry": {"type": "Point", "coordinates": [-88.07472, 41.80111]}, "type": "Feature", "properties": {"NAME": "Four Lakes Village", "OBJECTID": 143, "LONG": -88.07472, "STATE": "ILLINOIS", "LAT": 41.80111, "TYPE": "Both"}},
{"geometry": {"type": "Point", "coordinates": [-88.29417, 42.16556]}, "type": "Feature", "properties": {"NAME": "Raging Buffalo Snowboard Park", "OBJECTID": 144, "LONG": -88.29417, "STATE": "ILLINOIS", "LAT": 42.16556, "TYPE": "Both"}},
{"geometry": {"type": "Point", "coordinates": [-90.66806, 41.38667]}, "type": "Feature", "properties": {"NAME": "Ski Snow Star", "OBJECTID": 145, "LONG": -90.66806, "STATE": "ILLINOIS", "LAT": 41.38667, "TYPE": "Both"}},
{"geometry": {"type": "Point", "coordinates": [-88.22, 42.0125]}, "type": "Feature", "properties": {"NAME": "Villa Olivia Ski Area", "OBJECTID": 146, "LONG": -88.22, "STATE": "ILLINOIS", "LAT": 42.0125, "TYPE": "Both"}},
{"geometry": {"type": "Point", "coordinates": [-86.46833, 38.55611]}, "type": "Feature", "properties": {"NAME": "Paoli Peaks Ski Area", "OBJECTID": 147, "LONG": -86.46833, "STATE": "INDIANA", "LAT": 38.55611, "TYPE": "Both"}},
{"geometry": {"type": "Point", "coordinates": [-84.85, 39.09083]}, "type": "Feature", "properties": {"NAME": "Perfect North Ski Area", "OBJECTID": 148, "LONG": -84.85, "STATE": "INDIANA", "LAT": 39.09083, "TYPE": "Both"}},
{"geometry": {"type": "Point", "coordinates": [-87.06111, 41.47306]}, "type": "Feature", "properties": {"NAME": "Pines Peak Ski Area", "OBJECTID": 149, "LONG": -87.06111, "STATE": "INDIANA", "LAT": 41.47306, "TYPE": "Both"}},
{"geometry": {"type": "Point", "coordinates": [-86.25111, 39.20722]}, "type": "Feature", "properties": {"NAME": "Ski World", "OBJECTID": 150, "LONG": -86.25111, "STATE": "INDIANA", "LAT": 39.20722, "TYPE": "Both"}},
{"geometry": {"type": "Point", "coordinates": [-92.58194, 41.56667]}, "type": "Feature", "properties": {"NAME": "Fun Valley Ski Area", "OBJECTID": 151, "LONG": -92.58194, "STATE": "IOWA", "LAT": 41.56667, "TYPE": "Both"}},
{"geometry": {"type": "Point", "coordinates": [-95.86389, 41.39333]}, "type": "Feature", "properties": {"NAME": "Mt. Crescent Ski Area", "OBJECTID": 152, "LONG": -95.86389, "STATE": "IOWA", "LAT": 41.39333, "TYPE": "Both"}},
{"geometry": {"type": "Point", "coordinates": [-91.81389, 43.325]}, "type": "Feature", "properties": {"NAME": "Nor-Ski Runs Ski Area", "OBJECTID": 153, "LONG": -91.81389, "STATE": "IOWA", "LAT": 43.325, "TYPE": "Both"}},
{"geometry": {"type": "Point", "coordinates": [-94.83333, 43.3875]}, "type": "Feature", "properties": {"NAME": "Riverside Hills Ski Area", "OBJECTID": 154, "LONG": -94.83333, "STATE": "IOWA", "LAT": 43.3875, "TYPE": "Both"}},
{"geometry": {"type": "Point", "coordinates": [-93.88, 42.05972]}, "type": "Feature", "properties": {"NAME": "Seven Oaks Ski Area", "OBJECTID": 155, "LONG": -93.88, "STATE": "IOWA", "LAT": 42.05972, "TYPE": "Both"}},
{"geometry": {"type": "Point", "coordinates": [-69.71167, 45.48417]}, "type": "Feature", "properties": {"NAME": "Big Squaw Ski Area", "OBJECTID": 156, "LONG": -69.71167, "STATE": "MAINE", "LAT": 45.48417, "TYPE": "Both"}},
{"geometry": {"type": "Point", "coordinates": [-67.81417, 46.52139]}, "type": "Feature", "properties": {"NAME": "Bigrock-Mars Hill Ski Area", "OBJECTID": 157, "LONG": -67.81417, "STATE": "MAINE", "LAT": 46.52139, "TYPE": "Both"}},
{"geometry": {"type": "Point", "coordinates": [-70.6375, 44.58472]}, "type": "Feature", "properties": {"NAME": "Black Mountain Ski Area", "OBJECTID": 158, "LONG": -70.6375, "STATE": "MAINE", "LAT": 44.58472, "TYPE": "Both"}},
{"geometry": {"type": "Point", "coordinates": [-69.06528, 44.20972]}, "type": "Feature", "properties": {"NAME": "Camden Snow Bowl", "OBJECTID": 159, "LONG": -69.06528, "STATE": "MAINE", "LAT": 44.20972, "TYPE": "Both"}},
{"geometry": {"type": "Point", "coordinates": [-69.62556, 44.76528]}, "type": "Feature", "properties": {"NAME": "Eaton Mountain Ski Area", "OBJECTID": 160, "LONG": -69.62556, "STATE": "MAINE", "LAT": 44.76528, "TYPE": "Both"}},
{"geometry": {"type": "Point", "coordinates": [-70.28056, 44.13611]}, "type": "Feature", "properties": {"NAME": "Lost Valley Ski Area", "OBJECTID": 161, "LONG": -70.28056, "STATE": "MAINE", "LAT": 44.13611, "TYPE": "Both"}},
{"geometry": {"type": "Point", "coordinates": [-70.7025, 44.4]}, "type": "Feature", "properties": {"NAME": "Mt. Abram Ski Area", "OBJECTID": 162, "LONG": -70.7025, "STATE": "MAINE", "LAT": 44.4, "TYPE": "Both"}},
{"geometry": {"type": "Point", "coordinates": [-68.28472, 45.36389]}, "type": "Feature", "properties": {"NAME": "Mt. Jefferson Ski Area", "OBJECTID": 163, "LONG": -68.28472, "STATE": "MAINE", "LAT": 45.36389, "TYPE": "Both"}},
{"geometry": {"type": "Point", "coordinates": [-68.87417, 44.84222]}, "type": "Feature", "properties": {"NAME": "New Hermon Mountain Ski Area", "OBJECTID": 164, "LONG": -68.87417, "STATE": "MAINE", "LAT": 44.84222, "TYPE": "Both"}},
{"geometry": {"type": "Point", "coordinates": [-70.52778, 44.94722]}, "type": "Feature", "properties": {"NAME": "Saddleback Mountain Ski Area", "OBJECTID": 165, "LONG": -70.52778, "STATE": "MAINE", "LAT": 44.94722, "TYPE": "Both"}},
{"geometry": {"type": "Point", "coordinates": [-70.71333, 44.05472]}, "type": "Feature", "properties": {"NAME": "Shawneepeak Ski Area", "OBJECTID": 166, "LONG": -70.71333, "STATE": "MAINE", "LAT": 44.05472, "TYPE": "Both"}},
{"geometry": {"type": "Point", "coordinates": [-70.20056, 44.55639]}, "type": "Feature", "properties": {"NAME": "Spruce Mountain Ski Area", "OBJECTID": 167, "LONG": -70.20056, "STATE": "MAINE", "LAT": 44.55639, "TYPE": "Both"}},
{"geometry": {"type": "Point", "coordinates": [-70.27389, 45.06611]}, "type": "Feature", "properties": {"NAME": "Sugarloaf Ski Area", "OBJECTID": 168, "LONG": -70.27389, "STATE": "MAINE", "LAT": 45.06611, "TYPE": "Both"}},
{"geometry": {"type": "Point", "coordinates": [-70.86389, 44.46556]}, "type": "Feature", "properties": {"NAME": "Sunday River Ski Area", "OBJECTID": 169, "LONG": -70.86389, "STATE": "MAINE", "LAT": 44.46556, "TYPE": "Both"}},
{"geometry": {"type": "Point", "coordinates": [-70.17167, 44.64861]}, "type": "Feature", "properties": {"NAME": "Titcomb Ski Area", "OBJECTID": 170, "LONG": -70.17167, "STATE": "MAINE", "LAT": 44.64861, "TYPE": "Both"}},
{"geometry": {"type": "Point", "coordinates": [-79.35306, 39.55833]}, "type": "Feature", "properties": {"NAME": "Wisp - McHenry Ski Area", "OBJECTID": 171, "LONG": -79.35306, "STATE": "MARYLAND", "LAT": 39.55833, "TYPE": "Both"}},
{"geometry": {"type": "Point", "coordinates": [-70.93472, 42.86833]}, "type": "Feature", "properties": {"NAME": "Atlantic Forest Ski Area", "OBJECTID": 172, "LONG": -70.93472, "STATE": "MASSACHUSETTS", "LAT": 42.86833, "TYPE": "Both"}},
{"geometry": {"type": "Point", "coordinates": [-72.48722, 42.48722]}, "type": "Feature", "properties": {"NAME": "Berkshire Show Basin Ski Area", "OBJECTID": 173, "LONG": -72.48722, "STATE": "MASSACHUSETTS", "LAT": 42.48722, "TYPE": "Both"}},
{"geometry": {"type": "Point", "coordinates": [-72.9175, 42.19556]}, "type": "Feature", "properties": {"NAME": "Blandford Ski Area", "OBJECTID": 174, "LONG": -72.9175, "STATE": "MASSACHUSETTS", "LAT": 42.19556, "TYPE": "Both"}},
{"geometry": {"type": "Point", "coordinates": [-71.09861, 42.24306]}, "type": "Feature", "properties": {"NAME": "Blue Hills Ski Area", "OBJECTID": 175, "LONG": -71.09861, "STATE": "MASSACHUSETTS", "LAT": 42.24306, "TYPE": "Both"}},
{"geometry": {"type": "Point", "coordinates": [-71.09472, 42.64917]}, "type": "Feature", "properties": {"NAME": "Boston Hill Ski Area", "OBJECTID": 176, "LONG": -71.09472, "STATE": "MASSACHUSETTS", "LAT": 42.64917, "TYPE": "Both"}},
{"geometry": {"type": "Point", "coordinates": [-73.27972, 42.41611]}, "type": "Feature", "properties": {"NAME": "Bousquet Ski Area", "OBJECTID": 177, "LONG": -73.27972, "STATE": "MASSACHUSETTS", "LAT": 42.41611, "TYPE": "Both"}},
{"geometry": {"type": "Point", "coordinates": [-71.05944, 42.74361]}, "type": "Feature", "properties": {"NAME": "Bradford Ski Area", "OBJECTID": 178, "LONG": -71.05944, "STATE": "MASSACHUSETTS", "LAT": 42.74361, "TYPE": "Both"}},
{"geometry": {"type": "Point", "coordinates": [-73.26278, 42.59528]}, "type": "Feature", "properties": {"NAME": "Brodie Mountain Ski Area", "OBJECTID": 179, "LONG": -73.26278, "STATE": "MASSACHUSETTS", "LAT": 42.59528, "TYPE": "Both"}},
{"geometry": {"type": "Point", "coordinates": [-73.13417, 42.35944]}, "type": "Feature", "properties": {"NAME": "Bucksteep Cross-Country Ski Area", "OBJECTID": 180, "LONG": -73.13417, "STATE": "MASSACHUSETTS", "LAT": 42.35944, "TYPE": "Alpine"}},
{"geometry": {"type": "Point", "coordinates": [-73.31472, 42.17028]}, "type": "Feature", "properties": {"NAME": "Butternut Basin Ski Area", "OBJECTID": 181, "LONG": -73.31472, "STATE": "MASSACHUSETTS", "LAT": 42.17028, "TYPE": "Both"}},
{"geometry": {"type": "Point", "coordinates": [-73.25944, 42.42722]}, "type": "Feature", "properties": {"NAME": "Catamount Ski Area", "OBJECTID": 182, "LONG": -73.25944, "STATE": "MASSACHUSETTS", "LAT": 42.42722, "TYPE": "Both"}},
{"geometry": {"type": "Point", "coordinates": [-72.87028, 42.62778]}, "type": "Feature", "properties": {"NAME": "Charlemont Ski Area", "OBJECTID": 183, "LONG": -72.87028, "STATE": "MASSACHUSETTS", "LAT": 42.62778, "TYPE": "Both"}},
{"geometry": {"type": "Point", "coordinates": [-72.52111, 42.41944]}, "type": "Feature", "properties": {"NAME": "Cherry Hill Cross Country Ski Center", "OBJECTID": 184, "LONG": -72.52111, "STATE": "MASSACHUSETTS", "LAT": 42.41944, "TYPE": "Alpine"}},
{"geometry": {"type": "Point", "coordinates": [-72.69278, 42.15861]}, "type": "Feature", "properties": {"NAME": "East Mountain Ski Touring Center", "OBJECTID": 185, "LONG": -72.69278, "STATE": "MASSACHUSETTS", "LAT": 42.15861, "TYPE": "Alpine"}},
{"geometry": {"type": "Point", "coordinates": [-71.54111, 42.62306]}, "type": "Feature", "properties": {"NAME": "Groton Hills Ski Area", "OBJECTID": 186, "LONG": -71.54111, "STATE": "MASSACHUSETTS", "LAT": 42.62306, "TYPE": "Both"}},
{"geometry": {"type": "Point", "coordinates": [-71.55972, 42.32917]}, "type": "Feature", "properties": {"NAME": "Jericho Hill Ski Slope", "OBJECTID": 187, "LONG": -71.55972, "STATE": "MASSACHUSETTS", "LAT": 42.32917, "TYPE": "Both"}},
{"geometry": {"type": "Point", "coordinates": [-73.29139, 42.55083]}, "type": "Feature", "properties": {"NAME": "Jiminy Peak Ski Area", "OBJECTID": 188, "LONG": -73.29139, "STATE": "MASSACHUSETTS", "LAT": 42.55083, "TYPE": "Both"}},
{"geometry": {"type": "Point", "coordinates": [-71.39722, 42.08333]}, "type": "Feature", "properties": {"NAME": "Klein-Innsbruck Ski Area", "OBJECTID": 189, "LONG": -71.39722, "STATE": "MASSACHUSETTS", "LAT": 42.08333, "TYPE": "Both"}},
{"geometry": {"type": "Point", "coordinates": [-73.21583, 42.63306]}, "type": "Feature", "properties": {"NAME": "Mount Greylock Ski Club", "OBJECTID": 190, "LONG": -73.21583, "STATE": "MASSACHUSETTS", "LAT": 42.63306, "TYPE": "Both"}},
{"geometry": {"type": "Point", "coordinates": [-72.63333, 42.24861]}, "type": "Feature", "properties": {"NAME": "Mount Tom Ski and Recreation Area", "OBJECTID": 191, "LONG": -72.63333, "STATE": "MASSACHUSETTS", "LAT": 42.24861, "TYPE": "Alpine"}},
{"geometry": {"type": "Point", "coordinates": [-71.46611, 42.54417]}, "type": "Feature", "properties": {"NAME": "Nashoba Valley Ski Area", "OBJECTID": 192, "LONG": -71.46611, "STATE": "MASSACHUSETTS", "LAT": 42.54417, "TYPE": "Both"}},
{"geometry": {"type": "Point", "coordinates": [-73.1, 42.19583]}, "type": "Feature", "properties": {"NAME": "Otis Ridge Ski Area", "OBJECTID": 193, "LONG": -73.1, "STATE": "MASSACHUSETTS", "LAT": 42.19583, "TYPE": "Both"}},
{"geometry": {"type": "Point", "coordinates": [-72.10556, 42.40194]}, "type": "Feature", "properties": {"NAME": "Pine Ridge Ski Area", "OBJECTID": 194, "LONG": -72.10556, "STATE": "MASSACHUSETTS", "LAT": 42.40194, "TYPE": "Both"}},
{"geometry": {"type": "Point", "coordinates": [-71.25056, 42.39444]}, "type": "Feature", "properties": {"NAME": "Prospect Hill Ski Area", "OBJECTID": 195, "LONG": -71.25056, "STATE": "MASSACHUSETTS", "LAT": 42.39444, "TYPE": "Both"}},
{"geometry": {"type": "Point", "coordinates": [-72.81833, 42.07861]}, "type": "Feature", "properties": {"NAME": "Sodom Mountain Ski Area", "OBJECTID": 196, "LONG": -72.81833, "STATE": "MASSACHUSETTS", "LAT": 42.07861, "TYPE": "Both"}},
{"geometry": {"type": "Point", "coordinates": [-73.20778, 42.64417]}, "type": "Feature", "properties": {"NAME": "Stony Ledge Ski Trail", "OBJECTID": 197, "LONG": -73.20778, "STATE": "MASSACHUSETTS", "LAT": 42.64417, "TYPE": "Alpine"}},
{"geometry": {"type": "Point", "coordinates": [-73.1525, 42.6375]}, "type": "Feature", "properties": {"NAME": "Thunderbolt Ski Trail", "OBJECTID": 198, "LONG": -73.1525, "STATE": "MASSACHUSETTS", "LAT": 42.6375, "TYPE": "Alpine"}},
{"geometry": {"type": "Point", "coordinates": [-71.88694, 42.49944]}, "type": "Feature", "properties": {"NAME": "Wachusett Mountain Ski Area", "OBJECTID": 199, "LONG": -71.88694, "STATE": "MASSACHUSETTS", "LAT": 42.49944, "TYPE": "Both"}},
{"geometry": {"type": "Point", "coordinates": [-71.71333, 42.29583]}, "type": "Feature", "properties": {"NAME": "Ward Hill Ski Area", "OBJECTID": 200, "LONG": -71.71333, "STATE": "MASSACHUSETTS", "LAT": 42.29583, "TYPE": "Both"}},
{"geometry": {"type": "Point", "coordinates": [-71.30361, 42.36667]}, "type": "Feature", "properties": {"NAME": "Weston XC Ski Trail", "OBJECTID": 201, "LONG": -71.30361, "STATE": "MASSACHUSETTS", "LAT": 42.36667, "TYPE": "Alpine"}},
{"geometry": {"type": "Point", "coordinates": [-73.27972, 42.70083]}, "type": "Feature", "properties": {"NAME": "Williams College Ski Area", "OBJECTID": 202, "LONG": -73.27972, "STATE": "MASSACHUSETTS", "LAT": 42.70083, "TYPE": "Both"}},
{"geometry": {"type": "Point", "coordinates": [-90.17083, 46.45472]}, "type": "Feature", "properties": {"NAME": "ABR Cross Country Ski", "OBJECTID": 203, "LONG": -90.17083, "STATE": "MICHIGAN", "LAT": 46.45472, "TYPE": "Alpine"}},
{"geometry": {"type": "Point", "coordinates": [-86.80806, 46.34444]}, "type": "Feature", "properties": {"NAME": "Addis Lakes Ski Trail", "OBJECTID": 204, "LONG": -86.80806, "STATE": "MICHIGAN", "LAT": 46.34444, "TYPE": "Alpine"}},
{"geometry": {"type": "Point", "coordinates": [-83.55417, 42.69167]}, "type": "Feature", "properties": {"NAME": "Alpine Valley Ski Area", "OBJECTID": 205, "LONG": -83.55417, "STATE": "MICHIGAN", "LAT": 42.69167, "TYPE": "Both"}},
{"geometry": {"type": "Point", "coordinates": [-87.6675, 46.48861]}, "type": "Feature", "properties": {"NAME": "Alquaal - Ishpeming Ski Area", "OBJECTID": 206, "LONG": -87.6675, "STATE": "MICHIGAN", "LAT": 46.48861, "TYPE": "Both"}},
{"geometry": {"type": "Point", "coordinates": [-84.1075, 43.47056]}, "type": "Feature", "properties": {"NAME": "Apple Mountain Ski Area", "OBJECTID": 207, "LONG": -84.1075, "STATE": "MICHIGAN", "LAT": 43.47056, "TYPE": "Both"}},
{"geometry": {"type": "Point", "coordinates": [-90.05278, 46.48139]}, "type": "Feature", "properties": {"NAME": "Big Powderhorn Mt. Ski Area", "OBJECTID": 208, "LONG": -90.05278, "STATE": "MICHIGAN", "LAT": 46.48139, "TYPE": "Both"}},
{"geometry": {"type": "Point", "coordinates": [-85.69639, 42.46056]}, "type": "Feature", "properties": {"NAME": "Bittersweet Ski Area", "OBJECTID": 209, "LONG": -85.69639, "STATE": "MICHIGAN", "LAT": 42.46056, "TYPE": "Both"}},
{"geometry": {"type": "Point", "coordinates": [-90.05278, 46.48139]}, "type": "Feature", "properties": {"NAME": "Blackjack Ski Area", "OBJECTID": 210, "LONG": -90.05278, "STATE": "MICHIGAN", "LAT": 46.48139, "TYPE": "Both"}},
{"geometry": {"type": "Point", "coordinates": [-84.92222, 45.46861]}, "type": "Feature", "properties": {"NAME": "Boyne Highlands Ski Area", "OBJECTID": 211, "LONG": -84.92222, "STATE": "MICHIGAN", "LAT": 45.46861, "TYPE": "Both"}},
{"geometry": {"type": "Point", "coordinates": [-84.93889, 45.15861]}, "type": "Feature", "properties": {"NAME": "Boyne Mountain Ski Area", "OBJECTID": 212, "LONG": -84.93889, "STATE": "MICHIGAN", "LAT": 45.15861, "TYPE": "Both"}},
{"geometry": {"type": "Point", "coordinates": [-85.66667, 44.39861]}, "type": "Feature", "properties": {"NAME": "Briar Hill Ski Jump", "OBJECTID": 213, "LONG": -85.66667, "STATE": "MICHIGAN", "LAT": 44.39861, "TYPE": "Both"}},
{"geometry": {"type": "Point", "coordinates": [-88.70694, 46.02917]}, "type": "Feature", "properties": {"NAME": "Brule Mountain Ski Area", "OBJECTID": 214, "LONG": -88.70694, "STATE": "MICHIGAN", "LAT": 46.02917, "TYPE": "Both"}},
{"geometry": {"type": "Point", "coordinates": [-85.69944, 44.2225]}, "type": "Feature", "properties": {"NAME": "Caberfae Peaks Ski Area", "OBJECTID": 215, "LONG": -85.69944, "STATE": "MICHIGAN", "LAT": 44.2225, "TYPE": "Both"}},
{"geometry": {"type": "Point", "coordinates": [-85.46972, 43.05389]}, "type": "Feature", "properties": {"NAME": "Cannonsburg Ski Area", "OBJECTID": 216, "LONG": -85.46972, "STATE": "MICHIGAN", "LAT": 43.05389, "TYPE": "Both"}},
{"geometry": {"type": "Point", "coordinates": [-86.88667, 46.35694]}, "type": "Feature", "properties": {"NAME": "Chatham Hill Ski Area", "OBJECTID": 217, "LONG": -86.88667, "STATE": "MICHIGAN", "LAT": 46.35694, "TYPE": "Both"}},
{"geometry": {"type": "Point", "coordinates": [-86.89194, 46.36139]}, "type": "Feature", "properties": {"NAME": "Chatham Ski Trail", "OBJECTID": 218, "LONG": -86.89194, "STATE": "MICHIGAN", "LAT": 46.36139, "TYPE": "Alpine"}},
{"geometry": {"type": "Point", "coordinates": [-85.99167, 44.51972]}, "type": "Feature", "properties": {"NAME": "Crystal Mountain Ski Area", "OBJECTID": 219, "LONG": -85.99167, "STATE": "MICHIGAN", "LAT": 44.51972, "TYPE": "Both"}},
{"geometry": {"type": "Point", "coordinates": [-87.02889, 45.89472]}, "type": "Feature", "properties": {"NAME": "Gladstone Ski Park", "OBJECTID": 220, "LONG": -87.02889, "STATE": "MICHIGAN", "LAT": 45.89472, "TYPE": "Both"}},
{"geometry": {"type": "Point", "coordinates": [-84.75528, 44.64444]}, "type": "Feature", "properties": {"NAME": "Hanson Hills Ski Area", "OBJECTID": 221, "LONG": -84.75528, "STATE": "MICHIGAN", "LAT": 44.64444, "TYPE": "Both"}},
{"geometry": {"type": "Point", "coordinates": [-84.93583, 45.46778]}, "type": "Feature", "properties": {"NAME": "Harbor Highlands Ski Club", "OBJECTID": 222, "LONG": -84.93583, "STATE": "MICHIGAN", "LAT": 45.46778, "TYPE": "Both"}},
{"geometry": {"type": "Point", "coordinates": [-85.62056, 44.76306]}, "type": "Feature", "properties": {"NAME": "Hickory Hills Ski Area", "OBJECTID": 223, "LONG": -85.62056, "STATE": "MICHIGAN", "LAT": 44.76306, "TYPE": "Both"}},
{"geometry": {"type": "Point", "coordinates": [-84.65222, 45.03194]}, "type": "Feature", "properties": {"NAME": "Hidden Valley Resort", "OBJECTID": 224, "LONG": -84.65222, "STATE": "MICHIGAN", "LAT": 45.03194, "TYPE": "Both"}},
{"geometry": {"type": "Point", "coordinates": [-85.98528, 44.8975]}, "type": "Feature", "properties": {"NAME": "Homestead Ski Area", "OBJECTID": 225, "LONG": -85.98528, "STATE": "MICHIGAN", "LAT": 44.8975, "TYPE": "Both"}},
{"geometry": {"type": "Point", "coordinates": [-85.62722, 43.71306]}, "type": "Feature", "properties": {"NAME": "Hungerford Cross Country Ski Trail", "OBJECTID": 226, "LONG": -85.62722, "STATE": "MICHIGAN", "LAT": 43.71306, "TYPE": "Alpine"}},
{"geometry": {"type": "Point", "coordinates": [-89.93972, 46.47528]}, "type": "Feature", "properties": {"NAME": "Indianhead Mountain Ski Area", "OBJECTID": 227, "LONG": -89.93972, "STATE": "MICHIGAN", "LAT": 46.47528, "TYPE": "Both"}},
{"geometry": {"type": "Point", "coordinates": [-84.68611, 46.4775]}, "type": "Feature", "properties": {"NAME": "Iroquois Mountain Ski Area", "OBJECTID": 228, "LONG": -84.68611, "STATE": "MICHIGAN", "LAT": 46.4775, "TYPE": "Both"}},
{"geometry": {"type": "Point", "coordinates": [-86.65333, 46.40278]}, "type": "Feature", "properties": {"NAME": "Maple Mountain Ski Area", "OBJECTID": 229, "LONG": -86.65333, "STATE": "MICHIGAN", "LAT": 46.40278, "TYPE": "Both"}},
{"geometry": {"type": "Point", "coordinates": [-87.39528, 46.54361]}, "type": "Feature", "properties": {"NAME": "Marquette Mountain Ski Area", "OBJECTID": 230, "LONG": -87.39528, "STATE": "MICHIGAN", "LAT": 46.54361, "TYPE": "Both"}},
{"geometry": {"type": "Point", "coordinates": [-85.72917, 44.23889]}, "type": "Feature", "properties": {"NAME": "McKenzie Ski Trial", "OBJECTID": 231, "LONG": -85.72917, "STATE": "MICHIGAN", "LAT": 44.23889, "TYPE": "Alpine"}},
{"geometry": {"type": "Point", "coordinates": [-84.14, 44.63778]}, "type": "Feature", "properties": {"NAME": "Mio Mountain Ski Area", "OBJECTID": 232, "LONG": -84.14, "STATE": "MICHIGAN", "LAT": 44.63778, "TYPE": "Both"}},
{"geometry": {"type": "Point", "coordinates": [-85.215, 44.33528]}, "type": "Feature", "properties": {"NAME": "Missaukee Mountain Ski Area", "OBJECTID": 233, "LONG": -85.215, "STATE": "MICHIGAN", "LAT": 44.33528, "TYPE": "Both"}},
{"geometry": {"type": "Point", "coordinates": [-88.56889, 47.12194]}, "type": "Feature", "properties": {"NAME": "Mont Ripley Ski Area", "OBJECTID": 234, "LONG": -88.56889, "STATE": "MICHIGAN", "LAT": 47.12194, "TYPE": "Both"}},
{"geometry": {"type": "Point", "coordinates": [-83.80694, 42.53806]}, "type": "Feature", "properties": {"NAME": "Mount Brighton Ski Area", "OBJECTID": 235, "LONG": -83.80694, "STATE": "MICHIGAN", "LAT": 42.53806, "TYPE": "Both"}},
{"geometry": {"type": "Point", "coordinates": [-85.62056, 44.76306]}, "type": "Feature", "properties": {"NAME": "Mt. Holiday Ski Area", "OBJECTID": 236, "LONG": -85.62056, "STATE": "MICHIGAN", "LAT": 44.76306, "TYPE": "Both"}},
{"geometry": {"type": "Point", "coordinates": [-83.56722, 42.82806]}, "type": "Feature", "properties": {"NAME": "Mt. Holly Ski Area", "OBJECTID": 237, "LONG": -83.56722, "STATE": "MICHIGAN", "LAT": 42.82806, "TYPE": "Both"}},
{"geometry": {"type": "Point", "coordinates": [-85.24528, 45.33417]}, "type": "Feature", "properties": {"NAME": "Mt. Mcsauba Ski Area", "OBJECTID": 238, "LONG": -85.24528, "STATE": "MICHIGAN", "LAT": 45.33417, "TYPE": "Both"}},
{"geometry": {"type": "Point", "coordinates": [-90.16778, 46.47722]}, "type": "Feature", "properties": {"NAME": "Mt. Zion Ski Area", "OBJECTID": 239, "LONG": -90.16778, "STATE": "MICHIGAN", "LAT": 46.47722, "TYPE": "Both"}},
{"geometry": {"type": "Point", "coordinates": [-86.24, 43.05694]}, "type": "Feature", "properties": {"NAME": "Mulligans Ski Area", "OBJECTID": 240, "LONG": -86.24, "STATE": "MICHIGAN", "LAT": 43.05694, "TYPE": "Both"}},
{"geometry": {"type": "Point", "coordinates": [-87.90361, 45.78694]}, "type": "Feature", "properties": {"NAME": "Norway Mountain Ski Area", "OBJECTID": 241, "LONG": -87.90361, "STATE": "MICHIGAN", "LAT": 45.78694, "TYPE": "Alpine"}},
{"geometry": {"type": "Point", "coordinates": [-84.90361, 45.46833]}, "type": "Feature", "properties": {"NAME": "Nubs Nob Ski Area", "OBJECTID": 242, "LONG": -84.90361, "STATE": "MICHIGAN", "LAT": 45.46833, "TYPE": "Both"}},
{"geometry": {"type": "Point", "coordinates": [-85.56, 43.12]}, "type": "Feature", "properties": {"NAME": "Pando Ski Area", "OBJECTID": 243, "LONG": -85.56, "STATE": "MICHIGAN", "LAT": 43.12, "TYPE": "Both"}},
{"geometry": {"type": "Point", "coordinates": [-84.95528, 45.37333]}, "type": "Feature", "properties": {"NAME": "Petoskey Ski Area", "OBJECTID": 244, "LONG": -84.95528, "STATE": "MICHIGAN", "LAT": 45.37333, "TYPE": "Both"}},
{"geometry": {"type": "Point", "coordinates": [-83.36722, 42.74222]}, "type": "Feature", "properties": {"NAME": "Pine Knob Ski Area", "OBJECTID": 245, "LONG": -83.36722, "STATE": "MICHIGAN", "LAT": 42.74222, "TYPE": "Both"}},
{"geometry": {"type": "Point", "coordinates": [-88.08194, 45.83306]}, "type": "Feature", "properties": {"NAME": "Pine Mountain Ski Area", "OBJECTID": 246, "LONG": -88.08194, "STATE": "MICHIGAN", "LAT": 45.83306, "TYPE": "Both"}},
{"geometry": {"type": "Point", "coordinates": [-84.66833, 44.49694]}, "type": "Feature", "properties": {"NAME": "Pioneer Ski Hill", "OBJECTID": 247, "LONG": -84.66833, "STATE": "MICHIGAN", "LAT": 44.49694, "TYPE": "Both"}},
{"geometry": {"type": "Point", "coordinates": [-89.85, 46.68917]}, "type": "Feature", "properties": {"NAME": "Porcupine Ski Area", "OBJECTID": 248, "LONG": -89.85, "STATE": "MICHIGAN", "LAT": 46.68917, "TYPE": "Both"}},
{"geometry": {"type": "Point", "coordinates": [-85.20917, 44.92806]}, "type": "Feature", "properties": {"NAME": "Shanty Creek Ski Area", "OBJECTID": 249, "LONG": -85.20917, "STATE": "MICHIGAN", "LAT": 44.92806, "TYPE": "Both"}},
{"geometry": {"type": "Point", "coordinates": [-84.24167, 44.92444]}, "type": "Feature", "properties": {"NAME": "Sheridan Valley Ski Area", "OBJECTID": 250, "LONG": -84.24167, "STATE": "MICHIGAN", "LAT": 44.92444, "TYPE": "Both"}},
{"geometry": {"type": "Point", "coordinates": [-84.69083, 44.57389]}, "type": "Feature", "properties": {"NAME": "Skyline Ski Slide", "OBJECTID": 251, "LONG": -84.69083, "STATE": "MICHIGAN", "LAT": 44.57389, "TYPE": "Both"}},
{"geometry": {"type": "Point", "coordinates": [-84.79944, 44.01917]}, "type": "Feature", "properties": {"NAME": "Snow Snake Mt. Ski Area", "OBJECTID": 252, "LONG": -84.79944, "STATE": "MICHIGAN", "LAT": 44.01917, "TYPE": "Both"}},
{"geometry": {"type": "Point", "coordinates": [-84.71028, 44.95889]}, "type": "Feature", "properties": {"NAME": "Snow Valley Ski Club", "OBJECTID": 253, "LONG": -84.71028, "STATE": "MICHIGAN", "LAT": 44.95889, "TYPE": "Both"}},
{"geometry": {"type": "Point", "coordinates": [-85.81917, 44.91306]}, "type": "Feature", "properties": {"NAME": "Sugar Loaf Ski Area", "OBJECTID": 254, "LONG": -85.81917, "STATE": "MICHIGAN", "LAT": 44.91306, "TYPE": "Both"}},
{"geometry": {"type": "Point", "coordinates": [-83.72944, 42.74667]}, "type": "Feature", "properties": {"NAME": "Summit Ski Club", "OBJECTID": 255, "LONG": -83.72944, "STATE": "MICHIGAN", "LAT": 42.74667, "TYPE": "Both"}},
{"geometry": {"type": "Point", "coordinates": [-85.79944, 41.9025]}, "type": "Feature", "properties": {"NAME": "Swiss Valley Ski Area", "OBJECTID": 256, "LONG": -85.79944, "STATE": "MICHIGAN", "LAT": 41.9025, "TYPE": "Both"}},
{"geometry": {"type": "Point", "coordinates": [-85.87944, 42.36083]}, "type": "Feature", "properties": {"NAME": "Timber Ridge Ski Area", "OBJECTID": 257, "LONG": -85.87944, "STATE": "MICHIGAN", "LAT": 42.36083, "TYPE": "Both"}},
{"geometry": {"type": "Point", "coordinates": [-84.67472, 45.0275]}, "type": "Feature", "properties": {"NAME": "Tree Tops Sylvan Ski Area", "OBJECTID": 258, "LONG": -84.67472, "STATE": "MICHIGAN", "LAT": 45.0275, "TYPE": "Both"}},
{"geometry": {"type": "Point", "coordinates": [-86.69944, 46.36306]}, "type": "Feature", "properties": {"NAME": "Valley Spur Ski Trail", "OBJECTID": 259, "LONG": -86.69944, "STATE": "MICHIGAN", "LAT": 46.36306, "TYPE": "Alpine"}},
{"geometry": {"type": "Point", "coordinates": [-92.85222, 44.74333]}, "type": "Feature", "properties": {"NAME": "Afton Alps Ski Area", "OBJECTID": 260, "LONG": -92.85222, "STATE": "MINNESOTA", "LAT": 44.74333, "TYPE": "Both"}},
{"geometry": {"type": "Point", "coordinates": [-95.69583, 45.77806]}, "type": "Feature", "properties": {"NAME": "Andes Tower Hills Ski Area", "OBJECTID": 261, "LONG": -95.69583, "STATE": "MINNESOTA", "LAT": 45.77806, "TYPE": "Both"}},
{"geometry": {"type": "Point", "coordinates": [-92.93722, 48.46333]}, "type": "Feature", "properties": {"NAME": "Blue Fin XC Area", "OBJECTID": 262, "LONG": -92.93722, "STATE": "MINNESOTA", "LAT": 48.46333, "TYPE": "Cross-Country"}},
{"geometry": {"type": "Point", "coordinates": [-93.28694, 44.72306]}, "type": "Feature", "properties": {"NAME": "Buck Hill Ski Area", "OBJECTID": 263, "LONG": -93.28694, "STATE": "MINNESOTA", "LAT": 44.72306, "TYPE": "Both"}},
{"geometry": {"type": "Point", "coordinates": [-94.87778, 47.65833]}, "type": "Feature", "properties": {"NAME": "Buena Vista Ski Area", "OBJECTID": 264, "LONG": -94.87778, "STATE": "MINNESOTA", "LAT": 47.65833, "TYPE": "Both"}},
{"geometry": {"type": "Point", "coordinates": [-90.71222, 47.66417]}, "type": "Feature", "properties": {"NAME": "Cascade Lodge XC Trail", "OBJECTID": 265, "LONG": -90.71222, "STATE": "MINNESOTA", "LAT": 47.66417, "TYPE": "Cross-Country"}},
{"geometry": {"type": "Point", "coordinates": [-92.10639, 46.78333]}, "type": "Feature", "properties": {"NAME": "Chester Bowl Ski Area", "OBJECTID": 266, "LONG": -92.10639, "STATE": "MINNESOTA", "LAT": 46.78333, "TYPE": "Both"}},
{"geometry": {"type": "Point", "coordinates": [-92.08306, 44.36889]}, "type": "Feature", "properties": {"NAME": "Coffee Mill Ski Area", "OBJECTID": 267, "LONG": -92.08306, "STATE": "MINNESOTA", "LAT": 44.36889, "TYPE": "Both"}},
{"geometry": {"type": "Point", "coordinates": [-95.78306, 46.81639]}, "type": "Feature", "properties": {"NAME": "Detroit Mountain Ski Area", "OBJECTID": 268, "LONG": -95.78306, "STATE": "MINNESOTA", "LAT": 46.81639, "TYPE": "Both"}},
{"geometry": {"type": "Point", "coordinates": [-92.30056, 47.57556]}, "type": "Feature", "properties": {"NAME": "Giants Ridge Ski Area", "OBJECTID": 269, "LONG": -92.30056, "STATE": "MINNESOTA", "LAT": 47.57556, "TYPE": "Both"}},
{"geometry": {"type": "Point", "coordinates": [-93.37111, 44.83056]}, "type": "Feature", "properties": {"NAME": "Hyland Hills Ski Area", "OBJECTID": 270, "LONG": -93.37111, "STATE": "MINNESOTA", "LAT": 44.83056, "TYPE": "Both"}},
{"geometry": {"type": "Point", "coordinates": [-90.71222, 47.66417]}, "type": "Feature", "properties": {"NAME": "Lutsen Mountains Ski Area", "OBJECTID": 271, "LONG": -90.71222, "STATE": "MINNESOTA", "LAT": 47.66417, "TYPE": "Both"}},
{"geometry": {"type": "Point", "coordinates": [-92.35639, 44.51111]}, "type": "Feature", "properties": {"NAME": "Mount Frontenac Ski Area", "OBJECTID": 272, "LONG": -92.35639, "STATE": "MINNESOTA", "LAT": 44.51111, "TYPE": "Both"}},
{"geometry": {"type": "Point", "coordinates": [-93.99917, 44.16361]}, "type": "Feature", "properties": {"NAME": "Mount Kato Ski Area", "OBJECTID": 273, "LONG": -93.99917, "STATE": "MINNESOTA", "LAT": 44.16361, "TYPE": "Both"}},
{"geometry": {"type": "Point", "coordinates": [-94.3, 45.3125]}, "type": "Feature", "properties": {"NAME": "Powder Ridge Ski Area", "OBJECTID": 274, "LONG": -94.3, "STATE": "MINNESOTA", "LAT": 45.3125, "TYPE": "Both"}},
{"geometry": {"type": "Point", "coordinates": [-93.58667, 46.96306]}, "type": "Feature", "properties": {"NAME": "Quadna Mountain Ski Area", "OBJECTID": 275, "LONG": -93.58667, "STATE": "MINNESOTA", "LAT": 46.96306, "TYPE": "Both"}},
{"geometry": {"type": "Point", "coordinates": [-95.93889, 47.18056]}, "type": "Feature", "properties": {"NAME": "Rainbow Resort XC Trail", "OBJECTID": 276, "LONG": -95.93889, "STATE": "MINNESOTA", "LAT": 47.18056, "TYPE": "Cross-Country"}},
{"geometry": {"type": "Point", "coordinates": [-94.6425, 47.03528]}, "type": "Feature", "properties": {"NAME": "Shingobee Ski Area", "OBJECTID": 277, "LONG": -94.6425, "STATE": "MINNESOTA", "LAT": 47.03528, "TYPE": "Both"}},
{"geometry": {"type": "Point", "coordinates": [-94.20056, 46.35806]}, "type": "Feature", "properties": {"NAME": "Ski Gull Ski Area", "OBJECTID": 278, "LONG": -94.20056, "STATE": "MINNESOTA", "LAT": 46.35806, "TYPE": "Both"}},
{"geometry": {"type": "Point", "coordinates": [-92.10639, 46.78333]}, "type": "Feature", "properties": {"NAME": "Spirit Mountain Ski Area", "OBJECTID": 279, "LONG": -92.10639, "STATE": "MINNESOTA", "LAT": 46.78333, "TYPE": "Both"}},
{"geometry": {"type": "Point", "coordinates": [-92.73833, 44.56833]}, "type": "Feature", "properties": {"NAME": "Welch Village Ski Area", "OBJECTID": 280, "LONG": -92.73833, "STATE": "MINNESOTA", "LAT": 44.56833, "TYPE": "Both"}},
{"geometry": {"type": "Point", "coordinates": [-92.71306, 45.48694]}, "type": "Feature", "properties": {"NAME": "Wild Mountain Ski Area", "OBJECTID": 281, "LONG": -92.71306, "STATE": "MINNESOTA", "LAT": 45.48694, "TYPE": "Both"}},
{"geometry": {"type": "Point", "coordinates": [-90.62778, 38.5025]}, "type": "Feature", "properties": {"NAME": "Hidden Valley Ski Area", "OBJECTID": 282, "LONG": -90.62778, "STATE": "MISSOURI", "LAT": 38.5025, "TYPE": "Both"}},
{"geometry": {"type": "Point", "coordinates": [-93.34778, 37.45778]}, "type": "Feature", "properties": {"NAME": "Snow Bluff Ski Area", "OBJECTID": 283, "LONG": -93.34778, "STATE": "MISSOURI", "LAT": 37.45778, "TYPE": "Both"}},
{"geometry": {"type": "Point", "coordinates": [-90.3525, 36.96639]}, "type": "Feature", "properties": {"NAME": "Snow Creek Ski Area", "OBJECTID": 284, "LONG": -90.3525, "STATE": "MISSOURI", "LAT": 36.96639, "TYPE": "Both"}},
{"geometry": {"type": "Point", "coordinates": [-111.40583, 45.28083]}, "type": "Feature", "properties": {"NAME": "Africa Ski Trail", "OBJECTID": 285, "LONG": -111.40583, "STATE": "MONTANA", "LAT": 45.28083, "TYPE": "Alpine"}},
{"geometry": {"type": "Point", "coordinates": [-110.89583, 45.81722]}, "type": "Feature", "properties": {"NAME": "Alpine Access Ski Trail", "OBJECTID": 286, "LONG": -110.89583, "STATE": "MONTANA", "LAT": 45.81722, "TYPE": "Alpine"}},
{"geometry": {"type": "Point", "coordinates": [-114.35278, 48.485]}, "type": "Feature", "properties": {"NAME": "Alpinglow Alley Ski Trail", "OBJECTID": 287, "LONG": -114.35278, "STATE": "MONTANA", "LAT": 48.485, "TYPE": "Alpine"}},
{"geometry": {"type": "Point", "coordinates": [-110.70806, 46.83861]}, "type": "Feature", "properties": {"NAME": "Arkansas Traveller Ski Trail", "OBJECTID": 288, "LONG": -110.70806, "STATE": "MONTANA", "LAT": 46.83861, "TYPE": "Alpine"}},
{"geometry": {"type": "Point", "coordinates": [-113.24111, 46.25639]}, "type": "Feature", "properties": {"NAME": "Atlantic Cable Ski Trail", "OBJECTID": 289, "LONG": -113.24111, "STATE": "MONTANA", "LAT": 46.25639, "TYPE": "Alpine"}},
{"geometry": {"type": "Point", "coordinates": [-109.35, 45.1875]}, "type": "Feature", "properties": {"NAME": "Auto Bahn Ski Trail", "OBJECTID": 290, "LONG": -109.35, "STATE": "MONTANA", "LAT": 45.1875, "TYPE": "Alpine"}},
{"geometry": {"type": "Point", "coordinates": [-113.95139, 45.69306]}, "type": "Feature", "properties": {"NAME": "B-2 Ski Trail", "OBJECTID": 291, "LONG": -113.95139, "STATE": "MONTANA", "LAT": 45.69306, "TYPE": "Alpine"}},
{"geometry": {"type": "Point", "coordinates": [-110.92194, 45.60694]}, "type": "Feature", "properties": {"NAME": "Bear Canyon Ski Lodge", "OBJECTID": 292, "LONG": -110.92194, "STATE": "MONTANA", "LAT": 45.60694, "TYPE": "Both"}},
{"geometry": {"type": "Point", "coordinates": [-109.63333, 48.17778]}, "type": "Feature", "properties": {"NAME": "Bear Paw Ski Bowl", "OBJECTID": 293, "LONG": -109.63333, "STATE": "MONTANA", "LAT": 48.17778, "TYPE": "Both"}},
{"geometry": {"type": "Point", "coordinates": [-111.40583, 45.28074]}, "type": "Feature", "properties": {"NAME": "Big Sky Ski Area", "OBJECTID": 294, "LONG": -111.40583, "STATE": "MONTANA", "LAT": 45.28074, "TYPE": "Both"}},
{"geometry": {"type": "Point", "coordinates": [-113.99639, 47.02361]}, "type": "Feature", "properties": {"NAME": "Big Sky Ski Trail", "OBJECTID": 295, "LONG": -113.99639, "STATE": "MONTANA", "LAT": 47.02361, "TYPE": "Alpine"}},
{"geometry": {"type": "Point", "coordinates": [-114.3732, 48.01656]}, "type": "Feature", "properties": {"NAME": "Blacktail Ski Area", "OBJECTID": 296, "LONG": -114.3732, "STATE": "MONTANA", "LAT": 48.01656, "TYPE": "Both"}},
{"geometry": {"type": "Point", "coordinates": [-110.89666, 45.81713]}, "type": "Feature", "properties": {"NAME": "Bridger Bowl Ski Area", "OBJECTID": 297, "LONG": -110.89666, "STATE": "MONTANA", "LAT": 45.81713, "TYPE": "Both"}},
{"geometry": {"type": "Point", "coordinates": [-112.60056, 45.9525]}, "type": "Feature", "properties": {"NAME": "Butte Ski Club", "OBJECTID": 298, "LONG": -112.60056, "STATE": "MONTANA", "LAT": 45.9525, "TYPE": "Both"}},
{"geometry": {"type": "Point", "coordinates": [-109.38135, 46.9502]}, "type": "Feature", "properties": {"NAME": "Castle Hill Ski Area", "OBJECTID": 299, "LONG": -109.38135, "STATE": "MONTANA", "LAT": 46.9502, "TYPE": "Both"}},
{"geometry": {"type": "Point", "coordinates": [-113.11396, 45.90407]}, "type": "Feature", "properties": {"NAME": "Deep Creek Ski Area", "OBJECTID": 300, "LONG": -113.11396, "STATE": "MONTANA", "LAT": 45.90407, "TYPE": "Both"}},
{"geometry": {"type": "Point", "coordinates": [-113.24202, 46.25629]}, "type": "Feature", "properties": {"NAME": "Discovery Basin Ski Area", "OBJECTID": 301, "LONG": -113.24202, "STATE": "MONTANA", "LAT": 46.25629, "TYPE": "Both"}},
{"geometry": {"type": "Point", "coordinates": [-113.62485, 48.27378]}, "type": "Feature", "properties": {"NAME": "Essex Cross Country Ski Area", "OBJECTID": 302, "LONG": -113.62485, "STATE": "MONTANA", "LAT": 48.27378, "TYPE": "Cross-Country"}},
{"geometry": {"type": "Point", "coordinates": [-113.99264, 48.14295]}, "type": "Feature", "properties": {"NAME": "Foothills Cross Country Ski Area", "OBJECTID": 303, "LONG": -113.99264, "STATE": "MONTANA", "LAT": 48.14295, "TYPE": "Alpine"}},
{"geometry": {"type": "Point", "coordinates": [-113.99875, 48.13961]}, "type": "Feature", "properties": {"NAME": "Foothills Cross-Country Ski Area", "OBJECTID": 304, "LONG": -113.99875, "STATE": "MONTANA", "LAT": 48.13961, "TYPE": "Alpine"}},
{"geometry": {"type": "Point", "coordinates": [-114.35515, 48.14878]}, "type": "Feature", "properties": {"NAME": "Foy Lake Cross Country Ski Area", "OBJECTID": 305, "LONG": -114.35515, "STATE": "MONTANA", "LAT": 48.14878, "TYPE": "Alpine"}},
{"geometry": {"type": "Point", "coordinates": [-111.10667, 46.35602]}, "type": "Feature", "properties": {"NAME": "Grass Mountain Ski Area", "OBJECTID": 306, "LONG": -111.10667, "STATE": "MONTANA", "LAT": 46.35602, "TYPE": "Both"}},
{"geometry": {"type": "Point", "coordinates": [-111.81362, 44.58991]}, "type": "Feature", "properties": {"NAME": "Lakeview Mountain Ski Area", "OBJECTID": 307, "LONG": -111.81362, "STATE": "MONTANA", "LAT": 44.58991, "TYPE": "Both"}},
{"geometry": {"type": "Point", "coordinates": [-111.2911, 44.69548]}, "type": "Feature", "properties": {"NAME": "Lionhead Ski Area", "OBJECTID": 308, "LONG": -111.2911, "STATE": "MONTANA", "LAT": 44.69548, "TYPE": "Both"}},
{"geometry": {"type": "Point", "coordinates": [-113.44815, 46.89545]}, "type": "Feature", "properties": {"NAME": "Lubrecht Camp Ski Area", "OBJECTID": 309, "LONG": -113.44815, "STATE": "MONTANA", "LAT": 46.89545, "TYPE": "Both"}},
{"geometry": {"type": "Point", "coordinates": [-113.90677, 46.91989]}, "type": "Feature", "properties": {"NAME": "Marshall Ski Area", "OBJECTID": 310, "LONG": -113.90677, "STATE": "MONTANA", "LAT": 46.91989, "TYPE": "Both"}},
{"geometry": {"type": "Point", "coordinates": [-113.1295, 45.4349]}, "type": "Feature", "properties": {"NAME": "Maverick Mountain Ski Area", "OBJECTID": 311, "LONG": -113.1295, "STATE": "MONTANA", "LAT": 45.4349, "TYPE": "Both"}},
{"geometry": {"type": "Point", "coordinates": [-109.35077, 45.19021]}, "type": "Feature", "properties": {"NAME": "Red Lodge Mountain Ski Area", "OBJECTID": 312, "LONG": -109.35077, "STATE": "MONTANA", "LAT": 45.19021, "TYPE": "Both"}},
{"geometry": {"type": "Point", "coordinates": [-112.75148, 47.79157]}, "type": "Feature", "properties": {"NAME": "Rocky Mountain Hi Ski Area", "OBJECTID": 313, "LONG": -112.75148, "STATE": "MONTANA", "LAT": 47.79157, "TYPE": "Both"}},
{"geometry": {"type": "Point", "coordinates": [-114.52905, 48.4585]}, "type": "Feature", "properties": {"NAME": "Round Meadow Country Ski Area", "OBJECTID": 314, "LONG": -114.52905, "STATE": "MONTANA", "LAT": 48.4585, "TYPE": "Alpine"}},
{"geometry": {"type": "Point", "coordinates": [-114.54127, 48.45822]}, "type": "Feature", "properties": {"NAME": "Round Meadow Cross Country Ski Area", "OBJECTID": 315, "LONG": -114.54127, "STATE": "MONTANA", "LAT": 48.45822, "TYPE": "Cross-Country"}},
{"geometry": {"type": "Point", "coordinates": [-113.99734, 47.0235]}, "type": "Feature", "properties": {"NAME": "Snow Bowl Ski Area", "OBJECTID": 316, "LONG": -113.99734, "STATE": "MONTANA", "LAT": 47.0235, "TYPE": "Both"}},
{"geometry": {"type": "Point", "coordinates": [-114.02956, 47.01433]}, "type": "Feature", "properties": {"NAME": "Snow Park Ski Area", "OBJECTID": 317, "LONG": -114.02956, "STATE": "MONTANA", "LAT": 47.01433, "TYPE": "Alpine"}},
{"geometry": {"type": "Point", "coordinates": [-115.63047, 48.60488]}, "type": "Feature", "properties": {"NAME": "Turner Mountain Ski Area", "OBJECTID": 318, "LONG": -115.63047, "STATE": "MONTANA", "LAT": 48.60488, "TYPE": "Alpine"}},
{"geometry": {"type": "Point", "coordinates": [-113.21174, 46.17184]}, "type": "Feature", "properties": {"NAME": "Wraith Hill Ski Area", "OBJECTID": 319, "LONG": -113.21174, "STATE": "MONTANA", "LAT": 46.17184, "TYPE": "Alpine"}},
{"geometry": {"type": "Point", "coordinates": [-115.62944, 48.605]}, "type": "Feature", "properties": {"NAME": "Back Side of the Moon Ski Trail", "OBJECTID": 320, "LONG": -115.62944, "STATE": "MONTANA", "LAT": 48.605, "TYPE": "Alpine"}},
{"geometry": {"type": "Point", "coordinates": [-119.90878, 38.93769]}, "type": "Feature", "properties": {"NAME": "Heavenly Valley Ski Area", "OBJECTID": 321, "LONG": -119.90878, "STATE": "NEVADA", "LAT": 38.93769, "TYPE": "Both"}},
{"geometry": {"type": "Point", "coordinates": [-119.9235, 39.25379]}, "type": "Feature", "properties": {"NAME": "Incline Ski Area", "OBJECTID": 322, "LONG": -119.9235, "STATE": "NEVADA", "LAT": 39.25379, "TYPE": "Both"}},
{"geometry": {"type": "Point", "coordinates": [-115.67974, 36.3036]}, "type": "Feature", "properties": {"NAME": "Lee Canyon Ski Area", "OBJECTID": 323, "LONG": -115.67974, "STATE": "NEVADA", "LAT": 36.3036, "TYPE": "Both"}},
{"geometry": {"type": "Point", "coordinates": [-119.88572, 39.32907]}, "type": "Feature", "properties": {"NAME": "Mount Rose Ski Area", "OBJECTID": 324, "LONG": -119.88572, "STATE": "NEVADA", "LAT": 39.32907, "TYPE": "Both"}},
{"geometry": {"type": "Point", "coordinates": [-115.67752, 36.32055]}, "type": "Feature", "properties": {"NAME": "Old Mill Cross Country Ski Area", "OBJECTID": 325, "LONG": -115.67752, "STATE": "NEVADA", "LAT": 36.32055, "TYPE": "Alpine"}},
{"geometry": {"type": "Point", "coordinates": [-119.8735, 39.33657]}, "type": "Feature", "properties": {"NAME": "Sky Tavern Ski Area", "OBJECTID": 326, "LONG": -119.8735, "STATE": "NEVADA", "LAT": 39.33657, "TYPE": "Both"}},
{"geometry": {"type": "Point", "coordinates": [-119.901, 39.33796]}, "type": "Feature", "properties": {"NAME": "Sky Tavern Ski Area", "OBJECTID": 327, "LONG": -119.901, "STATE": "NEVADA", "LAT": 39.33796, "TYPE": "Alpine"}},
{"geometry": {"type": "Point", "coordinates": [-119.87128, 39.31879]}, "type": "Feature", "properties": {"NAME": "Slide Mountain Ski Area", "OBJECTID": 328, "LONG": -119.87128, "STATE": "NEVADA", "LAT": 39.31879, "TYPE": "Both"}},
{"geometry": {"type": "Point", "coordinates": [-71.22833, 43.61139]}, "type": "Feature", "properties": {"NAME": "Abenaki Ski Area", "OBJECTID": 329, "LONG": -71.22833, "STATE": "NEW HAMPSHIRE", "LAT": 43.61139, "TYPE": "Both"}},
{"geometry": {"type": "Point", "coordinates": [-71.36889, 43.54583]}, "type": "Feature", "properties": {"NAME": "Alpine Ridge Ski Area", "OBJECTID": 330, "LONG": -71.36889, "STATE": "NEW HAMPSHIRE", "LAT": 43.54583, "TYPE": "Both"}},
{"geometry": {"type": "Point", "coordinates": [-71.23, 44.08278]}, "type": "Feature", "properties": {"NAME": "Attitash Bear Peak Ski Area", "OBJECTID": 331, "LONG": -71.23, "STATE": "NEW HAMPSHIRE", "LAT": 44.08278, "TYPE": "Both"}},
{"geometry": {"type": "Point", "coordinates": [-71.79389, 44.85694]}, "type": "Feature", "properties": {"NAME": "Balsams-Wilderness Ski Area", "OBJECTID": 332, "LONG": -71.79389, "STATE": "NEW HAMPSHIRE", "LAT": 44.85694, "TYPE": "Both"}},
{"geometry": {"type": "Point", "coordinates": [-71.2975, 44.04583]}, "type": "Feature", "properties": {"NAME": "Bear Mountain Ski Trail", "OBJECTID": 333, "LONG": -71.2975, "STATE": "NEW HAMPSHIRE", "LAT": 44.04583, "TYPE": "Alpine"}},
{"geometry": {"type": "Point", "coordinates": [-71.16472, 44.16722]}, "type": "Feature", "properties": {"NAME": "Black Mountain Ski Areal", "OBJECTID": 334, "LONG": -71.16472, "STATE": "NEW HAMPSHIRE", "LAT": 44.16722, "TYPE": "Both"}},
{"geometry": {"type": "Point", "coordinates": [-70.91667, 43.24194]}, "type": "Feature", "properties": {"NAME": "Black Water Ski Area", "OBJECTID": 335, "LONG": -70.91667, "STATE": "NEW HAMPSHIRE", "LAT": 43.24194, "TYPE": "Both"}},
{"geometry": {"type": "Point", "coordinates": [-71.46111, 44.25417]}, "type": "Feature", "properties": {"NAME": "Bretton Woods Ski Area", "OBJECTID": 336, "LONG": -71.46111, "STATE": "NEW HAMPSHIRE", "LAT": 44.25417, "TYPE": "Both"}},
{"geometry": {"type": "Point", "coordinates": [-71.69167, 42.73611]}, "type": "Feature", "properties": {"NAME": "Brookline Ski Area", "OBJECTID": 337, "LONG": -71.69167, "STATE": "NEW HAMPSHIRE", "LAT": 42.73611, "TYPE": "Both"}},
{"geometry": {"type": "Point", "coordinates": [-71.70194, 44.17722]}, "type": "Feature", "properties": {"NAME": "Cannon Mountain Ski Area", "OBJECTID": 338, "LONG": -71.70194, "STATE": "NEW HAMPSHIRE", "LAT": 44.17722, "TYPE": "Both"}},
{"geometry": {"type": "Point", "coordinates": [-72.10083, 43.78694]}, "type": "Feature", "properties": {"NAME": "Dartmouth Skiway", "OBJECTID": 339, "LONG": -72.10083, "STATE": "NEW HAMPSHIRE", "LAT": 43.78694, "TYPE": "Both"}},
{"geometry": {"type": "Point", "coordinates": [-71.14, 44.16861]}, "type": "Feature", "properties": {"NAME": "Doublehead Ski Trail", "OBJECTID": 340, "LONG": -71.14, "STATE": "NEW HAMPSHIRE", "LAT": 44.16861, "TYPE": "Alpine"}},
{"geometry": {"type": "Point", "coordinates": [-72.12917, 43.52222]}, "type": "Feature", "properties": {"NAME": "Eastman Ski Area", "OBJECTID": 341, "LONG": -72.12917, "STATE": "NEW HAMPSHIRE", "LAT": 43.52222, "TYPE": "Both"}},
{"geometry": {"type": "Point", "coordinates": [-71.53472, 43.26333]}, "type": "Feature", "properties": {"NAME": "Elgin Kirby Ski Area", "OBJECTID": 342, "LONG": -71.53472, "STATE": "NEW HAMPSHIRE", "LAT": 43.26333, "TYPE": "Both"}},
{"geometry": {"type": "Point", "coordinates": [-71.74833, 44.22694]}, "type": "Feature", "properties": {"NAME": "Franconia Cross Country Center", "OBJECTID": 343, "LONG": -71.74833, "STATE": "NEW HAMPSHIRE", "LAT": 44.22694, "TYPE": "Alpine"}},
{"geometry": {"type": "Point", "coordinates": [-71.17361, 44.38778]}, "type": "Feature", "properties": {"NAME": "Great Glen Trails", "OBJECTID": 344, "LONG": -71.17361, "STATE": "NEW HAMPSHIRE", "LAT": 44.38778, "TYPE": "Both"}},
{"geometry": {"type": "Point", "coordinates": [-71.37889, 43.52556]}, "type": "Feature", "properties": {"NAME": "Gunstock Ski Area", "OBJECTID": 345, "LONG": -71.37889, "STATE": "NEW HAMPSHIRE", "LAT": 43.52556, "TYPE": "Both"}},
{"geometry": {"type": "Point", "coordinates": [-71.55417, 43.40528]}, "type": "Feature", "properties": {"NAME": "Highland Ski Area", "OBJECTID": 346, "LONG": -71.55417, "STATE": "NEW HAMPSHIRE", "LAT": 43.40528, "TYPE": "Both"}},
{"geometry": {"type": "Point", "coordinates": [-71.04722, 42.86278]}, "type": "Feature", "properties": {"NAME": "Indian Mound Ski Area", "OBJECTID": 347, "LONG": -71.04722, "STATE": "NEW HAMPSHIRE", "LAT": 42.86278, "TYPE": "Both"}},
{"geometry": {"type": "Point", "coordinates": [-71.14083, 44.10444]}, "type": "Feature", "properties": {"NAME": "Intervale Ski Area", "OBJECTID": 348, "LONG": -71.14083, "STATE": "NEW HAMPSHIRE", "LAT": 44.10444, "TYPE": "Both"}},
{"geometry": {"type": "Point", "coordinates": [-71.18583, 44.145]}, "type": "Feature", "properties": {"NAME": "Jackson Ski Touring Foundation", "OBJECTID": 349, "LONG": -71.18583, "STATE": "NEW HAMPSHIRE", "LAT": 44.145, "TYPE": "Alpine"}},
{"geometry": {"type": "Point", "coordinates": [-71.09167, 43.87083]}, "type": "Feature", "properties": {"NAME": "King Pine Ski Area", "OBJECTID": 350, "LONG": -71.09167, "STATE": "NEW HAMPSHIRE", "LAT": 43.87083, "TYPE": "Both"}},
{"geometry": {"type": "Point", "coordinates": [-71.99028, 43.37194]}, "type": "Feature", "properties": {"NAME": "King Ridge Ski Area", "OBJECTID": 351, "LONG": -71.99028, "STATE": "NEW HAMPSHIRE", "LAT": 43.37194, "TYPE": "Both"}},
{"geometry": {"type": "Point", "coordinates": [-71.63028, 44.05667]}, "type": "Feature", "properties": {"NAME": "Loon Mountain Ski Area", "OBJECTID": 352, "LONG": -71.63028, "STATE": "NEW HAMPSHIRE", "LAT": 44.05667, "TYPE": "Both"}},
{"geometry": {"type": "Point", "coordinates": [-71.43944, 43.00417]}, "type": "Feature", "properties": {"NAME": "McIntyre Ski Area", "OBJECTID": 353, "LONG": -71.43944, "STATE": "NEW HAMPSHIRE", "LAT": 43.00417, "TYPE": "Both"}},
{"geometry": {"type": "Point", "coordinates": [-71.07806, 43.53278]}, "type": "Feature", "properties": {"NAME": "Moose Mountain Ski Area", "OBJECTID": 354, "LONG": -71.07806, "STATE": "NEW HAMPSHIRE", "LAT": 43.53278, "TYPE": "Both"}},
{"geometry": {"type": "Point", "coordinates": [-71.09389, 44.05556]}, "type": "Feature", "properties": {"NAME": "Mount Cranmore Ski Area", "OBJECTID": 355, "LONG": -71.09389, "STATE": "NEW HAMPSHIRE", "LAT": 44.05556, "TYPE": "Both"}},
{"geometry": {"type": "Point", "coordinates": [-72.07139, 43.34056]}, "type": "Feature", "properties": {"NAME": "Mount Sunapee Ski Area", "OBJECTID": 356, "LONG": -72.07139, "STATE": "NEW HAMPSHIRE", "LAT": 43.34056, "TYPE": "Both"}},
{"geometry": {"type": "Point", "coordinates": [-71.54222, 43.96278]}, "type": "Feature", "properties": {"NAME": "Mount Tecumseh Ski Area", "OBJECTID": 357, "LONG": -71.54222, "STATE": "NEW HAMPSHIRE", "LAT": 43.96278, "TYPE": "Both"}},
{"geometry": {"type": "Point", "coordinates": [-71.21444, 43.80806]}, "type": "Feature", "properties": {"NAME": "Mount Whittier Ski Area", "OBJECTID": 358, "LONG": -71.21444, "STATE": "NEW HAMPSHIRE", "LAT": 43.80806, "TYPE": "Both"}},
{"geometry": {"type": "Point", "coordinates": [-71.14167, 44.16333]}, "type": "Feature", "properties": {"NAME": "Nestlenook Farm on the River Ski Are", "OBJECTID": 359, "LONG": -71.14167, "STATE": "NEW HAMPSHIRE", "LAT": 44.16333, "TYPE": "Both"}},
{"geometry": {"type": "Point", "coordinates": [-71.98556, 43.41389]}, "type": "Feature", "properties": {"NAME": "Norsk Cross Country Resort", "OBJECTID": 360, "LONG": -71.98556, "STATE": "NEW HAMPSHIRE", "LAT": 43.41389, "TYPE": "Alpine"}},
{"geometry": {"type": "Point", "coordinates": [-71.12139, 44.09722]}, "type": "Feature", "properties": {"NAME": "Number Five Ski Trail", "OBJECTID": 361, "LONG": -71.12139, "STATE": "NEW HAMPSHIRE", "LAT": 44.09722, "TYPE": "Alpine"}},
{"geometry": {"type": "Point", "coordinates": [-71.35417, 43.76]}, "type": "Feature", "properties": {"NAME": "Ossipee Mountain Ski Area", "OBJECTID": 362, "LONG": -71.35417, "STATE": "NEW HAMPSHIRE", "LAT": 43.76, "TYPE": "Both"}},
{"geometry": {"type": "Point", "coordinates": [-71.79667, 43.16222]}, "type": "Feature", "properties": {"NAME": "Pats Peak Ski Area", "OBJECTID": 363, "LONG": -71.79667, "STATE": "NEW HAMPSHIRE", "LAT": 43.16222, "TYPE": "Both"}},
{"geometry": {"type": "Point", "coordinates": [-72.21306, 42.97083]}, "type": "Feature", "properties": {"NAME": "Pinnacle Mountain Ski Area", "OBJECTID": 364, "LONG": -72.21306, "STATE": "NEW HAMPSHIRE", "LAT": 42.97083, "TYPE": "Both"}},
{"geometry": {"type": "Point", "coordinates": [-71.08889, 43.86111]}, "type": "Feature", "properties": {"NAME": "Purity Springs Ski Area", "OBJECTID": 365, "LONG": -71.08889, "STATE": "NEW HAMPSHIRE", "LAT": 43.86111, "TYPE": "Both"}},
{"geometry": {"type": "Point", "coordinates": [-71.84306, 43.47639]}, "type": "Feature", "properties": {"NAME": "Ragged Mountain Ski Area", "OBJECTID": 366, "LONG": -71.84306, "STATE": "NEW HAMPSHIRE", "LAT": 43.47639, "TYPE": "Both"}},
{"geometry": {"type": "Point", "coordinates": [-72.44611, 42.88861]}, "type": "Feature", "properties": {"NAME": "Roads End Farm Ski Area", "OBJECTID": 367, "LONG": -72.44611, "STATE": "NEW HAMPSHIRE", "LAT": 42.88861, "TYPE": "Both"}},
{"geometry": {"type": "Point", "coordinates": [-71.82722, 43.99722]}, "type": "Feature", "properties": {"NAME": "Snapper Ski Trail", "OBJECTID": 368, "LONG": -71.82722, "STATE": "NEW HAMPSHIRE", "LAT": 43.99722, "TYPE": "Alpine"}},
{"geometry": {"type": "Point", "coordinates": [-72.25167, 43.63389]}, "type": "Feature", "properties": {"NAME": "Storrs Hill Ski Area", "OBJECTID": 369, "LONG": -72.25167, "STATE": "NEW HAMPSHIRE", "LAT": 43.63389, "TYPE": "Both"}},
{"geometry": {"type": "Point", "coordinates": [-71.88639, 42.84444]}, "type": "Feature", "properties": {"NAME": "Temple Mountain Ski Area", "OBJECTID": 370, "LONG": -71.88639, "STATE": "NEW HAMPSHIRE", "LAT": 42.84444, "TYPE": "Both"}},
{"geometry": {"type": "Point", "coordinates": [-71.79389, 43.73583]}, "type": "Feature", "properties": {"NAME": "Tenney Mountain Ski Area", "OBJECTID": 371, "LONG": -71.79389, "STATE": "NEW HAMPSHIRE", "LAT": 43.73583, "TYPE": "Both"}},
{"geometry": {"type": "Point", "coordinates": [-71.27528, 44.26306]}, "type": "Feature", "properties": {"NAME": "Tuckerman's Ravine Ski Area", "OBJECTID": 372, "LONG": -71.27528, "STATE": "NEW HAMPSHIRE", "LAT": 44.26306, "TYPE": "Both"}},
{"geometry": {"type": "Point", "coordinates": [-71.52917, 43.96528]}, "type": "Feature", "properties": {"NAME": "Waterville Valley Ski Area", "OBJECTID": 373, "LONG": -71.52917, "STATE": "NEW HAMPSHIRE", "LAT": 43.96528, "TYPE": "Both"}},
{"geometry": {"type": "Point", "coordinates": [-71.62, 44.08722]}, "type": "Feature", "properties": {"NAME": "Whaleback Ski Resort", "OBJECTID": 374, "LONG": -71.62, "STATE": "NEW HAMPSHIRE", "LAT": 44.08722, "TYPE": "Both"}},
{"geometry": {"type": "Point", "coordinates": [-71.23528, 44.26]}, "type": "Feature", "properties": {"NAME": "Wildcat Mountain Ski Area", "OBJECTID": 375, "LONG": -71.23528, "STATE": "NEW HAMPSHIRE", "LAT": 44.26, "TYPE": "Both"}},
{"geometry": {"type": "Point", "coordinates": [-74.19972, 41.05417]}, "type": "Feature", "properties": {"NAME": "Campgaw Mountain Ski Area", "OBJECTID": 376, "LONG": -74.19972, "STATE": "NEW JERSEY", "LAT": 41.05417, "TYPE": "Both"}},
{"geometry": {"type": "Point", "coordinates": [-74.4836, 41.19833]}, "type": "Feature", "properties": {"NAME": "Hidden Valley Ski Area", "OBJECTID": 377, "LONG": -74.4836, "STATE": "NEW JERSEY", "LAT": 41.19833, "TYPE": "Both"}},
{"geometry": {"type": "Point", "coordinates": [-74.66194, 41.32056]}, "type": "Feature", "properties": {"NAME": "High Point XC Ski Trail", "OBJECTID": 378, "LONG": -74.66194, "STATE": "NEW JERSEY", "LAT": 41.32056, "TYPE": "Alpine"}},
{"geometry": {"type": "Point", "coordinates": [-74.4836, 41.19833]}, "type": "Feature", "properties": {"NAME": "Mountain Creek Ski Area", "OBJECTID": 379, "LONG": -74.4836, "STATE": "NEW JERSEY", "LAT": 41.19833, "TYPE": "Both"}},
{"geometry": {"type": "Point", "coordinates": [-105.27222, 36.38778]}, "type": "Feature", "properties": {"NAME": "Adventure Ski Trail", "OBJECTID": 380, "LONG": -105.27222, "STATE": "NEW MEXICO", "LAT": 36.38778, "TYPE": "Alpine"}},
{"geometry": {"type": "Point", "coordinates": [-105.79444, 35.79111]}, "type": "Feature", "properties": {"NAME": "Alpine Ski Trail", "OBJECTID": 381, "LONG": -105.79444, "STATE": "NEW MEXICO", "LAT": 35.79111, "TYPE": "Alpine"}},
{"geometry": {"type": "Point", "coordinates": [-105.45278, 36.59449]}, "type": "Feature", "properties": {"NAME": "Als Run Ski Area", "OBJECTID": 382, "LONG": -105.45278, "STATE": "NEW MEXICO", "LAT": 36.59449, "TYPE": "Alpine"}},
{"geometry": {"type": "Point", "coordinates": [-105.78806, 33.39722]}, "type": "Feature", "properties": {"NAME": "Ambush Ski Trail", "OBJECTID": 383, "LONG": -105.78806, "STATE": "NEW MEXICO", "LAT": 33.39722, "TYPE": "Alpine"}},
{"geometry": {"type": "Point", "coordinates": [-105.23555, 36.38033]}, "type": "Feature", "properties": {"NAME": "Angel Fire Ski Area", "OBJECTID": 384, "LONG": -105.23555, "STATE": "NEW MEXICO", "LAT": 36.38033, "TYPE": "Alpine"}},
{"geometry": {"type": "Point", "coordinates": [-105.27222, 36.38422]}, "type": "Feature", "properties": {"NAME": "Angel Fire Ski Area", "OBJECTID": 385, "LONG": -105.27222, "STATE": "NEW MEXICO", "LAT": 36.38422, "TYPE": "Both"}},
{"geometry": {"type": "Point", "coordinates": [-105.27222, 36.43778]}, "type": "Feature", "properties": {"NAME": "Arriba Ski Trail", "OBJECTID": 386, "LONG": -105.27222, "STATE": "NEW MEXICO", "LAT": 36.43778, "TYPE": "Alpine"}},
{"geometry": {"type": "Point", "coordinates": [-106.41836, 35.20701]}, "type": "Feature", "properties": {"NAME": "Aspen Bowl Ski Area", "OBJECTID": 387, "LONG": -106.41836, "STATE": "NEW MEXICO", "LAT": 35.20701, "TYPE": "Both"}},
{"geometry": {"type": "Point", "coordinates": [-106.41806, 35.20694]}, "type": "Feature", "properties": {"NAME": "Aspen Glade Ski Trail", "OBJECTID": 388, "LONG": -106.41806, "STATE": "NEW MEXICO", "LAT": 35.20694, "TYPE": "Alpine"}},
{"geometry": {"type": "Point", "coordinates": [-106.41778, 35.20694]}, "type": "Feature", "properties": {"NAME": "Aspen Narrows Ski Trail", "OBJECTID": 389, "LONG": -106.41778, "STATE": "NEW MEXICO", "LAT": 35.20694, "TYPE": "Alpine"}},
{"geometry": {"type": "Point", "coordinates": [-105.45222, 36.59444]}, "type": "Feature", "properties": {"NAME": "Baby Bear Ski Trail", "OBJECTID": 390, "LONG": -105.45222, "STATE": "NEW MEXICO", "LAT": 36.59444, "TYPE": "Alpine"}},
{"geometry": {"type": "Point", "coordinates": [-105.70417, 32.95056]}, "type": "Feature", "properties": {"NAME": "Cascade Ski Trail", "OBJECTID": 391, "LONG": -105.70417, "STATE": "NEW MEXICO", "LAT": 32.95056, "TYPE": "Alpine"}},
{"geometry": {"type": "Point", "coordinates": [-105.27222, 36.3875]}, "type": "Feature", "properties": {"NAME": "Fire Escape Ski Trail", "OBJECTID": 392, "LONG": -105.27222, "STATE": "NEW MEXICO", "LAT": 36.3875, "TYPE": "Alpine"}},
{"geometry": {"type": "Point", "coordinates": [-105.45222, 36.59556]}, "type": "Feature", "properties": {"NAME": "Midway Ski Trail", "OBJECTID": 393, "LONG": -105.45222, "STATE": "NEW MEXICO", "LAT": 36.59556, "TYPE": "Alpine"}},
{"geometry": {"type": "Point", "coordinates": [-106.3928, 35.89033]}, "type": "Feature", "properties": {"NAME": "Pajarito Mountain Ski Area", "OBJECTID": 394, "LONG": -106.3928, "STATE": "NEW MEXICO", "LAT": 35.89033, "TYPE": "Both"}},
{"geometry": {"type": "Point", "coordinates": [-105.41584, 36.70754]}, "type": "Feature", "properties": {"NAME": "Red River Ski Area", "OBJECTID": 395, "LONG": -105.41584, "STATE": "NEW MEXICO", "LAT": 36.70754, "TYPE": "Both"}},
{"geometry": {"type": "Point", "coordinates": [-105.44806, 36.85893]}, "type": "Feature", "properties": {"NAME": "Rio Costilla Ski Area", "OBJECTID": 396, "LONG": -105.44806, "STATE": "NEW MEXICO", "LAT": 36.85893, "TYPE": "Both"}},
{"geometry": {"type": "Point", "coordinates": [-105.79916, 33.39733]}, "type": "Feature", "properties": {"NAME": "Sierra Blanca Ski Area", "OBJECTID": 397, "LONG": -105.79916, "STATE": "NEW MEXICO", "LAT": 33.39733, "TYPE": "Both"}},
{"geometry": {"type": "Point", "coordinates": [-105.55195, 36.15505]}, "type": "Feature", "properties": {"NAME": "Sipapu Ski Area", "OBJECTID": 398, "LONG": -105.55195, "STATE": "NEW MEXICO", "LAT": 36.15505, "TYPE": "Both"}},
{"geometry": {"type": "Point", "coordinates": [-105.7061, 32.9493]}, "type": "Feature", "properties": {"NAME": "Ski Cloudcroft Ski Area", "OBJECTID": 399, "LONG": -105.7061, "STATE": "NEW MEXICO", "LAT": 32.9493, "TYPE": "Both"}},
{"geometry": {"type": "Point", "coordinates": [-105.78861, 33.39733]}, "type": "Feature", "properties": {"NAME": "Top Notch Ski Area", "OBJECTID": 400, "LONG": -105.78861, "STATE": "NEW MEXICO", "LAT": 33.39733, "TYPE": "Alpine"}},
{"geometry": {"type": "Point", "coordinates": [-105.78806, 33.39778]}, "type": "Feature", "properties": {"NAME": "Triple Chair Number Five Ski Trail", "OBJECTID": 401, "LONG": -105.78806, "STATE": "NEW MEXICO", "LAT": 33.39778, "TYPE": "Alpine"}},
{"geometry": {"type": "Point", "coordinates": [-105.32166, 36.55505]}, "type": "Feature", "properties": {"NAME": "Val Verde Ski Area", "OBJECTID": 402, "LONG": -105.32166, "STATE": "NEW MEXICO", "LAT": 36.55505, "TYPE": "Both"}},
{"geometry": {"type": "Point", "coordinates": [-78.71528, 42.15778]}, "type": "Feature", "properties": {"NAME": "Allegany XC Trail", "OBJECTID": 403, "LONG": -78.71528, "STATE": "NEW YORK", "LAT": 42.15778, "TYPE": "Alpine"}},
{"geometry": {"type": "Point", "coordinates": [-73.02278, 40.84389]}, "type": "Feature", "properties": {"NAME": "Bald Hill Ski Bowl", "OBJECTID": 404, "LONG": -73.02278, "STATE": "NEW YORK", "LAT": 40.84389, "TYPE": "Both"}},
{"geometry": {"type": "Point", "coordinates": [-74.49028, 42.14417]}, "type": "Feature", "properties": {"NAME": "Belleayre Ski Area", "OBJECTID": 405, "LONG": -74.49028, "STATE": "NEW YORK", "LAT": 42.14417, "TYPE": "Both"}},
{"geometry": {"type": "Point", "coordinates": [-74.46444, 44.22389]}, "type": "Feature", "properties": {"NAME": "Big Tupper Ski Area", "OBJECTID": 406, "LONG": -74.46444, "STATE": "NEW YORK", "LAT": 44.22389, "TYPE": "Both"}},
{"geometry": {"type": "Point", "coordinates": [-74.78611, 42.18861]}, "type": "Feature", "properties": {"NAME": "Bob Cat Ski Center", "OBJECTID": 407, "LONG": -74.78611, "STATE": "NEW YORK", "LAT": 42.18861, "TYPE": "Both"}},
{"geometry": {"type": "Point", "coordinates": [-78.71639, 42.10111]}, "type": "Feature", "properties": {"NAME": "Bova Ski Tow", "OBJECTID": 408, "LONG": -78.71639, "STATE": "NEW YORK", "LAT": 42.10111, "TYPE": "Both"}},
{"geometry": {"type": "Point", "coordinates": [-77.06917, 43.1475]}, "type": "Feature", "properties": {"NAME": "Brantling Ski Area", "OBJECTID": 409, "LONG": -77.06917, "STATE": "NEW YORK", "LAT": 43.1475, "TYPE": "Both"}},
{"geometry": {"type": "Point", "coordinates": [-77.28833, 42.87417]}, "type": "Feature", "properties": {"NAME": "Bristol Mountain Ski Area", "OBJECTID": 410, "LONG": -77.28833, "STATE": "NEW YORK", "LAT": 42.87417, "TYPE": "Both"}},
{"geometry": {"type": "Point", "coordinates": [-78.31, 42.76333]}, "type": "Feature", "properties": {"NAME": "Byrncliff Resort Ski Area", "OBJECTID": 411, "LONG": -78.31, "STATE": "NEW YORK", "LAT": 42.76333, "TYPE": "Both"}},
{"geometry": {"type": "Point", "coordinates": [-73.52639, 42.17889]}, "type": "Feature", "properties": {"NAME": "Catamount Ski Area", "OBJECTID": 412, "LONG": -73.52639, "STATE": "NEW YORK", "LAT": 42.17889, "TYPE": "Both"}},
{"geometry": {"type": "Point", "coordinates": [-79.1, 42.29444]}, "type": "Feature", "properties": {"NAME": "Cockaigne Ski Area", "OBJECTID": 413, "LONG": -79.1, "STATE": "NEW YORK", "LAT": 42.29444, "TYPE": "Both"}},
{"geometry": {"type": "Point", "coordinates": [-74.0975, 42.19583]}, "type": "Feature", "properties": {"NAME": "Cortina Valley Ski Area", "OBJECTID": 414, "LONG": -74.0975, "STATE": "NEW YORK", "LAT": 42.19583, "TYPE": "Both"}},
{"geometry": {"type": "Point", "coordinates": [-75.91111, 43.97472]}, "type": "Feature", "properties": {"NAME": "Dry Hill Ski Area", "OBJECTID": 415, "LONG": -75.91111, "STATE": "NEW YORK", "LAT": 43.97472, "TYPE": "Both"}},
{"geometry": {"type": "Point", "coordinates": [-73.81833, 41.47528]}, "type": "Feature", "properties": {"NAME": "Fahnestock Ski Slope", "OBJECTID": 416, "LONG": -73.81833, "STATE": "NEW YORK", "LAT": 41.47528, "TYPE": "Both"}},
{"geometry": {"type": "Point", "coordinates": [-76.00472, 43.02972]}, "type": "Feature", "properties": {"NAME": "Four Seasons Ski Area", "OBJECTID": 417, "LONG": -76.00472, "STATE": "NEW YORK", "LAT": 43.02972, "TYPE": "Both"}},
{"geometry": {"type": "Point", "coordinates": [-73.84278, 43.62944]}, "type": "Feature", "properties": {"NAME": "Friends Lake Inn XC Trail", "OBJECTID": 418, "LONG": -73.84278, "STATE": "NEW YORK", "LAT": 43.62944, "TYPE": "Cross-Country"}},
{"geometry": {"type": "Point", "coordinates": [-77.98444, 42.97833]}, "type": "Feature", "properties": {"NAME": "Frost Ridge Ski Area", "OBJECTID": 419, "LONG": -77.98444, "STATE": "NEW YORK", "LAT": 42.97833, "TYPE": "Both"}},
{"geometry": {"type": "Point", "coordinates": [-74.04917, 43.73861]}, "type": "Feature", "properties": {"NAME": "Garnett Hill XC Ski Trail", "OBJECTID": 420, "LONG": -74.04917, "STATE": "NEW YORK", "LAT": 43.73861, "TYPE": "Cross-Country"}},
{"geometry": {"type": "Point", "coordinates": [-74.03556, 43.67639]}, "type": "Feature", "properties": {"NAME": "Gore Mountain Ski Area", "OBJECTID": 421, "LONG": -74.03556, "STATE": "NEW YORK", "LAT": 43.67639, "TYPE": "Both"}},
{"geometry": {"type": "Point", "coordinates": [-76.18083, 42.60111]}, "type": "Feature", "properties": {"NAME": "Greek Peak Ski Area", "OBJECTID": 422, "LONG": -76.18083, "STATE": "NEW YORK", "LAT": 42.60111, "TYPE": "Both"}},
{"geometry": {"type": "Point", "coordinates": [-73.94, 42.81417]}, "type": "Feature", "properties": {"NAME": "Hickory Ski Area", "OBJECTID": 423, "LONG": -73.94, "STATE": "NEW YORK", "LAT": 42.81417, "TYPE": "Both"}},
{"geometry": {"type": "Point", "coordinates": [-74.68972, 41.65556]}, "type": "Feature", "properties": {"NAME": "Holiday Mountain Ski Area", "OBJECTID": 424, "LONG": -74.68972, "STATE": "NEW YORK", "LAT": 41.65556, "TYPE": "Both"}},
{"geometry": {"type": "Point", "coordinates": [-78.68, 42.26194]}, "type": "Feature", "properties": {"NAME": "Holiday Valley Ski Area", "OBJECTID": 425, "LONG": -78.68, "STATE": "NEW YORK", "LAT": 42.26194, "TYPE": "Alpine"}},
{"geometry": {"type": "Point", "coordinates": [-78.68, 42.26194]}, "type": "Feature", "properties": {"NAME": "Holiday Valley Ski Club", "OBJECTID": 426, "LONG": -78.68, "STATE": "NEW YORK", "LAT": 42.26194, "TYPE": "Alpine"}},
{"geometry": {"type": "Point", "coordinates": [-78.68889, 42.2725]}, "type": "Feature", "properties": {"NAME": "Holimont Ski Area", "OBJECTID": 427, "LONG": -78.68889, "STATE": "NEW YORK", "LAT": 42.2725, "TYPE": "Both"}},
{"geometry": {"type": "Point", "coordinates": [-78.68889, 42.2725]}, "type": "Feature", "properties": {"NAME": "Holimont Ski Club", "OBJECTID": 428, "LONG": -78.68889, "STATE": "NEW YORK", "LAT": 42.2725, "TYPE": "Alpine"}},
{"geometry": {"type": "Point", "coordinates": [-77.40278, 42.61528]}, "type": "Feature", "properties": {"NAME": "Hunt Hollow Ski Area", "OBJECTID": 429, "LONG": -77.40278, "STATE": "NEW YORK", "LAT": 42.61528, "TYPE": "Both"}},
{"geometry": {"type": "Point", "coordinates": [-74.23083, 42.17778]}, "type": "Feature", "properties": {"NAME": "Hunter Mountain Ski area", "OBJECTID": 430, "LONG": -74.23083, "STATE": "NEW YORK", "LAT": 42.17778, "TYPE": "Both"}},
{"geometry": {"type": "Point", "coordinates": [-78.65806, 42.61917]}, "type": "Feature", "properties": {"NAME": "Kissing Bridge Ski Area", "OBJECTID": 431, "LONG": -78.65806, "STATE": "NEW YORK", "LAT": 42.61917, "TYPE": "Both"}},
{"geometry": {"type": "Point", "coordinates": [-76.07417, 42.75722]}, "type": "Feature", "properties": {"NAME": "Labrador Mountain Ski Area", "OBJECTID": 432, "LONG": -76.07417, "STATE": "NEW YORK", "LAT": 42.75722, "TYPE": "Both"}},
{"geometry": {"type": "Point", "coordinates": [-74.1725, 43.22556]}, "type": "Feature", "properties": {"NAME": "Lapland Lake Ski Area", "OBJECTID": 433, "LONG": -74.1725, "STATE": "NEW YORK", "LAT": 43.22556, "TYPE": "Both"}},
{"geometry": {"type": "Point", "coordinates": [-73.94, 42.81417]}, "type": "Feature", "properties": {"NAME": "Maple Ski Ridge", "OBJECTID": 434, "LONG": -73.94, "STATE": "NEW YORK", "LAT": 42.81417, "TYPE": "Both"}},
{"geometry": {"type": "Point", "coordinates": [-74.89, 43.39583]}, "type": "Feature", "properties": {"NAME": "McCauley Mt. Ski Area", "OBJECTID": 435, "LONG": -74.89, "STATE": "NEW YORK", "LAT": 43.39583, "TYPE": "Both"}},
{"geometry": {"type": "Point", "coordinates": [-74.29111, 41.24139]}, "type": "Feature", "properties": {"NAME": "Mount Peter Ski Area", "OBJECTID": 436, "LONG": -74.29111, "STATE": "NEW YORK", "LAT": 41.24139, "TYPE": "Both"}},
{"geometry": {"type": "Point", "coordinates": [-74.12583, 44.34528]}, "type": "Feature", "properties": {"NAME": "Mount Pisgah Ski Area", "OBJECTID": 437, "LONG": -74.12583, "STATE": "NEW YORK", "LAT": 44.34528, "TYPE": "Both"}},
{"geometry": {"type": "Point", "coordinates": [-73.98028, 44.27944]}, "type": "Feature", "properties": {"NAME": "Mt. Vanhoevenberg XC Ski Trail", "OBJECTID": 438, "LONG": -73.98028, "STATE": "NEW YORK", "LAT": 44.27944, "TYPE": "Cross-Country"}},
{"geometry": {"type": "Point", "coordinates": [-77.93944, 43.21361]}, "type": "Feature", "properties": {"NAME": "North Hampton Park Ski Area", "OBJECTID": 439, "LONG": -77.93944, "STATE": "NEW YORK", "LAT": 43.21361, "TYPE": "Both"}},
{"geometry": {"type": "Point", "coordinates": [-73.965, 44.25639]}, "type": "Feature", "properties": {"NAME": "Olympic Ski Jump", "OBJECTID": 440, "LONG": -73.965, "STATE": "NEW YORK", "LAT": 44.25639, "TYPE": "Both"}},
{"geometry": {"type": "Point", "coordinates": [-73.75556, 44.38111]}, "type": "Feature", "properties": {"NAME": "Paleface Ski Center", "OBJECTID": 441, "LONG": -73.75556, "STATE": "NEW YORK", "LAT": 44.38111, "TYPE": "Both"}},
{"geometry": {"type": "Point", "coordinates": [-79.73278, 42.11917]}, "type": "Feature", "properties": {"NAME": "Peek n Peak Ski Area", "OBJECTID": 442, "LONG": -79.73278, "STATE": "NEW YORK", "LAT": 42.11917, "TYPE": "Both"}},
{"geometry": {"type": "Point", "coordinates": [-78.69583, 42.31556]}, "type": "Feature", "properties": {"NAME": "Poverty Hill Ski Club", "OBJECTID": 443, "LONG": -78.69583, "STATE": "NEW YORK", "LAT": 42.31556, "TYPE": "Both"}},
{"geometry": {"type": "Point", "coordinates": [-76.42944, 42.94694]}, "type": "Feature", "properties": {"NAME": "Skaneateles Ski Area", "OBJECTID": 444, "LONG": -76.42944, "STATE": "NEW YORK", "LAT": 42.94694, "TYPE": "Both"}},
{"geometry": {"type": "Point", "coordinates": [-74.64861, 42.26667]}, "type": "Feature", "properties": {"NAME": "Ski Plattekill Ski Area", "OBJECTID": 445, "LONG": -74.64861, "STATE": "NEW YORK", "LAT": 42.26667, "TYPE": "Both"}},
{"geometry": {"type": "Point", "coordinates": [-78.685, 42.64417]}, "type": "Feature", "properties": {"NAME": "Ski Tamarack Ski Area", "OBJECTID": 446, "LONG": -78.685, "STATE": "NEW YORK", "LAT": 42.64417, "TYPE": "Both"}},
{"geometry": {"type": "Point", "coordinates": [-77.40278, 42.61528]}, "type": "Feature", "properties": {"NAME": "Ski Valley Club", "OBJECTID": 447, "LONG": -77.40278, "STATE": "NEW YORK", "LAT": 42.61528, "TYPE": "Both"}},
{"geometry": {"type": "Point", "coordinates": [-75.41167, 43.62722]}, "type": "Feature", "properties": {"NAME": "Snow Ridge Ski Area", "OBJECTID": 448, "LONG": -75.41167, "STATE": "NEW YORK", "LAT": 43.62722, "TYPE": "Both"}},
{"geometry": {"type": "Point", "coordinates": [-76.10972, 42.79806]}, "type": "Feature", "properties": {"NAME": "Song Mountain Ski Area", "OBJECTID": 449, "LONG": -76.10972, "STATE": "NEW YORK", "LAT": 42.79806, "TYPE": "Both"}},
{"geometry": {"type": "Point", "coordinates": [-74.31917, 41.1825]}, "type": "Feature", "properties": {"NAME": "Sterling Forest Ski Area", "OBJECTID": 450, "LONG": -74.31917, "STATE": "NEW YORK", "LAT": 41.1825, "TYPE": "Both"}},
{"geometry": {"type": "Point", "coordinates": [-77.85361, 42.47778]}, "type": "Feature", "properties": {"NAME": "Swain Ski Area", "OBJECTID": 451, "LONG": -77.85361, "STATE": "NEW YORK", "LAT": 42.47778, "TYPE": "Both"}},
{"geometry": {"type": "Point", "coordinates": [-73.27917, 42.72222]}, "type": "Feature", "properties": {"NAME": "Taconic Trails Ski Area", "OBJECTID": 452, "LONG": -73.27917, "STATE": "NEW YORK", "LAT": 42.72222, "TYPE": "Both"}},
{"geometry": {"type": "Point", "coordinates": [-73.60667, 41.51361]}, "type": "Feature", "properties": {"NAME": "Thunder Ridge Ski Area", "OBJECTID": 453, "LONG": -73.60667, "STATE": "NEW YORK", "LAT": 41.51361, "TYPE": "Both"}},
{"geometry": {"type": "Point", "coordinates": [-74.23778, 44.72611]}, "type": "Feature", "properties": {"NAME": "Titus Mountain Ski Area", "OBJECTID": 454, "LONG": -74.23778, "STATE": "NEW YORK", "LAT": 44.72611, "TYPE": "Both"}},
{"geometry": {"type": "Point", "coordinates": [-75.98639, 42.835]}, "type": "Feature", "properties": {"NAME": "Toggenberg Ski Area", "OBJECTID": 455, "LONG": -75.98639, "STATE": "NEW YORK", "LAT": 42.835, "TYPE": "Both"}},
{"geometry": {"type": "Point", "coordinates": [-73.81583, 43.30944]}, "type": "Feature", "properties": {"NAME": "West Mountain Ski Area", "OBJECTID": 456, "LONG": -73.81583, "STATE": "NEW YORK", "LAT": 43.30944, "TYPE": "Both"}},
{"geometry": {"type": "Point", "coordinates": [-73.81583, 44.38833]}, "type": "Feature", "properties": {"NAME": "White Face Mountain Ski Area", "OBJECTID": 457, "LONG": -73.81583, "STATE": "NEW YORK", "LAT": 44.38833, "TYPE": "Both"}},
{"geometry": {"type": "Point", "coordinates": [-73.52361, 43.02]}, "type": "Feature", "properties": {"NAME": "Willard Mountain Ski Area", "OBJECTID": 458, "LONG": -73.52361, "STATE": "NEW YORK", "LAT": 43.02, "TYPE": "Both"}},
{"geometry": {"type": "Point", "coordinates": [-74.25972, 42.29167]}, "type": "Feature", "properties": {"NAME": "Windham Ski Area", "OBJECTID": 459, "LONG": -74.25972, "STATE": "NEW YORK", "LAT": 42.29167, "TYPE": "Both"}},
{"geometry": {"type": "Point", "coordinates": [-75.38333, 43.30556]}, "type": "Feature", "properties": {"NAME": "Woods Valley Ski Area", "OBJECTID": 460, "LONG": -75.38333, "STATE": "NEW YORK", "LAT": 43.30556, "TYPE": "Both"}},
{"geometry": {"type": "Point", "coordinates": [-81.55278, 41.24111]}, "type": "Feature", "properties": {"NAME": "Alpine Valley Ski Area", "OBJECTID": 461, "LONG": -81.55278, "STATE": "OHIO", "LAT": 41.24111, "TYPE": "Both"}},
{"geometry": {"type": "Point", "coordinates": [-81.53833, 41.27611]}, "type": "Feature", "properties": {"NAME": "Boston Mills Ski Area", "OBJECTID": 462, "LONG": -81.53833, "STATE": "OHIO", "LAT": 41.27611, "TYPE": "Both"}},
{"geometry": {"type": "Point", "coordinates": [-82.425, 40.58833]}, "type": "Feature", "properties": {"NAME": "Clear Fork Ski Resort", "OBJECTID": 463, "LONG": -82.425, "STATE": "OHIO", "LAT": 40.58833, "TYPE": "Both"}},
{"geometry": {"type": "Point", "coordinates": [-83.75972, 40.36111]}, "type": "Feature", "properties": {"NAME": "Mad River Mountain Ski Area", "OBJECTID": 464, "LONG": -83.75972, "STATE": "OHIO", "LAT": 40.36111, "TYPE": "Both"}},
{"geometry": {"type": "Point", "coordinates": [-82.51556, 40.75833]}, "type": "Feature", "properties": {"NAME": "Snowtrails Ski Area", "OBJECTID": 465, "LONG": -82.51556, "STATE": "OHIO", "LAT": 40.75833, "TYPE": "Both"}},
{"geometry": {"type": "Point", "coordinates": [-83.24667, 39.09889]}, "type": "Feature", "properties": {"NAME": "Spicy Run Ski Area", "OBJECTID": 466, "LONG": -83.24667, "STATE": "OHIO", "LAT": 39.09889, "TYPE": "Both"}},
{"geometry": {"type": "Point", "coordinates": [-83.675, 40.31333]}, "type": "Feature", "properties": {"NAME": "Valley Hi Ski Area", "OBJECTID": 467, "LONG": -83.675, "STATE": "OHIO", "LAT": 40.31333, "TYPE": "Both"}},
{"geometry": {"type": "Point", "coordinates": [-121.73139, 45.31889]}, "type": "Feature", "properties": {"NAME": "Alpine Ski Trail", "OBJECTID": 468, "LONG": -121.73139, "STATE": "OREGON", "LAT": 45.31889, "TYPE": "Alpine"}},
{"geometry": {"type": "Point", "coordinates": [-118.23521, 44.96403]}, "type": "Feature", "properties": {"NAME": "Anthony Lakes Ski Area", "OBJECTID": 469, "LONG": -118.23521, "STATE": "OREGON", "LAT": 44.96403, "TYPE": "Both"}},
{"geometry": {"type": "Point", "coordinates": [-119.24275, 45.19596]}, "type": "Feature", "properties": {"NAME": "Arbuckle Ski Area", "OBJECTID": 470, "LONG": -119.24275, "STATE": "OREGON", "LAT": 45.19596, "TYPE": "Both"}},
{"geometry": {"type": "Point", "coordinates": [-121.60559, 45.4126]}, "type": "Feature", "properties": {"NAME": "Cooper Spur Ski Area", "OBJECTID": 471, "LONG": -121.60559, "STATE": "OREGON", "LAT": 45.4126, "TYPE": "Both"}},
{"geometry": {"type": "Point", "coordinates": [-121.63083, 45.40472]}, "type": "Feature", "properties": {"NAME": "Cooper Spur Ski Trail", "OBJECTID": 472, "LONG": -121.63083, "STATE": "OREGON", "LAT": 45.40472, "TYPE": "Alpine"}},
{"geometry": {"type": "Point", "coordinates": [-121.80806, 43.97889]}, "type": "Feature", "properties": {"NAME": "Elk Lake Resort", "OBJECTID": 473, "LONG": -121.80806, "STATE": "OREGON", "LAT": 43.97889, "TYPE": "Both"}},
{"geometry": {"type": "Point", "coordinates": [-121.735, 45.32083]}, "type": "Feature", "properties": {"NAME": "Glade Ski Trail", "OBJECTID": 474, "LONG": -121.735, "STATE": "OREGON", "LAT": 45.32083, "TYPE": "Alpine"}},
{"geometry": {"type": "Point", "coordinates": [-121.87333, 44.40917]}, "type": "Feature", "properties": {"NAME": "Hoodoo Ski Area", "OBJECTID": 475, "LONG": -121.87333, "STATE": "OREGON", "LAT": 44.40917, "TYPE": "Both"}},
{"geometry": {"type": "Point", "coordinates": [-122.70945, 42.08317]}, "type": "Feature", "properties": {"NAME": "Mount Ashland Ski Area", "OBJECTID": 476, "LONG": -122.70945, "STATE": "OREGON", "LAT": 42.08317, "TYPE": "Both"}},
{"geometry": {"type": "Point", "coordinates": [-121.66365, 45.33121]}, "type": "Feature", "properties": {"NAME": "Mount Hood Meadow Ski Area", "OBJECTID": 477, "LONG": -121.66365, "STATE": "OREGON", "LAT": 45.33121, "TYPE": "Both"}},
{"geometry": {"type": "Point", "coordinates": [-121.68028, 43.99528]}, "type": "Feature", "properties": {"NAME": "Mt. Bachelor Ski Area", "OBJECTID": 478, "LONG": -121.68028, "STATE": "OREGON", "LAT": 43.99528, "TYPE": "Both"}},
{"geometry": {"type": "Point", "coordinates": [-122.21944, 43.15528]}, "type": "Feature", "properties": {"NAME": "Mt. Bailey Snowcat Skiing", "OBJECTID": 479, "LONG": -122.21944, "STATE": "OREGON", "LAT": 43.15528, "TYPE": "Both"}},
{"geometry": {"type": "Point", "coordinates": [-121.76861, 45.29472]}, "type": "Feature", "properties": {"NAME": "Mt. Hood Skibowl", "OBJECTID": 480, "LONG": -121.76861, "STATE": "OREGON", "LAT": 45.29472, "TYPE": "Both"}},
{"geometry": {"type": "Point", "coordinates": [-121.96361, 43.54917]}, "type": "Feature", "properties": {"NAME": "Shelter Cove Resort - Odell Lake", "OBJECTID": 481, "LONG": -121.96361, "STATE": "OREGON", "LAT": 43.54917, "TYPE": "Both"}},
{"geometry": {"type": "Point", "coordinates": [-118.05161, 45.75403]}, "type": "Feature", "properties": {"NAME": "Spout Springs Ski Area", "OBJECTID": 482, "LONG": -118.05161, "STATE": "OREGON", "LAT": 45.75403, "TYPE": "Both"}},
{"geometry": {"type": "Point", "coordinates": [-121.75361, 45.30417]}, "type": "Feature", "properties": {"NAME": "Summit Ski Area", "OBJECTID": 483, "LONG": -121.75361, "STATE": "OREGON", "LAT": 45.30417, "TYPE": "Both"}},
{"geometry": {"type": "Point", "coordinates": [-122.28389, 42.39639]}, "type": "Feature", "properties": {"NAME": "Summit Sno-Park", "OBJECTID": 484, "LONG": -122.28389, "STATE": "OREGON", "LAT": 42.39639, "TYPE": "Both"}},
{"geometry": {"type": "Point", "coordinates": [-121.4375, 43.88417]}, "type": "Feature", "properties": {"NAME": "Sunriver Resort", "OBJECTID": 485, "LONG": -121.4375, "STATE": "OREGON", "LAT": 43.88417, "TYPE": "Both"}},
{"geometry": {"type": "Point", "coordinates": [-121.72833, 45.40306]}, "type": "Feature", "properties": {"NAME": "Timberline Ski Area", "OBJECTID": 486, "LONG": -121.72833, "STATE": "OREGON", "LAT": 45.40306, "TYPE": "Both"}},
{"geometry": {"type": "Point", "coordinates": [-120.29689, 42.23736]}, "type": "Feature", "properties": {"NAME": "Warner Canyon Ski Area", "OBJECTID": 487, "LONG": -120.29689, "STATE": "OREGON", "LAT": 42.23736, "TYPE": "Both"}},
{"geometry": {"type": "Point", "coordinates": [-122.03169, 43.60177]}, "type": "Feature", "properties": {"NAME": "Willamette Pass Ski Area", "OBJECTID": 488, "LONG": -122.03169, "STATE": "OREGON", "LAT": 43.60177, "TYPE": "Both"}},
{"geometry": {"type": "Point", "coordinates": [-75.23, 41.11083]}, "type": "Feature", "properties": {"NAME": "Alpine Mountain Ski Area", "OBJECTID": 489, "LONG": -75.23, "STATE": "PENNSYLVANIA", "LAT": 41.11083, "TYPE": "Both"}},
{"geometry": {"type": "Point", "coordinates": [-75.60861, 40.63139]}, "type": "Feature", "properties": {"NAME": "Apple Hill Ski Resort", "OBJECTID": 490, "LONG": -75.60861, "STATE": "PENNSYLVANIA", "LAT": 40.63139, "TYPE": "Both"}},
{"geometry": {"type": "Point", "coordinates": [-75.55556, 40.51583]}, "type": "Feature", "properties": {"NAME": "Bear Creek Ski Area", "OBJECTID": 491, "LONG": -75.55556, "STATE": "PENNSYLVANIA", "LAT": 40.51583, "TYPE": "Both"}},
{"geometry": {"type": "Point", "coordinates": [-75.60056, 41.05]}, "type": "Feature", "properties": {"NAME": "Big Boulder Ski Resort", "OBJECTID": 492, "LONG": -75.60056, "STATE": "PENNSYLVANIA", "LAT": 41.05, "TYPE": "Both"}},
{"geometry": {"type": "Point", "coordinates": [-78.56194, 40.28833]}, "type": "Feature", "properties": {"NAME": "Blue Knob Ski Area", "OBJECTID": 493, "LONG": -78.56194, "STATE": "PENNSYLVANIA", "LAT": 40.28833, "TYPE": "Both"}},
{"geometry": {"type": "Point", "coordinates": [-75.61056, 40.80139]}, "type": "Feature", "properties": {"NAME": "Blue Mountain Ski Area", "OBJECTID": 494, "LONG": -75.61056, "STATE": "PENNSYLVANIA", "LAT": 40.80139, "TYPE": "Both"}},
{"geometry": {"type": "Point", "coordinates": [-79.74944, 40.46778]}, "type": "Feature", "properties": {"NAME": "Boyce Park Ski Area", "OBJECTID": 495, "LONG": -79.74944, "STATE": "PENNSYLVANIA", "LAT": 40.46778, "TYPE": "Both"}},
{"geometry": {"type": "Point", "coordinates": [-75.35556, 41.04778]}, "type": "Feature", "properties": {"NAME": "Camelback Ski Area", "OBJECTID": 496, "LONG": -75.35556, "STATE": "PENNSYLVANIA", "LAT": 41.04778, "TYPE": "Both"}},
{"geometry": {"type": "Point", "coordinates": [-79.85833, 41.83222]}, "type": "Feature", "properties": {"NAME": "Canadohta Ski Slope", "OBJECTID": 497, "LONG": -79.85833, "STATE": "PENNSYLVANIA", "LAT": 41.83222, "TYPE": "Both"}},
{"geometry": {"type": "Point", "coordinates": [-75.62167, 39.87139]}, "type": "Feature", "properties": {"NAME": "Chadds Peak Camp and Ski School", "OBJECTID": 498, "LONG": -75.62167, "STATE": "PENNSYLVANIA", "LAT": 39.87139, "TYPE": "Both"}},
{"geometry": {"type": "Point", "coordinates": [-76.72417, 41.24111]}, "type": "Feature", "properties": {"NAME": "Crystal Lake Ski Area", "OBJECTID": 499, "LONG": -76.72417, "STATE": "PENNSYLVANIA", "LAT": 41.24111, "TYPE": "Both"}},
{"geometry": {"type": "Point", "coordinates": [-77.83194, 41.77222]}, "type": "Feature", "properties": {"NAME": "Denton Hill Ski Area", "OBJECTID": 500, "LONG": -77.83194, "STATE": "PENNSYLVANIA", "LAT": 41.77222, "TYPE": "Both"}},
{"geometry": {"type": "Point", "coordinates": [-75.62889, 40.47528]}, "type": "Feature", "properties": {"NAME": "Doe Mountain Ski Area", "OBJECTID": 501, "LONG": -75.62889, "STATE": "PENNSYLVANIA", "LAT": 40.47528, "TYPE": "Both"}},
{"geometry": {"type": "Point", "coordinates": [-75.975, 40.95833]}, "type": "Feature", "properties": {"NAME": "Eagle Rock Ski Area", "OBJECTID": 502, "LONG": -75.975, "STATE": "PENNSYLVANIA", "LAT": 40.95833, "TYPE": "Both"}},
{"geometry": {"type": "Point", "coordinates": [-75.5575, 41.72]}, "type": "Feature", "properties": {"NAME": "Elk Mountain Ski Center", "OBJECTID": 503, "LONG": -75.5575, "STATE": "PENNSYLVANIA", "LAT": 41.72, "TYPE": "Both"}},
{"geometry": {"type": "Point", "coordinates": [-75.01667, 41.07972]}, "type": "Feature", "properties": {"NAME": "Fernwood Ski Area (historical)", "OBJECTID": 504, "LONG": -75.01667, "STATE": "PENNSYLVANIA", "LAT": 41.07972, "TYPE": "Both"}},
{"geometry": {"type": "Point", "coordinates": [-79.24083, 39.76139]}, "type": "Feature", "properties": {"NAME": "Glade Knob Ski Slope", "OBJECTID": 505, "LONG": -79.24083, "STATE": "PENNSYLVANIA", "LAT": 39.76139, "TYPE": "Both"}},
{"geometry": {"type": "Point", "coordinates": [-79.2575, 40.05806]}, "type": "Feature", "properties": {"NAME": "Hidden Valley Ski Area", "OBJECTID": 506, "LONG": -79.2575, "STATE": "PENNSYLVANIA", "LAT": 40.05806, "TYPE": "Both"}},
{"geometry": {"type": "Point", "coordinates": [-75.65361, 41.10778]}, "type": "Feature", "properties": {"NAME": "Jack Frost Mountain Ski Area", "OBJECTID": 507, "LONG": -75.65361, "STATE": "PENNSYLVANIA", "LAT": 41.10778, "TYPE": "Both"}},
{"geometry": {"type": "Point", "coordinates": [-79.16806, 40.15639]}, "type": "Feature", "properties": {"NAME": "Laurel Mountain Ski Resort", "OBJECTID": 508, "LONG": -79.16806, "STATE": "PENNSYLVANIA", "LAT": 40.15639, "TYPE": "Both"}},
{"geometry": {"type": "Point", "coordinates": [-75.52, 40.81]}, "type": "Feature", "properties": {"NAME": "Little Gap Ski Area", "OBJECTID": 509, "LONG": -75.52, "STATE": "PENNSYLVANIA", "LAT": 40.81, "TYPE": "Both"}},
{"geometry": {"type": "Point", "coordinates": [-75.03139, 41.51417]}, "type": "Feature", "properties": {"NAME": "Masthope Ski Area", "OBJECTID": 510, "LONG": -75.03139, "STATE": "PENNSYLVANIA", "LAT": 41.51417, "TYPE": "Both"}},
{"geometry": {"type": "Point", "coordinates": [-75.67056, 41.35833]}, "type": "Feature", "properties": {"NAME": "Montage Ski Area", "OBJECTID": 511, "LONG": -75.67056, "STATE": "PENNSYLVANIA", "LAT": 41.35833, "TYPE": "Both"}},
{"geometry": {"type": "Point", "coordinates": [-75.32333, 41.10667]}, "type": "Feature", "properties": {"NAME": "Mount Airy Lodge Ski Area", "OBJECTID": 512, "LONG": -75.32333, "STATE": "PENNSYLVANIA", "LAT": 41.10667, "TYPE": "Both"}},
{"geometry": {"type": "Point", "coordinates": [-80.07417, 41.85222]}, "type": "Feature", "properties": {"NAME": "Mount Pleasant Ski Resort", "OBJECTID": 513, "LONG": -80.07417, "STATE": "PENNSYLVANIA", "LAT": 41.85222, "TYPE": "Both"}},
{"geometry": {"type": "Point", "coordinates": [-75.30333, 41.84583]}, "type": "Feature", "properties": {"NAME": "Mount Tone Ski Area", "OBJECTID": 514, "LONG": -75.30333, "STATE": "PENNSYLVANIA", "LAT": 41.84583, "TYPE": "Both"}},
{"geometry": {"type": "Point", "coordinates": [-80.13194, 41.87417]}, "type": "Feature", "properties": {"NAME": "Mt. View Ski Area", "OBJECTID": 515, "LONG": -80.13194, "STATE": "PENNSYLVANIA", "LAT": 41.87417, "TYPE": "Both"}},
{"geometry": {"type": "Point", "coordinates": [-79.925, 39.87833]}, "type": "Feature", "properties": {"NAME": "Mystic Mountain Ski Area", "OBJECTID": 516, "LONG": -79.925, "STATE": "PENNSYLVANIA", "LAT": 39.87833, "TYPE": "Both"}},
{"geometry": {"type": "Point", "coordinates": [-79.22861, 40.07222]}, "type": "Feature", "properties": {"NAME": "Plateau De Mount Ski Area", "OBJECTID": 517, "LONG": -79.22861, "STATE": "PENNSYLVANIA", "LAT": 40.07222, "TYPE": "Both"}},
{"geometry": {"type": "Point", "coordinates": [-75.35667, 41.0975]}, "type": "Feature", "properties": {"NAME": "Pocono Manor Ski Area", "OBJECTID": 518, "LONG": -75.35667, "STATE": "PENNSYLVANIA", "LAT": 41.0975, "TYPE": "Both"}},
{"geometry": {"type": "Point", "coordinates": [-77.91389, 39.95778]}, "type": "Feature", "properties": {"NAME": "Richmond Hill Ski Area", "OBJECTID": 519, "LONG": -77.91389, "STATE": "PENNSYLVANIA", "LAT": 39.95778, "TYPE": "Both"}},
{"geometry": {"type": "Point", "coordinates": [-75.045, 41.12083]}, "type": "Feature", "properties": {"NAME": "Saw Creek Ski Area", "OBJECTID": 520, "LONG": -75.045, "STATE": "PENNSYLVANIA", "LAT": 41.12083, "TYPE": "Both"}},
{"geometry": {"type": "Point", "coordinates": [-79.2975, 40.02306]}, "type": "Feature", "properties": {"NAME": "Seven Springs Ski Area", "OBJECTID": 521, "LONG": -79.2975, "STATE": "PENNSYLVANIA", "LAT": 40.02306, "TYPE": "Both"}},
{"geometry": {"type": "Point", "coordinates": [-75.07861, 41.03806]}, "type": "Feature", "properties": {"NAME": "Shawnee Mountain Ski Area", "OBJECTID": 522, "LONG": -75.07861, "STATE": "PENNSYLVANIA", "LAT": 41.03806, "TYPE": "Both"}},
{"geometry": {"type": "Point", "coordinates": [-74.98639, 41.48194]}, "type": "Feature", "properties": {"NAME": "Ski Big Bear Ski Area", "OBJECTID": 523, "LONG": -74.98639, "STATE": "PENNSYLVANIA", "LAT": 41.48194, "TYPE": "Both"}},
{"geometry": {"type": "Point", "coordinates": [-77.37111, 39.75972]}, "type": "Feature", "properties": {"NAME": "Ski Liberty Ski Area", "OBJECTID": 524, "LONG": -77.37111, "STATE": "PENNSYLVANIA", "LAT": 39.75972, "TYPE": "Both"}},
{"geometry": {"type": "Point", "coordinates": [-76.92667, 40.10667]}, "type": "Feature", "properties": {"NAME": "Ski Roundtop Ski Area", "OBJECTID": 525, "LONG": -76.92667, "STATE": "PENNSYLVANIA", "LAT": 40.10667, "TYPE": "Both"}},
{"geometry": {"type": "Point", "coordinates": [-77.29111, 41.52389]}, "type": "Feature", "properties": {"NAME": "Ski Sawmill Ski Area", "OBJECTID": 526, "LONG": -77.29111, "STATE": "PENNSYLVANIA", "LAT": 41.52389, "TYPE": "Both"}},
{"geometry": {"type": "Point", "coordinates": [-77.24667, 40.545]}, "type": "Feature", "properties": {"NAME": "Ski Snowpeak", "OBJECTID": 527, "LONG": -77.24667, "STATE": "PENNSYLVANIA", "LAT": 40.545, "TYPE": "Both"}},
{"geometry": {"type": "Point", "coordinates": [-80.00306, 40.25222]}, "type": "Feature", "properties": {"NAME": "Snozone Ski Area", "OBJECTID": 528, "LONG": -80.00306, "STATE": "PENNSYLVANIA", "LAT": 40.25222, "TYPE": "Both"}},
{"geometry": {"type": "Point", "coordinates": [-75.62083, 41.06167]}, "type": "Feature", "properties": {"NAME": "Split Rock Ski Area", "OBJECTID": 529, "LONG": -75.62083, "STATE": "PENNSYLVANIA", "LAT": 41.06167, "TYPE": "Both"}},
{"geometry": {"type": "Point", "coordinates": [-75.015, 41.13417]}, "type": "Feature", "properties": {"NAME": "Tamiment Ski Area", "OBJECTID": 530, "LONG": -75.015, "STATE": "PENNSYLVANIA", "LAT": 41.13417, "TYPE": "Both"}},
{"geometry": {"type": "Point", "coordinates": [-75.16472, 41.41306]}, "type": "Feature", "properties": {"NAME": "Tanglewood Ski Area", "OBJECTID": 531, "LONG": -75.16472, "STATE": "PENNSYLVANIA", "LAT": 41.41306, "TYPE": "Both"}},
{"geometry": {"type": "Point", "coordinates": [-77.75361, 40.76917]}, "type": "Feature", "properties": {"NAME": "Tussey Mountain Ski Resort", "OBJECTID": 532, "LONG": -77.75361, "STATE": "PENNSYLVANIA", "LAT": 40.76917, "TYPE": "Both"}},
{"geometry": {"type": "Point", "coordinates": [-79.3325, 40.01444]}, "type": "Feature", "properties": {"NAME": "White Mountain Ski Area", "OBJECTID": 533, "LONG": -79.3325, "STATE": "PENNSYLVANIA", "LAT": 40.01444, "TYPE": "Both"}},
{"geometry": {"type": "Point", "coordinates": [-77.90361, 39.82778]}, "type": "Feature", "properties": {"NAME": "Whitetail Ski Area", "OBJECTID": 534, "LONG": -77.90361, "STATE": "PENNSYLVANIA", "LAT": 39.82778, "TYPE": "Both"}},
{"geometry": {"type": "Point", "coordinates": [-79.86667, 40.125]}, "type": "Feature", "properties": {"NAME": "Willowbrook Ski Area", "OBJECTID": 535, "LONG": -79.86667, "STATE": "PENNSYLVANIA", "LAT": 40.125, "TYPE": "Both"}},
{"geometry": {"type": "Point", "coordinates": [-71.55444, 41.53556]}, "type": "Feature", "properties": {"NAME": "Yawgoo Ski Area", "OBJECTID": 536, "LONG": -71.55444, "STATE": "RHODE ISLAND", "LAT": 41.53556, "TYPE": "Both"}},
{"geometry": {"type": "Point", "coordinates": [-103.825, 44.30167]}, "type": "Feature", "properties": {"NAME": "Deer Mountain Ski Area", "OBJECTID": 537, "LONG": -103.825, "STATE": "SOUTH DAKOTA", "LAT": 44.30167, "TYPE": "Both"}},
{"geometry": {"type": "Point", "coordinates": [-103.93333, 44.40889]}, "type": "Feature", "properties": {"NAME": "Big Hill Ski Trail", "OBJECTID": 538, "LONG": -103.93333, "STATE": "SOUTH DAKOTA", "LAT": 44.40889, "TYPE": "Alpine"}},
{"geometry": {"type": "Point", "coordinates": [-96.7, 43.55]}, "type": "Feature", "properties": {"NAME": "Great Bear Ski Area", "OBJECTID": 539, "LONG": -96.7, "STATE": "SOUTH DAKOTA", "LAT": 43.55, "TYPE": "Both"}},
{"geometry": {"type": "Point", "coordinates": [-103.83472, 44.3275]}, "type": "Feature", "properties": {"NAME": "Terry Peak Ski Area", "OBJECTID": 540, "LONG": -103.83472, "STATE": "SOUTH DAKOTA", "LAT": 44.3275, "TYPE": "Both"}},
{"geometry": {"type": "Point", "coordinates": [-83.51028, 35.71417]}, "type": "Feature", "properties": {"NAME": "Ober Gatlinburg Ski Area", "OBJECTID": 541, "LONG": -83.51028, "STATE": "TENNESSEE", "LAT": 35.71417, "TYPE": "Both"}},
{"geometry": {"type": "Point", "coordinates": [-111.63828, 40.57967]}, "type": "Feature", "properties": {"NAME": "Alta Ski Area", "OBJECTID": 542, "LONG": -111.63828, "STATE": "UTAH", "LAT": 40.57967, "TYPE": "Both"}},
{"geometry": {"type": "Point", "coordinates": [-111.54162, 41.96826]}, "type": "Feature", "properties": {"NAME": "Beaver Mountain Ski Area", "OBJECTID": 543, "LONG": -111.54162, "STATE": "UTAH", "LAT": 41.96826, "TYPE": "Both"}},
{"geometry": {"type": "Point", "coordinates": [-109.4368, 37.86056]}, "type": "Feature", "properties": {"NAME": "Blue Mountain Ski Area", "OBJECTID": 544, "LONG": -109.4368, "STATE": "UTAH", "LAT": 37.86056, "TYPE": "Both"}},
{"geometry": {"type": "Point", "coordinates": [-112.838, 37.69192]}, "type": "Feature", "properties": {"NAME": "Brian Head Ski Area", "OBJECTID": 545, "LONG": -112.838, "STATE": "UTAH", "LAT": 37.69192, "TYPE": "Both"}},
{"geometry": {"type": "Point", "coordinates": [-111.58356, 40.59995]}, "type": "Feature", "properties": {"NAME": "Brighton Ski Area", "OBJECTID": 546, "LONG": -111.58356, "STATE": "UTAH", "LAT": 40.59995, "TYPE": "Both"}},
{"geometry": {"type": "Point", "coordinates": [-111.58328, 40.60134]}, "type": "Feature", "properties": {"NAME": "Brighton Ski Area Heliport", "OBJECTID": 547, "LONG": -111.58328, "STATE": "UTAH", "LAT": 40.60134, "TYPE": "Alpine"}},
{"geometry": {"type": "Point", "coordinates": [-112.93272, 37.5972]}, "type": "Feature", "properties": {"NAME": "Cedar Canyon Ski Area", "OBJECTID": 548, "LONG": -112.93272, "STATE": "UTAH", "LAT": 37.5972, "TYPE": "Both"}},
{"geometry": {"type": "Point", "coordinates": [-111.4805, 40.63551]}, "type": "Feature", "properties": {"NAME": "Deer Valley Ski Area", "OBJECTID": 549, "LONG": -111.4805, "STATE": "UTAH", "LAT": 40.63551, "TYPE": "Both"}},
{"geometry": {"type": "Point", "coordinates": [-112.37134, 38.32386]}, "type": "Feature", "properties": {"NAME": "Elk Meadows Ski Area", "OBJECTID": 550, "LONG": -112.37134, "STATE": "UTAH", "LAT": 38.32386, "TYPE": "Both"}},
{"geometry": {"type": "Point", "coordinates": [-112.38411, 38.32053]}, "type": "Feature", "properties": {"NAME": "Mount Holly Ski Area", "OBJECTID": 551, "LONG": -112.38411, "STATE": "UTAH", "LAT": 38.32053, "TYPE": "Both"}},
{"geometry": {"type": "Point", "coordinates": [-111.87247, 41.30494]}, "type": "Feature", "properties": {"NAME": "Nordic Valley Ski Area", "OBJECTID": 552, "LONG": -111.87247, "STATE": "UTAH", "LAT": 41.30494, "TYPE": "Both"}},
{"geometry": {"type": "Point", "coordinates": [-111.50495, 40.64356]}, "type": "Feature", "properties": {"NAME": "Park City Ski Area", "OBJECTID": 553, "LONG": -111.50495, "STATE": "UTAH", "LAT": 40.64356, "TYPE": "Both"}},
{"geometry": {"type": "Point", "coordinates": [-111.57495, 40.68995]}, "type": "Feature", "properties": {"NAME": "Park City West Ski Area", "OBJECTID": 554, "LONG": -111.57495, "STATE": "UTAH", "LAT": 40.68995, "TYPE": "Both"}},
{"geometry": {"type": "Point", "coordinates": [-111.7719, 41.37772]}, "type": "Feature", "properties": {"NAME": "Powder Mountain Ski Area", "OBJECTID": 555, "LONG": -111.7719, "STATE": "UTAH", "LAT": 41.37772, "TYPE": "Both"}},
{"geometry": {"type": "Point", "coordinates": [-111.33687, 39.65607]}, "type": "Feature", "properties": {"NAME": "Snowland Ski Area", "OBJECTID": 556, "LONG": -111.33687, "STATE": "UTAH", "LAT": 39.65607, "TYPE": "Both"}},
{"geometry": {"type": "Point", "coordinates": [-111.59522, 40.62551]}, "type": "Feature", "properties": {"NAME": "Solitude Ski Area", "OBJECTID": 557, "LONG": -111.59522, "STATE": "UTAH", "LAT": 40.62551, "TYPE": "Both"}},
{"geometry": {"type": "Point", "coordinates": [-111.58161, 40.38578]}, "type": "Feature", "properties": {"NAME": "Sundance Ski Area", "OBJECTID": 558, "LONG": -111.58161, "STATE": "UTAH", "LAT": 40.38578, "TYPE": "Both"}},
{"geometry": {"type": "Point", "coordinates": [-111.8519, 41.21188]}, "type": "Feature", "properties": {"NAME": "Snow Basin Ski Area", "OBJECTID": 559, "LONG": -111.8519, "STATE": "UTAH", "LAT": 41.21188, "TYPE": "Both"}},
{"geometry": {"type": "Point", "coordinates": [-72.94028, 43.22056]}, "type": "Feature", "properties": {"NAME": "Big Bromley Ski Area", "OBJECTID": 560, "LONG": -72.94028, "STATE": "VERMONT", "LAT": 43.22056, "TYPE": "Both"}},
{"geometry": {"type": "Point", "coordinates": [-72.82722, 44.08528]}, "type": "Feature", "properties": {"NAME": "Blueberry Lake Ski Touring Center", "OBJECTID": 561, "LONG": -72.82722, "STATE": "VERMONT", "LAT": 44.08528, "TYPE": "Alpine"}},
{"geometry": {"type": "Point", "coordinates": [-72.87028, 44.41583]}, "type": "Feature", "properties": {"NAME": "Bolton Valley Ski Area", "OBJECTID": 562, "LONG": -72.87028, "STATE": "VERMONT", "LAT": 44.41583, "TYPE": "Both"}},
{"geometry": {"type": "Point", "coordinates": [-71.90194, 44.58333]}, "type": "Feature", "properties": {"NAME": "Burke Mountain Ski Area", "OBJECTID": 563, "LONG": -71.90194, "STATE": "VERMONT", "LAT": 44.58333, "TYPE": "Both"}},
{"geometry": {"type": "Point", "coordinates": [-71.90361, 44.59861]}, "type": "Feature", "properties": {"NAME": "Burke Mountain Ski Touring Center", "OBJECTID": 564, "LONG": -71.90361, "STATE": "VERMONT", "LAT": 44.59861, "TYPE": "Alpine"}},
{"geometry": {"type": "Point", "coordinates": [-72.94389, 44.33222]}, "type": "Feature", "properties": {"NAME": "Camels Hump Nordic Ski Center", "OBJECTID": 565, "LONG": -72.94389, "STATE": "VERMONT", "LAT": 44.33222, "TYPE": "Alpine"}},
{"geometry": {"type": "Point", "coordinates": [-72.89778, 42.95722]}, "type": "Feature", "properties": {"NAME": "Carinthia Ski Area", "OBJECTID": 566, "LONG": -72.89778, "STATE": "VERMONT", "LAT": 42.95722, "TYPE": "Both"}},
{"geometry": {"type": "Point", "coordinates": [-73.0533, 44.45778]}, "type": "Feature", "properties": {"NAME": "Catamount Family Ski Area", "OBJECTID": 567, "LONG": -73.0533, "STATE": "VERMONT", "LAT": 44.45778, "TYPE": "Both"}},
{"geometry": {"type": "Point", "coordinates": [-72.91278, 43.82722]}, "type": "Feature", "properties": {"NAME": "Chittenden Brook Cross-Country Ski T", "OBJECTID": 568, "LONG": -72.91278, "STATE": "VERMONT", "LAT": 43.82722, "TYPE": "Alpine"}},
{"geometry": {"type": "Point", "coordinates": [-73.0525, 43.83167]}, "type": "Feature", "properties": {"NAME": "Churchhill House Ski Area", "OBJECTID": 569, "LONG": -73.0525, "STATE": "VERMONT", "LAT": 43.83167, "TYPE": "Both"}},
{"geometry": {"type": "Point", "coordinates": [-72.9825, 44.39583]}, "type": "Feature", "properties": {"NAME": "Cochran Ski Center", "OBJECTID": 570, "LONG": -72.9825, "STATE": "VERMONT", "LAT": 44.39583, "TYPE": "Both"}},
{"geometry": {"type": "Point", "coordinates": [-72.72639, 44.51111]}, "type": "Feature", "properties": {"NAME": "Edson Hill Cross Country Ski Center", "OBJECTID": 571, "LONG": -72.72639, "STATE": "VERMONT", "LAT": 44.51111, "TYPE": "Alpine"}},
{"geometry": {"type": "Point", "coordinates": [-72.70056, 43.4175]}, "type": "Feature", "properties": {"NAME": "Fox Run Cross Country Ski Center", "OBJECTID": 572, "LONG": -72.70056, "STATE": "VERMONT", "LAT": 43.4175, "TYPE": "Alpine"}},
{"geometry": {"type": "Point", "coordinates": [-72.90667, 44.17361]}, "type": "Feature", "properties": {"NAME": "Glen Ellen Ski Area", "OBJECTID": 573, "LONG": -72.90667, "STATE": "VERMONT", "LAT": 44.17361, "TYPE": "Both"}},
{"geometry": {"type": "Point", "coordinates": [-72.62306, 43.15111]}, "type": "Feature", "properties": {"NAME": "Grafton Cross Country Ski Center", "OBJECTID": 574, "LONG": -72.62306, "STATE": "VERMONT", "LAT": 43.15111, "TYPE": "Alpine"}},
{"geometry": {"type": "Point", "coordinates": [-72.90639, 42.92361]}, "type": "Feature", "properties": {"NAME": "Haystack Mountain Ski Area", "OBJECTID": 575, "LONG": -72.90639, "STATE": "VERMONT", "LAT": 42.92361, "TYPE": "Both"}},
{"geometry": {"type": "Point", "coordinates": [-72.58722, 44.87694]}, "type": "Feature", "properties": {"NAME": "Hazens Notch Ski Touring Center", "OBJECTID": 576, "LONG": -72.58722, "STATE": "VERMONT", "LAT": 44.87694, "TYPE": "Alpine"}},
{"geometry": {"type": "Point", "coordinates": [-73.08861, 43.14694]}, "type": "Feature", "properties": {"NAME": "Hildene Ski Touring Center", "OBJECTID": 577, "LONG": -73.08861, "STATE": "VERMONT", "LAT": 43.14694, "TYPE": "Alpine"}},
{"geometry": {"type": "Point", "coordinates": [-72.79389, 42.84917]}, "type": "Feature", "properties": {"NAME": "Hogback Ski Area", "OBJECTID": 578, "LONG": -72.79389, "STATE": "VERMONT", "LAT": 42.84917, "TYPE": "Both"}},
{"geometry": {"type": "Point", "coordinates": [-72.52611, 44.92444]}, "type": "Feature", "properties": {"NAME": "Jay Peak Ski Area", "OBJECTID": 579, "LONG": -72.52611, "STATE": "VERMONT", "LAT": 44.92444, "TYPE": "Both"}},
{"geometry": {"type": "Point", "coordinates": [-72.80694, 43.62]}, "type": "Feature", "properties": {"NAME": "Killington Ski Area", "OBJECTID": 580, "LONG": -72.80694, "STATE": "VERMONT", "LAT": 43.62, "TYPE": "Both"}},
{"geometry": {"type": "Point", "coordinates": [-72.80694, 43.62]}, "type": "Feature", "properties": {"NAME": "Living Memorial Park Ski Area", "OBJECTID": 581, "LONG": -72.80694, "STATE": "VERMONT", "LAT": 43.62, "TYPE": "Both"}},
{"geometry": {"type": "Point", "coordinates": [-71.97472, 44.51694]}, "type": "Feature", "properties": {"NAME": "Lyndon Outing Club Ski Area", "OBJECTID": 582, "LONG": -71.97472, "STATE": "VERMONT", "LAT": 44.51694, "TYPE": "Both"}},
{"geometry": {"type": "Point", "coordinates": [-72.925, 44.20083]}, "type": "Feature", "properties": {"NAME": "Mad River Glen Ski Area", "OBJECTID": 583, "LONG": -72.925, "STATE": "VERMONT", "LAT": 44.20083, "TYPE": "Both"}},
{"geometry": {"type": "Point", "coordinates": [-72.77306, 43.20194]}, "type": "Feature", "properties": {"NAME": "Majic Mountain Ski Center", "OBJECTID": 584, "LONG": -72.77306, "STATE": "VERMONT", "LAT": 43.20194, "TYPE": "Both"}},
{"geometry": {"type": "Point", "coordinates": [-72.6275, 42.9425]}, "type": "Feature", "properties": {"NAME": "Maple Valley Ski Center", "OBJECTID": 585, "LONG": -72.6275, "STATE": "VERMONT", "LAT": 42.9425, "TYPE": "Both"}},
{"geometry": {"type": "Point", "coordinates": [-73.18306, 44.01194]}, "type": "Feature", "properties": {"NAME": "Middlebury College Ski Area", "OBJECTID": 586, "LONG": -73.18306, "STATE": "VERMONT", "LAT": 44.01194, "TYPE": "Both"}},
{"geometry": {"type": "Point", "coordinates": [-72.46667, 43.46333]}, "type": "Feature", "properties": {"NAME": "Mount Ascuteney Ski Area", "OBJECTID": 587, "LONG": -72.46667, "STATE": "VERMONT", "LAT": 43.46333, "TYPE": "Both"}},
{"geometry": {"type": "Point", "coordinates": [-72.79583, 44.5275]}, "type": "Feature", "properties": {"NAME": "Mount Mansfield Ski Area", "OBJECTID": 588, "LONG": -72.79583, "STATE": "VERMONT", "LAT": 44.5275, "TYPE": "Both"}},
{"geometry": {"type": "Point", "coordinates": [-72.90639, 42.96389]}, "type": "Feature", "properties": {"NAME": "Mount Snow Ski Area", "OBJECTID": 589, "LONG": -72.90639, "STATE": "VERMONT", "LAT": 42.96389, "TYPE": "Both"}},
{"geometry": {"type": "Point", "coordinates": [-72.8, 43.66806]}, "type": "Feature", "properties": {"NAME": "Mountain Meadows Ski Touring Center", "OBJECTID": 590, "LONG": -72.8, "STATE": "VERMONT", "LAT": 43.66806, "TYPE": "Alpine"}},
{"geometry": {"type": "Point", "coordinates": [-72.85417, 43.23222]}, "type": "Feature", "properties": {"NAME": "Nordio Cross Country Ski Area", "OBJECTID": 591, "LONG": -72.85417, "STATE": "VERMONT", "LAT": 43.23222, "TYPE": "Alpine"}},
{"geometry": {"type": "Point", "coordinates": [-72.64278, 44.13889]}, "type": "Feature", "properties": {"NAME": "Norwich University Ski Area", "OBJECTID": 592, "LONG": -72.64278, "STATE": "VERMONT", "LAT": 44.13889, "TYPE": "Both"}},
{"geometry": {"type": "Point", "coordinates": [-72.73278, 43.40444]}, "type": "Feature", "properties": {"NAME": "Okemo Mountain Ski Area", "OBJECTID": 593, "LONG": -72.73278, "STATE": "VERMONT", "LAT": 43.40444, "TYPE": "Both"}},
{"geometry": {"type": "Point", "coordinates": [-72.82306, 44.11111]}, "type": "Feature", "properties": {"NAME": "Oles Cross Country Ski Center", "OBJECTID": 594, "LONG": -72.82306, "STATE": "VERMONT", "LAT": 44.11111, "TYPE": "Alpine"}},
{"geometry": {"type": "Point", "coordinates": [-72.84306, 43.66167]}, "type": "Feature", "properties": {"NAME": "Pico Peak Ski Area", "OBJECTID": 595, "LONG": -72.84306, "STATE": "VERMONT", "LAT": 43.66167, "TYPE": "Both"}},
{"geometry": {"type": "Point", "coordinates": [-73.07583, 42.87528]}, "type": "Feature", "properties": {"NAME": "Prospect Mountain Ski Center", "OBJECTID": 596, "LONG": -73.07583, "STATE": "VERMONT", "LAT": 42.87528, "TYPE": "Both"}},
{"geometry": {"type": "Point", "coordinates": [-72.95444, 43.9375]}, "type": "Feature", "properties": {"NAME": "Rikert Ski Touring Center", "OBJECTID": 597, "LONG": -72.95444, "STATE": "VERMONT", "LAT": 43.9375, "TYPE": "Alpine"}},
{"geometry": {"type": "Point", "coordinates": [-72.74917, 43.53389]}, "type": "Feature", "properties": {"NAME": "Round Top Mountain Ski Area", "OBJECTID": 598, "LONG": -72.74917, "STATE": "VERMONT", "LAT": 43.53389, "TYPE": "Both"}},
{"geometry": {"type": "Point", "coordinates": [-73.02528, 44.35667]}, "type": "Feature", "properties": {"NAME": "Sherman Hollow Ski Touring Center", "OBJECTID": 599, "LONG": -73.02528, "STATE": "VERMONT", "LAT": 44.35667, "TYPE": "Alpine"}},
{"geometry": {"type": "Point", "coordinates": [-72.83778, 42.92167]}, "type": "Feature", "properties": {"NAME": "Sitzmark Cross Country Ski Center", "OBJECTID": 600, "LONG": -72.83778, "STATE": "VERMONT", "LAT": 42.92167, "TYPE": "Alpine"}},
{"geometry": {"type": "Point", "coordinates": [-72.79611, 44.55528]}, "type": "Feature", "properties": {"NAME": "Smuggler's Notch Ski Area", "OBJECTID": 601, "LONG": -72.79611, "STATE": "VERMONT", "LAT": 44.55528, "TYPE": "Both"}},
{"geometry": {"type": "Point", "coordinates": [-72.97611, 43.19444]}, "type": "Feature", "properties": {"NAME": "Snow Valley Ski Area", "OBJECTID": 602, "LONG": -72.97611, "STATE": "VERMONT", "LAT": 43.19444, "TYPE": "Both"}},
{"geometry": {"type": "Point", "coordinates": [-72.58889, 43.72444]}, "type": "Feature", "properties": {"NAME": "Sonneberg Ski Area", "OBJECTID": 603, "LONG": -72.58889, "STATE": "VERMONT", "LAT": 43.72444, "TYPE": "Both"}},
{"geometry": {"type": "Point", "coordinates": [-72.77944, 44.54167]}, "type": "Feature", "properties": {"NAME": "Spruce Peak Ski Area", "OBJECTID": 604, "LONG": -72.77944, "STATE": "VERMONT", "LAT": 44.54167, "TYPE": "Both"}},
{"geometry": {"type": "Point", "coordinates": [-72.65056, 44.42972]}, "type": "Feature", "properties": {"NAME": "Stowe Ski Area", "OBJECTID": 605, "LONG": -72.65056, "STATE": "VERMONT", "LAT": 44.42972, "TYPE": "Both"}},
{"geometry": {"type": "Point", "coordinates": [-72.90944, 43.12806]}, "type": "Feature", "properties": {"NAME": "Stratton Mountain Ski Center", "OBJECTID": 606, "LONG": -72.90944, "STATE": "VERMONT", "LAT": 43.12806, "TYPE": "Both"}},
{"geometry": {"type": "Point", "coordinates": [-72.90722, 44.13722]}, "type": "Feature", "properties": {"NAME": "Sugarbush Valley Ski Area", "OBJECTID": 607, "LONG": -72.90722, "STATE": "VERMONT", "LAT": 44.13722, "TYPE": "Both"}},
{"geometry": {"type": "Point", "coordinates": [-72.54444, 43.66472]}, "type": "Feature", "properties": {"NAME": "Suicide Six Ski Area", "OBJECTID": 608, "LONG": -72.54444, "STATE": "VERMONT", "LAT": 43.66472, "TYPE": "Both"}},
{"geometry": {"type": "Point", "coordinates": [-72.71833, 43.22194]}, "type": "Feature", "properties": {"NAME": "Tater Hill Ski Center", "OBJECTID": 609, "LONG": -72.71833, "STATE": "VERMONT", "LAT": 43.22194, "TYPE": "Both"}},
{"geometry": {"type": "Point", "coordinates": [-72.85222, 42.87333]}, "type": "Feature", "properties": {"NAME": "The White Horse Ski Touring Center", "OBJECTID": 610, "LONG": -72.85222, "STATE": "VERMONT", "LAT": 42.87333, "TYPE": "Alpine"}},
{"geometry": {"type": "Point", "coordinates": [-72.8875, 42.96528]}, "type": "Feature", "properties": {"NAME": "Timber Creek Ski Resort", "OBJECTID": 611, "LONG": -72.8875, "STATE": "VERMONT", "LAT": 42.96528, "TYPE": "Both"}},
{"geometry": {"type": "Point", "coordinates": [-72.74417, 44.49806]}, "type": "Feature", "properties": {"NAME": "Topnotch Ski Touring Center", "OBJECTID": 612, "LONG": -72.74417, "STATE": "VERMONT", "LAT": 44.49806, "TYPE": "Alpine"}},
{"geometry": {"type": "Point", "coordinates": [-72.79806, 43.77806]}, "type": "Feature", "properties": {"NAME": "Trail Head Ski Touring Center", "OBJECTID": 613, "LONG": -72.79806, "STATE": "VERMONT", "LAT": 43.77806, "TYPE": "Alpine"}},
{"geometry": {"type": "Point", "coordinates": [-72.74528, 44.465]}, "type": "Feature", "properties": {"NAME": "Trapp Family Lodge and Cross Country", "OBJECTID": 614, "LONG": -72.74528, "STATE": "VERMONT", "LAT": 44.465, "TYPE": "Alpine"}},
{"geometry": {"type": "Point", "coordinates": [-72.86889, 44.18194]}, "type": "Feature", "properties": {"NAME": "Tucker Hill Ski Center", "OBJECTID": 615, "LONG": -72.86889, "STATE": "VERMONT", "LAT": 44.18194, "TYPE": "Both"}},
{"geometry": {"type": "Point", "coordinates": [-72.61944, 43.72861]}, "type": "Feature", "properties": {"NAME": "Twin Farms Ski Area", "OBJECTID": 616, "LONG": -72.61944, "STATE": "VERMONT", "LAT": 43.72861, "TYPE": "Both"}},
{"geometry": {"type": "Point", "coordinates": [-72.79556, 43.22417]}, "type": "Feature", "properties": {"NAME": "Viking Cross Country Ski Area", "OBJECTID": 617, "LONG": -72.79556, "STATE": "VERMONT", "LAT": 43.22417, "TYPE": "Alpine"}},
{"geometry": {"type": "Point", "coordinates": [-72.90833, 43.25972]}, "type": "Feature", "properties": {"NAME": "Wild Wings Ski Touring Center", "OBJECTID": 618, "LONG": -72.90833, "STATE": "VERMONT", "LAT": 43.25972, "TYPE": "Alpine"}},
{"geometry": {"type": "Point", "coordinates": [-72.77722, 44.82722]}, "type": "Feature", "properties": {"NAME": "Wolf Run Cross Country Ski Center", "OBJECTID": 619, "LONG": -72.77722, "STATE": "VERMONT", "LAT": 44.82722, "TYPE": "Alpine"}},
{"geometry": {"type": "Point", "coordinates": [-72.51583, 43.61472]}, "type": "Feature", "properties": {"NAME": "Woodstock Ski Touring Center", "OBJECTID": 620, "LONG": -72.51583, "STATE": "VERMONT", "LAT": 43.61472, "TYPE": "Alpine"}},
{"geometry": {"type": "Point", "coordinates": [-78.7725, 38.80639]}, "type": "Feature", "properties": {"NAME": "Bryce Ski Area", "OBJECTID": 621, "LONG": -78.7725, "STATE": "VIRGINIA", "LAT": 38.80639, "TYPE": "Both"}},
{"geometry": {"type": "Point", "coordinates": [-78.75417, 38.40917]}, "type": "Feature", "properties": {"NAME": "Massanutten Ski Area", "OBJECTID": 622, "LONG": -78.75417, "STATE": "VIRGINIA", "LAT": 38.40917, "TYPE": "Both"}},
{"geometry": {"type": "Point", "coordinates": [-78.57778, 38.15722]}, "type": "Feature", "properties": {"NAME": "The Homestead Ski Area", "OBJECTID": 623, "LONG": -78.57778, "STATE": "VIRGINIA", "LAT": 38.15722, "TYPE": "Both"}},
{"geometry": {"type": "Point", "coordinates": [-78.89972, 37.88472]}, "type": "Feature", "properties": {"NAME": "Wintergreen Ski Area", "OBJECTID": 624, "LONG": -78.89972, "STATE": "VIRGINIA", "LAT": 37.88472, "TYPE": "Both"}},
{"geometry": {"type": "Point", "coordinates": [-121.42952, 47.44315]}, "type": "Feature", "properties": {"NAME": "Alpental Ski Area", "OBJECTID": 625, "LONG": -121.42952, "STATE": "WASHINGTON", "LAT": 47.44315, "TYPE": "Both"}},
{"geometry": {"type": "Point", "coordinates": [-117.85494, 46.08625]}, "type": "Feature", "properties": {"NAME": "Bluewood Ski Area", "OBJECTID": 626, "LONG": -117.85494, "STATE": "WASHINGTON", "LAT": 46.08625, "TYPE": "Both"}},
{"geometry": {"type": "Point", "coordinates": [-120.67364, 45.98622]}, "type": "Feature", "properties": {"NAME": "Brooks Memorial State Park Ski Area", "OBJECTID": 627, "LONG": -120.67364, "STATE": "WASHINGTON", "LAT": 45.98622, "TYPE": "Both"}},
{"geometry": {"type": "Point", "coordinates": [-120.05616, 47.93594]}, "type": "Feature", "properties": {"NAME": "Echo Valley Ski Area", "OBJECTID": 628, "LONG": -120.05616, "STATE": "WASHINGTON", "LAT": 47.93594, "TYPE": "Both"}},
{"geometry": {"type": "Point", "coordinates": [-120.41506, 47.8565]}, "type": "Feature", "properties": {"NAME": "Entiat Valley Ski Area", "OBJECTID": 629, "LONG": -120.41506, "STATE": "WASHINGTON", "LAT": 47.8565, "TYPE": "Both"}},
{"geometry": {"type": "Point", "coordinates": [-117.57109, 48.29403]}, "type": "Feature", "properties": {"NAME": "Forty Nine Degrees North Ski Area", "OBJECTID": 630, "LONG": -117.57109, "STATE": "WASHINGTON", "LAT": 48.29403, "TYPE": "Both"}},
{"geometry": {"type": "Point", "coordinates": [-119.91784, 48.39095]}, "type": "Feature", "properties": {"NAME": "Loup Loup Ski Area", "OBJECTID": 631, "LONG": -119.91784, "STATE": "WASHINGTON", "LAT": 48.39095, "TYPE": "Both"}},
{"geometry": {"type": "Point", "coordinates": [-121.3998, 47.38815]}, "type": "Feature", "properties": {"NAME": "Pacific West Ski Area", "OBJECTID": 632, "LONG": -121.3998, "STATE": "WASHINGTON", "LAT": 47.38815, "TYPE": "Both"}},
{"geometry": {"type": "Point", "coordinates": [-121.41369, 47.40676]}, "type": "Feature", "properties": {"NAME": "Ski Acres Ski Area", "OBJECTID": 633, "LONG": -121.41369, "STATE": "WASHINGTON", "LAT": 47.40676, "TYPE": "Both"}},
{"geometry": {"type": "Point", "coordinates": [-121.41841, 47.42482]}, "type": "Feature", "properties": {"NAME": "Snoqualmie Summit Ski Area", "OBJECTID": 634, "LONG": -121.41841, "STATE": "WASHINGTON", "LAT": 47.42482, "TYPE": "Both"}},
{"geometry": {"type": "Point", "coordinates": [-121.38756, 46.63538]}, "type": "Feature", "properties": {"NAME": "White Pass Ski Area", "OBJECTID": 635, "LONG": -121.38756, "STATE": "WASHINGTON", "LAT": 46.63538, "TYPE": "Both"}},
{"geometry": {"type": "Point", "coordinates": [-121.40395, 46.63538]}, "type": "Feature", "properties": {"NAME": "White Pass X Country Ski Area", "OBJECTID": 636, "LONG": -121.40395, "STATE": "WASHINGTON", "LAT": 46.63538, "TYPE": "Cross-Country"}},
{"geometry": {"type": "Point", "coordinates": [-79.50083, 39.47472]}, "type": "Feature", "properties": {"NAME": "Alpine Lake Resort", "OBJECTID": 637, "LONG": -79.50083, "STATE": "WEST VIRGINIA", "LAT": 39.47472, "TYPE": "Both"}},
{"geometry": {"type": "Point", "coordinates": [-79.40472, 39.13472]}, "type": "Feature", "properties": {"NAME": "Canaan Valley Ski Area", "OBJECTID": 638, "LONG": -79.40472, "STATE": "WEST VIRGINIA", "LAT": 39.13472, "TYPE": "Both"}},
{"geometry": {"type": "Point", "coordinates": [-79.99694, 38.41389]}, "type": "Feature", "properties": {"NAME": "Snowshoe Mountain Ski Area", "OBJECTID": 639, "LONG": -79.99694, "STATE": "WEST VIRGINIA", "LAT": 38.41389, "TYPE": "Both"}},
{"geometry": {"type": "Point", "coordinates": [-79.40472, 39.13472]}, "type": "Feature", "properties": {"NAME": "Timberline Ski Area", "OBJECTID": 640, "LONG": -79.40472, "STATE": "WEST VIRGINIA", "LAT": 39.13472, "TYPE": "Both"}},
{"geometry": {"type": "Point", "coordinates": [-81.115, 37.59056]}, "type": "Feature", "properties": {"NAME": "Winterplace Ski Area", "OBJECTID": 641, "LONG": -81.115, "STATE": "WEST VIRGINIA", "LAT": 37.59056, "TYPE": "Both"}},
{"geometry": {"type": "Point", "coordinates": [-88.39944, 42.78917]}, "type": "Feature", "properties": {"NAME": "Alpine Valley Ski Area", "OBJECTID": 642, "LONG": -88.39944, "STATE": "WISCONSIN", "LAT": 42.78917, "TYPE": "Both"}},
{"geometry": {"type": "Point", "coordinates": [-88.21806, 43.13583]}, "type": "Feature", "properties": {"NAME": "Ausblick Ski Area", "OBJECTID": 643, "LONG": -88.21806, "STATE": "WISCONSIN", "LAT": 43.13583, "TYPE": "Both"}},
{"geometry": {"type": "Point", "coordinates": [-92.74861, 45.05333]}, "type": "Feature", "properties": {"NAME": "Birch Park Ski Area", "OBJECTID": 644, "LONG": -92.74861, "STATE": "WISCONSIN", "LAT": 45.05333, "TYPE": "Both"}},
{"geometry": {"type": "Point", "coordinates": [-90.79222, 44.44389]}, "type": "Feature", "properties": {"NAME": "Bruce Mound Winter Sports Area", "OBJECTID": 645, "LONG": -90.79222, "STATE": "WISCONSIN", "LAT": 44.44389, "TYPE": "Both"}},
{"geometry": {"type": "Point", "coordinates": [-88.16389, 44.14028]}, "type": "Feature", "properties": {"NAME": "Calumet Ski Area", "OBJECTID": 646, "LONG": -88.16389, "STATE": "WISCONSIN", "LAT": 44.14028, "TYPE": "Both"}},
{"geometry": {"type": "Point", "coordinates": [-89.51861, 43.49306]}, "type": "Feature", "properties": {"NAME": "Cascade Mountain Ski Area", "OBJECTID": 647, "LONG": -89.51861, "STATE": "WISCONSIN", "LAT": 43.49306, "TYPE": "Both"}},
{"geometry": {"type": "Point", "coordinates": [-91.45167, 45.47639]}, "type": "Feature", "properties": {"NAME": "Christie Mountain Ski Area", "OBJECTID": 648, "LONG": -91.45167, "STATE": "WISCONSIN", "LAT": 45.47639, "TYPE": "Both"}},
{"geometry": {"type": "Point", "coordinates": [-89.77083, 43.6275]}, "type": "Feature", "properties": {"NAME": "Christmas Mountain Ski Area", "OBJECTID": 649, "LONG": -89.77083, "STATE": "WISCONSIN", "LAT": 43.6275, "TYPE": "Both"}},
{"geometry": {"type": "Point", "coordinates": [-88.00972, 42.88639]}, "type": "Feature", "properties": {"NAME": "Crystal Ridge Ski Area", "OBJECTID": 650, "LONG": -88.00972, "STATE": "WISCONSIN", "LAT": 42.88639, "TYPE": "Both"}},
{"geometry": {"type": "Point", "coordinates": [-89.62778, 43.42167]}, "type": "Feature", "properties": {"NAME": "Devil's Head Ski Area", "OBJECTID": 651, "LONG": -89.62778, "STATE": "WISCONSIN", "LAT": 43.42167, "TYPE": "Both"}},
{"geometry": {"type": "Point", "coordinates": [-88.98722, 45.78722]}, "type": "Feature", "properties": {"NAME": "Giant Pine Ski and Hike Trail", "OBJECTID": 652, "LONG": -88.98722, "STATE": "WISCONSIN", "LAT": 45.78722, "TYPE": "Alpine"}},
{"geometry": {"type": "Point", "coordinates": [-89.63, 44.95917]}, "type": "Feature", "properties": {"NAME": "Granite Peak Ski Area", "OBJECTID": 653, "LONG": -89.63, "STATE": "WISCONSIN", "LAT": 44.95917, "TYPE": "Both"}},
{"geometry": {"type": "Point", "coordinates": [-87.80722, 44.27639]}, "type": "Feature", "properties": {"NAME": "Hidden Valley Ski Area", "OBJECTID": 654, "LONG": -87.80722, "STATE": "WISCONSIN", "LAT": 44.27639, "TYPE": "Both"}},
{"geometry": {"type": "Point", "coordinates": [-88.42972, 42.58861]}, "type": "Feature", "properties": {"NAME": "Lake Geneva Ski Area", "OBJECTID": 655, "LONG": -88.42972, "STATE": "WISCONSIN", "LAT": 42.58861, "TYPE": "Both"}},
{"geometry": {"type": "Point", "coordinates": [-88.28611, 43.33361]}, "type": "Feature", "properties": {"NAME": "Little Switzerland Ski Area", "OBJECTID": 656, "LONG": -88.28611, "STATE": "WISCONSIN", "LAT": 43.33361, "TYPE": "Both"}},
{"geometry": {"type": "Point", "coordinates": [-89.71083, 45.87139]}, "type": "Feature", "properties": {"NAME": "Minocqua Winter Park", "OBJECTID": 657, "LONG": -89.71083, "STATE": "WISCONSIN", "LAT": 45.87139, "TYPE": "Both"}},
{"geometry": {"type": "Point", "coordinates": [-91.0475, 46.71889]}, "type": "Feature", "properties": {"NAME": "Mount Valhalla Ski Area", "OBJECTID": 658, "LONG": -91.0475, "STATE": "WISCONSIN", "LAT": 46.71889, "TYPE": "Both"}},
{"geometry": {"type": "Point", "coordinates": [-91.23944, 43.80139]}, "type": "Feature", "properties": {"NAME": "Mt. La Crosse Ski Area", "OBJECTID": 659, "LONG": -91.23944, "STATE": "WISCONSIN", "LAT": 43.80139, "TYPE": "Both"}},
{"geometry": {"type": "Point", "coordinates": [-90.1958, 45.94694]}, "type": "Feature", "properties": {"NAME": "Newman Springs Ski Trail", "OBJECTID": 660, "LONG": -90.1958, "STATE": "WISCONSIN", "LAT": 45.94694, "TYPE": "Alpine"}},
{"geometry": {"type": "Point", "coordinates": [-89.18444, 44.11806]}, "type": "Feature", "properties": {"NAME": "Nordic Mountain Ski Area", "OBJECTID": 661, "LONG": -89.18444, "STATE": "WISCONSIN", "LAT": 44.11806, "TYPE": "Both"}},
{"geometry": {"type": "Point", "coordinates": [-88.52417, 45.32389]}, "type": "Feature", "properties": {"NAME": "Paul Bunyon Ski Area", "OBJECTID": 662, "LONG": -88.52417, "STATE": "WISCONSIN", "LAT": 45.32389, "TYPE": "Both"}},
{"geometry": {"type": "Point", "coordinates": [-89.68417, 44.92472]}, "type": "Feature", "properties": {"NAME": "Rib Mountain Ski Area", "OBJECTID": 663, "LONG": -89.68417, "STATE": "WISCONSIN", "LAT": 44.92472, "TYPE": "Both"}},
{"geometry": {"type": "Point", "coordinates": [-91.58472, 44.77389]}, "type": "Feature", "properties": {"NAME": "Silver Mine Hill Ski Jump", "OBJECTID": 664, "LONG": -91.58472, "STATE": "WISCONSIN", "LAT": 44.77389, "TYPE": "Both"}},
{"geometry": {"type": "Point", "coordinates": [-89.19917, 46.13556]}, "type": "Feature", "properties": {"NAME": "Ski Hill Winter Sports Area", "OBJECTID": 665, "LONG": -89.19917, "STATE": "WISCONSIN", "LAT": 46.13556, "TYPE": "Both"}},
{"geometry": {"type": "Point", "coordinates": [-89.81667, 43.97056]}, "type": "Feature", "properties": {"NAME": "Sky Line Ski Area", "OBJECTID": 666, "LONG": -89.81667, "STATE": "WISCONSIN", "LAT": 43.97056, "TYPE": "Both"}},
{"geometry": {"type": "Point", "coordinates": [-92.73417, 45.095]}, "type": "Feature", "properties": {"NAME": "Snow Crest Ski Area", "OBJECTID": 667, "LONG": -92.73417, "STATE": "WISCONSIN", "LAT": 45.095, "TYPE": "Both"}},
{"geometry": {"type": "Point", "coordinates": [-89.57444, 44.52361]}, "type": "Feature", "properties": {"NAME": "Standing Rocks Ski Area", "OBJECTID": 668, "LONG": -89.57444, "STATE": "WISCONSIN", "LAT": 44.52361, "TYPE": "Both"}},
{"geometry": {"type": "Point", "coordinates": [-89.29028, 43.17778]}, "type": "Feature", "properties": {"NAME": "Sunburst Ski Area", "OBJECTID": 669, "LONG": -89.29028, "STATE": "WISCONSIN", "LAT": 43.17778, "TYPE": "Both"}},
{"geometry": {"type": "Point", "coordinates": [-91.25028, 46.18472]}, "type": "Feature", "properties": {"NAME": "Telemark Resort", "OBJECTID": 670, "LONG": -91.25028, "STATE": "WISCONSIN", "LAT": 46.18472, "TYPE": "Both"}},
{"geometry": {"type": "Point", "coordinates": [-92.63333, 45.35611]}, "type": "Feature", "properties": {"NAME": "Trollhaugen Ski Area", "OBJECTID": 671, "LONG": -92.63333, "STATE": "WISCONSIN", "LAT": 45.35611, "TYPE": "Both"}},
{"geometry": {"type": "Point", "coordinates": [-89.73361, 43.00917]}, "type": "Feature", "properties": {"NAME": "Tyrol Basin Ski Area", "OBJECTID": 672, "LONG": -89.73361, "STATE": "WISCONSIN", "LAT": 43.00917, "TYPE": "Both"}},
{"geometry": {"type": "Point", "coordinates": [-90.24583, 46.42806]}, "type": "Feature", "properties": {"NAME": "Whitecap Mountain Ski Area", "OBJECTID": 673, "LONG": -90.24583, "STATE": "WISCONSIN", "LAT": 46.42806, "TYPE": "Both"}},
{"geometry": {"type": "Point", "coordinates": [-88.18194, 42.51278]}, "type": "Feature", "properties": {"NAME": "Wilmot Mountain Ski Area", "OBJECTID": 674, "LONG": -88.18194, "STATE": "WISCONSIN", "LAT": 42.51278, "TYPE": "Both"}},
{"geometry": {"type": "Point", "coordinates": [-90.08139, 43.14444]}, "type": "Feature", "properties": {"NAME": "Wintergreen Downhill Ski Area", "OBJECTID": 675, "LONG": -90.08139, "STATE": "WISCONSIN", "LAT": 43.14444, "TYPE": "Both"}},
{"geometry": {"type": "Point", "coordinates": [-107.51487, 44.60938]}, "type": "Feature", "properties": {"NAME": "Bighorn Ski Area", "OBJECTID": 676, "LONG": -107.51487, "STATE": "WYOMING", "LAT": 44.60938, "TYPE": "Both"}},
{"geometry": {"type": "Point", "coordinates": [-109.73333, 42.99028]}, "type": "Feature", "properties": {"NAME": "Elkhart Loop Ski Trail", "OBJECTID": 677, "LONG": -109.73333, "STATE": "WYOMING", "LAT": 42.99028, "TYPE": "Alpine"}},
{"geometry": {"type": "Point", "coordinates": [-109.71139, 42.94306]}, "type": "Feature", "properties": {"NAME": "Grouse Mountain Ski Trail", "OBJECTID": 678, "LONG": -109.71139, "STATE": "WYOMING", "LAT": 42.94306, "TYPE": "Alpine"}},
{"geometry": {"type": "Point", "coordinates": [-106.3387, 42.74552]}, "type": "Feature", "properties": {"NAME": "Hogadon Basin Ski Area", "OBJECTID": 679, "LONG": -106.3387, "STATE": "WYOMING", "LAT": 42.74552, "TYPE": "Both"}},
{"geometry": {"type": "Point", "coordinates": [-110.84746, 43.59659]}, "type": "Feature", "properties": {"NAME": "Jackson Hole Ski Area", "OBJECTID": 680, "LONG": -110.84746, "STATE": "WYOMING", "LAT": 43.59659, "TYPE": "Both"}},
{"geometry": {"type": "Point", "coordinates": [-107.21818, 44.1605]}, "type": "Feature", "properties": {"NAME": "Meadowlark Ski Area", "OBJECTID": 681, "LONG": -107.21818, "STATE": "WYOMING", "LAT": 44.1605, "TYPE": "Both"}},
{"geometry": {"type": "Point", "coordinates": [-106.18895, 41.33719]}, "type": "Feature", "properties": {"NAME": "Medicine Bow Ski Area", "OBJECTID": 682, "LONG": -106.18895, "STATE": "WYOMING", "LAT": 41.33719, "TYPE": "Both"}},
{"geometry": {"type": "Point", "coordinates": [-109.74972, 42.94917]}, "type": "Feature", "properties": {"NAME": "Park Loop Ski Trail", "OBJECTID": 683, "LONG": -109.74972, "STATE": "WYOMING", "LAT": 42.94917, "TYPE": "Alpine"}},
{"geometry": {"type": "Point", "coordinates": [-109.75742, 42.97772]}, "type": "Feature", "properties": {"NAME": "White Pine Lodge Ski Area", "OBJECTID": 684, "LONG": -109.75742, "STATE": "WYOMING", "LAT": 42.97772, "TYPE": "Both"}}
]}