{"type":"FeatureCollection","features":[
{"geometry": {"type": "Point", "coordinates": [-77.44683, 38.97847]}, "type": "Feature", "properties": {"CITY": "Sterling", "NAME": "Emery Forwarding-Washington-DC", "OBJECTID": 58, "CREATOR": "INDUS", "GEOSOURCE": "GDT 2001 STREETS", "CREATEDATE": 1049846400000, "ZIP": "20166", "MODE_TYPE": "AIR & TRUCK", "LONGITUDE": -77.44683, "STATE": "VA", "VERSION": "01", "FIPS": "51", "ASSOC": " ", "MODDATE": null, "LATITUDE": 38.97847, "ZIP2": " ", "TYPE": "AIR", "ID": "10310", "PARCEL": 0}},
{"geometry": {"type": "Point", "coordinates": [-77.35749, 37.51351]}, "type": "Feature", "properties": {"CITY": "Richmond", "NAME": "Emery Forwarding-Richmond-Va", "OBJECTID": 228, "CREATOR": "INDUS", "GEOSOURCE": "GDT 2001 STREETS", "CREATEDATE": 1049846400000, "ZIP": "23231", "MODE_TYPE": "AIR & TRUCK", "LONGITUDE": -77.35749, "STATE": "VA", "VERSION": "01", "FIPS": "51", "ASSOC": " ", "MODDATE": null, "LATITUDE": 37.51351, "ZIP2": " ", "TYPE": "AIR", "ID": "10960", "PARCEL": 0}},
{"geometry": {"type": "Point", "coordinates": [-79.9648, 37.33125]}, "type": "Feature", "properties": {"CITY": "Roanoke", "NAME": "Emery Forwarding-Roanoke-Va", "OBJECTID": 229, "CREATOR": "INDUS", "GEOSOURCE": "GDT 2001 STREETS", "CREATEDATE": 1049846400000, "ZIP": "24012", "MODE_TYPE": "AIR & TRUCK", "LONGITUDE": -79.9648, "STATE": "VA", "VERSION": "01", "FIPS": "51", "ASSOC": " ", "MODDATE": null, "LATITUDE": 37.33125, "ZIP2": " ", "TYPE": "AIR", "ID": "10964", "PARCEL": 0}},
{"geometry": {"type": "Point", "coordinates": [-77.41339, 39.02577]}, "type": "Feature", "properties": {"CITY": "STERLING", "NAME": "SKY COURIER", "OBJECTID": 254, "CREATOR": "INDUS", "GEOSOURCE": "GDT 2000 STREETS", "CREATEDATE": 1049846400000, "ZIP": "20166", "MODE_TYPE": "AIR & TRUCK", "LONGITUDE": -77.41339, "STATE": "VA", "VERSION": "01", "FIPS": "51", "ASSOC": " ", "MODDATE": null, "LATITUDE": 39.02577, "ZIP2": " ", "TYPE": "AIR", "ID": "1119", "PARCEL": 0}},
{"geometry": {"type": "Point", "coordinates": [-77.47261, 37.58373]}, "type": "Feature", "properties": {"CITY": "RICHMOND", "NAME": "TRANSFLO-RICHMOND-VA", "OBJECTID": 274, "CREATOR": "INDUS", "GEOSOURCE": "GDT 2000 STREETS", "CREATEDATE": 1049846400000, "ZIP": "23227", "MODE_TYPE": "RAIL & TRUCK", "LONGITUDE": -77.47261, "STATE": "VA", "VERSION": "01", "FIPS": "51", "ASSOC": "CSXT", "MODDATE": null, "LATITUDE": 37.58373, "ZIP2": " ", "TYPE": "RAIL", "ID": "114", "PARCEL": 0}},
{"geometry": {"type": "Point", "coordinates": [-77.36619, 37.24107]}, "type": "Feature", "properties": {"CITY": "PRINCE GEORGE", "NAME": "NS INDEPENDENT BULK TRANSFER TERMINAL-PRINCE GEORG", "OBJECTID": 282, "CREATOR": "INDUS", "GEOSOURCE": "GDT 2001 STREETS", "CREATEDATE": 1049846400000, "ZIP": "23875", "MODE_TYPE": "RAIL & TRUCK", "LONGITUDE": -77.36619, "STATE": "VA", "VERSION": "01", "FIPS": "51", "ASSOC": "NS", "MODDATE": null, "LATITUDE": 37.24107, "ZIP2": "1250", "TYPE": "RAIL", "ID": "115", "PARCEL": 0}},
{"geometry": {"type": "Point", "coordinates": [-76.31522, 36.83075]}, "type": "Feature", "properties": {"CITY": "PORTSMOUTH", "NAME": "TRANSFLO-PORTSMOUTH-VA", "OBJECTID": 320, "CREATOR": "INDUS", "GEOSOURCE": "GDT 2000 STREETS", "CREATEDATE": 1049846400000, "ZIP": "23704", "MODE_TYPE": "RAIL & TRUCK", "LONGITUDE": -76.31522, "STATE": "VA", "VERSION": "01", "FIPS": "51", "ASSOC": " ", "MODDATE": null, "LATITUDE": 36.83075, "ZIP2": " ", "TYPE": "RAIL", "ID": "119", "PARCEL": 0}},
{"geometry": {"type": "Point", "coordinates": [-77.27195, 37.3118]}, "type": "Feature", "properties": {"CITY": "HOPEWELL", "NAME": "NS INDEPENDENT BULK TRANSFER TERMINAL-HOPEWELL-VIR", "OBJECTID": 339, "CREATOR": "INDUS", "GEOSOURCE": "GDT 2000 STREETS", "CREATEDATE": 1049846400000, "ZIP": "23860", "MODE_TYPE": "RAIL & TRUCK", "LONGITUDE": -77.27195, "STATE": "VA", "VERSION": "01", "FIPS": "51", "ASSOC": "NS, CSXT", "MODDATE": null, "LATITUDE": 37.3118, "ZIP2": " ", "TYPE": "RAIL", "ID": "121", "PARCEL": 0}},
{"geometry": {"type": "Point", "coordinates": [-77.44642, 38.95553]}, "type": "Feature", "properties": {"CITY": "DULLES", "NAME": "WASHINGTON DULLES INTERNATIONAL AIRPORT", "OBJECTID": 365, "CREATOR": "INDUS", "GEOSOURCE": "GDT 2000 STREETS", "CREATEDATE": 1049846400000, "ZIP": "20166", "MODE_TYPE": "AIR & TRUCK", "LONGITUDE": -77.44642, "STATE": "VA", "VERSION": "01", "FIPS": "51", "ASSOC": " ", "MODDATE": null, "LATITUDE": 38.95553, "ZIP2": " ", "TYPE": "AIR", "ID": "1237", "PARCEL": 0}},
{"geometry": {"type": "Point", "coordinates": [-77.33559, 37.51025]}, "type": "Feature", "properties": {"CITY": "RICHMOND", "NAME": "RICHMOND INTERNATIONAL AIRPORT", "OBJECTID": 366, "CREATOR": "INDUS", "GEOSOURCE": "GDT 2000 STREETS", "CREATEDATE": 1049846400000, "ZIP": "23250", "MODE_TYPE": "AIR & TRUCK", "LONGITUDE": -77.33559, "STATE": "VA", "VERSION": "01", "FIPS": "51", "ASSOC": " ", "MODDATE": null, "LATITUDE": 37.51025, "ZIP2": " ", "TYPE": "AIR", "ID": "1238", "PARCEL": 0}},
{"geometry": {"type": "Point", "coordinates": [-76.21441, 36.89827]}, "type": "Feature", "properties": {"CITY": "NORFOLK", "NAME": "NORFOLK INTERNATIONAL AIRPORT", "OBJECTID": 367, "CREATOR": "INDUS", "GEOSOURCE": "GDT 2000 STREETS", "CREATEDATE": 1049846400000, "ZIP": "23518", "MODE_TYPE": "AIR & TRUCK", "LONGITUDE": -76.21441, "STATE": "VA", "VERSION": "01", "FIPS": "51", "ASSOC": " ", "MODDATE": null, "LATITUDE": 36.89827, "ZIP2": "5807", "TYPE": "AIR", "ID": "1239", "PARCEL": 0}},
{"geometry": {"type": "Point", "coordinates": [-77.03772, 38.85208]}, "type": "Feature", "properties": {"CITY": "WASHINGTON", "NAME": "WASHINGTON REAGAN NATIONAL AIRPORT", "OBJECTID": 483, "CREATOR": "INDUS", "GEOSOURCE": "NTAD 2001 AIRPORTS", "CREATEDATE": 1049846400000, "ZIP": "20001", "MODE_TYPE": "AIR & TRUCK", "LONGITUDE": -77.03772, "STATE": "VA", "VERSION": "01", "FIPS": "51", "ASSOC": " ", "MODDATE": null, "LATITUDE": 38.85208, "ZIP2": " ", "TYPE": "AIR", "ID": "1350", "PARCEL": 0}},
{"geometry": {"type": "Point", "coordinates": [-78.19901, 38.91976]}, "type": "Feature", "properties": {"CITY": "FRONT ROYAL", "NAME": "NS-FRONT ROYAL-VA", "OBJECTID": 541, "CREATOR": "INDUS", "GEOSOURCE": "GDT 2000 STREETS", "CREATEDATE": 1049846400000, "ZIP": "22630", "MODE_TYPE": "RAIL & TRUCK", "LONGITUDE": -78.19901, "STATE": "VA", "VERSION": "01", "FIPS": "51", "ASSOC": " ", "MODDATE": null, "LATITUDE": 38.91976, "ZIP2": " ", "TYPE": "RAIL", "ID": "1412", "PARCEL": 0}},
{"geometry": {"type": "Point", "coordinates": [-77.1249, 38.82252]}, "type": "Feature", "properties": {"CITY": "ALEXANDRIA", "NAME": "NS-ALEXANDRIA-VA", "OBJECTID": 569, "CREATOR": "INDUS", "GEOSOURCE": "GDT 2000 STREETS", "CREATEDATE": 1049846400000, "ZIP": "22304", "MODE_TYPE": "RAIL & TRUCK", "LONGITUDE": -77.1249, "STATE": "VA", "VERSION": "01", "FIPS": "51", "ASSOC": " ", "MODDATE": null, "LATITUDE": 38.82252, "ZIP2": " ", "TYPE": "RAIL", "ID": "1441", "PARCEL": 0}},
{"geometry": {"type": "Point", "coordinates": [-77.38024, 37.23703]}, "type": "Feature", "properties": {"CITY": "PETERSBURG", "NAME": "NS INDEPENDENT BULK TRANSFER TERMINAL-PETERSBURG-V", "OBJECTID": 597, "CREATOR": "INDUS", "GEOSOURCE": "GDT 2000 STREETS", "CREATEDATE": 1049846400000, "ZIP": "23803", "MODE_TYPE": "RAIL & TRUCK", "LONGITUDE": -77.38024, "STATE": "VA", "VERSION": "01", "FIPS": "51", "ASSOC": "NS", "MODDATE": null, "LATITUDE": 37.23703, "ZIP2": " ", "TYPE": "RAIL", "ID": "147", "PARCEL": 0}},
{"geometry": {"type": "Point", "coordinates": [-76.27276, 36.83392]}, "type": "Feature", "properties": {"CITY": "NORFOLK", "NAME": "NS INDEPENDENT BULK TRANSFER TERMINAL-NORFOLK-VA-1", "OBJECTID": 628, "CREATOR": "INDUS", "GEOSOURCE": "GDT 2000 STREETS", "CREATEDATE": 1049846400000, "ZIP": "23523", "MODE_TYPE": "RAIL & TRUCK", "LONGITUDE": -76.27276, "STATE": "VA", "VERSION": "01", "FIPS": "51", "ASSOC": "NS", "MODDATE": null, "LATITUDE": 36.83392, "ZIP2": " ", "TYPE": "RAIL", "ID": "150", "PARCEL": 0}},
{"geometry": {"type": "Point", "coordinates": [-77.28422, 37.30229]}, "type": "Feature", "properties": {"CITY": "HOPEWELL", "NAME": "NS INDEPENDENT BULK TRANSFER TERMINAL-HOPEWELL-VA-", "OBJECTID": 659, "CREATOR": "INDUS", "GEOSOURCE": "GDT 2000 STREETS", "CREATEDATE": 1049846400000, "ZIP": "23860", "MODE_TYPE": "RAIL & TRUCK", "LONGITUDE": -77.28422, "STATE": "VA", "VERSION": "01", "FIPS": "51", "ASSOC": "NS, CSXT", "MODDATE": null, "LATITUDE": 37.30229, "ZIP2": " ", "TYPE": "RAIL", "ID": "153", "PARCEL": 0}},
{"geometry": {"type": "Point", "coordinates": [-77.31304, 37.18022]}, "type": "Feature", "properties": {"CITY": "DISPUTANTA", "NAME": "NS INDEPENDENT BULK TRANSFER TERMINAL-DISPUTANTA-V", "OBJECTID": 666, "CREATOR": "INDUS", "GEOSOURCE": "GDT 2000 STREETS", "CREATEDATE": 1049846400000, "ZIP": "23842", "MODE_TYPE": "RAIL & TRUCK", "LONGITUDE": -77.31304, "STATE": "VA", "VERSION": "01", "FIPS": "51", "ASSOC": "NS", "MODDATE": null, "LATITUDE": 37.18022, "ZIP2": " ", "TYPE": "RAIL", "ID": "154", "PARCEL": 0}},
{"geometry": {"type": "Point", "coordinates": [-76.26564, 36.78647]}, "type": "Feature", "properties": {"CITY": "CHESAPEAKE", "NAME": "NS INDEPENDENT BULK TRANSFER TERMINAL-CHESAPEAKE-V", "OBJECTID": 685, "CREATOR": "INDUS", "GEOSOURCE": "GDT 2000 STREETS", "CREATEDATE": 1049846400000, "ZIP": "23324", "MODE_TYPE": "RAIL & TRUCK", "LONGITUDE": -76.26564, "STATE": "VA", "VERSION": "01", "FIPS": "51", "ASSOC": "NS", "MODDATE": null, "LATITUDE": 36.78647, "ZIP2": " ", "TYPE": "RAIL", "ID": "156", "PARCEL": 0}},
{"geometry": {"type": "Point", "coordinates": [-76.32311, 36.85454]}, "type": "Feature", "properties": {"CITY": "PORTSMOUTH", "NAME": "CSX INTERMODAL-PORTSMOUTH-VA", "OBJECTID": 1066, "CREATOR": "INDUS", "GEOSOURCE": "GDT 2000 STREETS", "CREATEDATE": 1049846400000, "ZIP": "23707", "MODE_TYPE": "RAIL & TRUCK", "LONGITUDE": -76.32311, "STATE": "VA", "VERSION": "01", "FIPS": "51", "ASSOC": " ", "MODDATE": null, "LATITUDE": 36.85454, "ZIP2": " ", "TYPE": "RAIL", "ID": "1968", "PARCEL": 0}},
{"geometry": {"type": "Point", "coordinates": [-76.25642, 36.89766]}, "type": "Feature", "properties": {"CITY": "NORFOLK", "NAME": "NORFOLK WAREHOUSE DISTRIBUTION CENTERS, INC.-NORFO", "OBJECTID": 1159, "CREATOR": "INDUS", "GEOSOURCE": "GDT 2000 STREETS", "CREATEDATE": 1049846400000, "ZIP": "23509", "MODE_TYPE": "RAIL & TRUCK", "LONGITUDE": -76.25642, "STATE": "VA", "VERSION": "01", "FIPS": "51", "ASSOC": " ", "MODDATE": null, "LATITUDE": 36.89766, "ZIP2": " ", "TYPE": "RAIL", "ID": "2062", "PARCEL": 0}},
{"geometry": {"type": "Point", "coordinates": [-77.42337, 37.45589]}, "type": "Feature", "properties": {"CITY": "RICHMOND", "NAME": "PORT OF RICHMOND-VA", "OBJECTID": 1298, "CREATOR": "INDUS", "GEOSOURCE": "GDT 2001 STREETS", "CREATEDATE": 1049846400000, "ZIP": "23234", "MODE_TYPE": "TRUCK - PORT - RAIL", "LONGITUDE": -77.42337, "STATE": "VA", "VERSION": "01", "FIPS": "51", "ASSOC": " ", "MODDATE": null, "LATITUDE": 37.45589, "ZIP2": " ", "TYPE": "PORT", "ID": "2243", "PARCEL": 0}},
{"geometry": {"type": "Point", "coordinates": [-77.38011, 37.23712]}, "type": "Feature", "properties": {"CITY": "Petersburg", "NAME": "Best Eastern Storage & Transfer", "OBJECTID": 1413, "CREATOR": "INDUS", "GEOSOURCE": "GDT 2001 STREETS", "CREATEDATE": 1049846400000, "ZIP": "23803", "MODE_TYPE": "RAIL & TRUCK", "LONGITUDE": -77.38011, "STATE": "VA", "VERSION": "01", "FIPS": "51", "ASSOC": "NS", "MODDATE": null, "LATITUDE": 37.23712, "ZIP2": " ", "TYPE": "RAIL", "ID": "2459", "PARCEL": 0}},
{"geometry": {"type": "Point", "coordinates": [-77.75556, 38.57641]}, "type": "Feature", "properties": {"CITY": "Bealeton", "NAME": "Easton Clearing", "OBJECTID": 1414, "CREATOR": "INDUS", "GEOSOURCE": "GDT 2001 STREETS", "CREATEDATE": 1049846400000, "ZIP": "22712", "MODE_TYPE": "RAIL & TRUCK", "LONGITUDE": -77.75556, "STATE": "VA", "VERSION": "01", "FIPS": "51", "ASSOC": "NS", "MODDATE": null, "LATITUDE": 38.57641, "ZIP2": " ", "TYPE": "RAIL", "ID": "2461", "PARCEL": 0}},
{"geometry": {"type": "Point", "coordinates": [-76.27294, 36.82026]}, "type": "Feature", "properties": {"CITY": "Chesapeake", "NAME": "D. D. Jones Transfer & Warehouse Company, Incorpor", "OBJECTID": 1415, "CREATOR": "INDUS", "GEOSOURCE": "GDT 2001 STREETS", "CREATEDATE": 1049846400000, "ZIP": "23325", "MODE_TYPE": "RAIL & TRUCK", "LONGITUDE": -76.27294, "STATE": "VA", "VERSION": "01", "FIPS": "51", "ASSOC": "NS", "MODDATE": null, "LATITUDE": 36.82026, "ZIP2": " ", "TYPE": "RAIL", "ID": "2462", "PARCEL": 0}},
{"geometry": {"type": "Point", "coordinates": [-76.24862, 36.7832]}, "type": "Feature", "properties": {"CITY": "Chesapeake", "NAME": "Port Norfolk Commodity Warehouse, Incorporated", "OBJECTID": 1416, "CREATOR": "INDUS", "GEOSOURCE": "GDT 2001 STREETS", "CREATEDATE": 1049846400000, "ZIP": "23320", "MODE_TYPE": "RAIL & TRUCK", "LONGITUDE": -76.24862, "STATE": "VA", "VERSION": "01", "FIPS": "51", "ASSOC": "NS", "MODDATE": null, "LATITUDE": 36.7832, "ZIP2": " ", "TYPE": "RAIL", "ID": "2464", "PARCEL": 0}},
{"geometry": {"type": "Point", "coordinates": [-79.91745, 37.26444]}, "type": "Feature", "properties": {"CITY": "Roanoke", "NAME": "H. L. Lawson & Son Incorporated", "OBJECTID": 1417, "CREATOR": "INDUS", "GEOSOURCE": "GDT 2001 STREETS", "CREATEDATE": 1049846400000, "ZIP": "24013", "MODE_TYPE": "RAIL & TRUCK", "LONGITUDE": -79.91745, "STATE": "VA", "VERSION": "01", "FIPS": "51", "ASSOC": "NS", "MODDATE": null, "LATITUDE": 37.26444, "ZIP2": " ", "TYPE": "RAIL", "ID": "2468", "PARCEL": 0}},
{"geometry": {"type": "Point", "coordinates": [-79.92332, 37.27879]}, "type": "Feature", "properties": {"CITY": "Roanoke", "NAME": "H. L. Lawson & Son, Incorporated", "OBJECTID": 1418, "CREATOR": "INDUS", "GEOSOURCE": "GDT 2001 STREETS", "CREATEDATE": 1049846400000, "ZIP": "24012", "MODE_TYPE": "RAIL & TRUCK", "LONGITUDE": -79.92332, "STATE": "VA", "VERSION": "01", "FIPS": "51", "ASSOC": "NS", "MODDATE": null, "LATITUDE": 37.27879, "ZIP2": " ", "TYPE": "RAIL", "ID": "2469", "PARCEL": 0}},
{"geometry": {"type": "Point", "coordinates": [-77.31293, 37.18025]}, "type": "Feature", "properties": {"CITY": "Disputanta", "NAME": "Ancos Polymer Handling Specialist", "OBJECTID": 1420, "CREATOR": "INDUS", "GEOSOURCE": "GDT 2001 STREETS", "CREATEDATE": 1049846400000, "ZIP": "23842", "MODE_TYPE": "RAIL & TRUCK", "LONGITUDE": -77.31293, "STATE": "VA", "VERSION": "01", "FIPS": "51", "ASSOC": "NS", "MODDATE": null, "LATITUDE": 37.18025, "ZIP2": " ", "TYPE": "RAIL", "ID": "2472", "PARCEL": 0}},
{"geometry": {"type": "Point", "coordinates": [-77.28398, 37.30283]}, "type": "Feature", "properties": {"CITY": "Hopewell", "NAME": "Commonwealth Industrial Services, Incorporated", "OBJECTID": 1472, "CREATOR": "INDUS", "GEOSOURCE": "GDT 2001 STREETS", "CREATEDATE": 1049846400000, "ZIP": "23860", "MODE_TYPE": "RAIL & TRUCK", "LONGITUDE": -77.28398, "STATE": "VA", "VERSION": "01", "FIPS": "51", "ASSOC": "NS (PRIVATE PROPERTY & TRACK)", "MODDATE": null, "LATITUDE": 37.30283, "ZIP2": " ", "TYPE": "RAIL", "ID": "2545", "PARCEL": 0}},
{"geometry": {"type": "Point", "coordinates": [-81.44831, 36.86227]}, "type": "Feature", "properties": {"CITY": "Marion", "NAME": "Superior Carriers, Incorporated", "OBJECTID": 1474, "CREATOR": "INDUS", "GEOSOURCE": "GDT 2001 STREETS", "CREATEDATE": 1049846400000, "ZIP": "24354", "MODE_TYPE": "RAIL & TRUCK", "LONGITUDE": -81.44831, "STATE": "VA", "VERSION": "01", "FIPS": "51", "ASSOC": "NS", "MODDATE": null, "LATITUDE": 36.86227, "ZIP2": " ", "TYPE": "RAIL", "ID": "2547", "PARCEL": 0}},
{"geometry": {"type": "Point", "coordinates": [-79.95794, 37.27717]}, "type": "Feature", "properties": {"CITY": "Roanoke", "NAME": "Quality Carriers, Incorporated", "OBJECTID": 1480, "CREATOR": "INDUS", "GEOSOURCE": "GDT 2001 STREETS", "CREATEDATE": 1049846400000, "ZIP": "24017", "MODE_TYPE": "RAIL & TRUCK", "LONGITUDE": -79.95794, "STATE": "VA", "VERSION": "01", "FIPS": "51", "ASSOC": "NS", "MODDATE": null, "LATITUDE": 37.27717, "ZIP2": " ", "TYPE": "RAIL", "ID": "2554", "PARCEL": 0}},
{"geometry": {"type": "Point", "coordinates": [-79.28873, 37.13083]}, "type": "Feature", "properties": {"CITY": "Altavista", "NAME": "Yeatts Transfer & Storage", "OBJECTID": 1483, "CREATOR": "INDUS", "GEOSOURCE": "GDT 2001 STREETS", "CREATEDATE": 1049846400000, "ZIP": "24517", "MODE_TYPE": "RAIL & TRUCK", "LONGITUDE": -79.28873, "STATE": "VA", "VERSION": "01", "FIPS": "51", "ASSOC": "NS", "MODDATE": null, "LATITUDE": 37.13083, "ZIP2": " ", "TYPE": "RAIL", "ID": "2558", "PARCEL": 0}},
{"geometry": {"type": "Point", "coordinates": [-82.18911, 36.59662]}, "type": "Feature", "properties": {"CITY": "Bristol", "NAME": "Bristol Van & Storage Company", "OBJECTID": 1874, "CREATOR": "INDUS", "GEOSOURCE": "GDT 2001 STREETS", "CREATEDATE": 1049846400000, "ZIP": "24201", "MODE_TYPE": "RAIL & TRUCK", "LONGITUDE": -82.18911, "STATE": "VA", "VERSION": "01", "FIPS": "51", "ASSOC": "NS", "MODDATE": null, "LATITUDE": 36.59662, "ZIP2": " ", "TYPE": "RAIL", "ID": "3088", "PARCEL": 0}},
{"geometry": {"type": "Point", "coordinates": [-76.37189, 36.77952]}, "type": "Feature", "properties": {"CITY": "Chesapeake", "NAME": "Burris Refrigerated Services", "OBJECTID": 1875, "CREATOR": "INDUS", "GEOSOURCE": "GDT 2001 STREETS", "CREATEDATE": 1049846400000, "ZIP": "23323", "MODE_TYPE": "RAIL & TRUCK", "LONGITUDE": -76.37189, "STATE": "VA", "VERSION": "01", "FIPS": "51", "ASSOC": "NS", "MODDATE": null, "LATITUDE": 36.77952, "ZIP2": " ", "TYPE": "RAIL", "ID": "3089", "PARCEL": 0}},
{"geometry": {"type": "Point", "coordinates": [-76.24225, 36.79234]}, "type": "Feature", "properties": {"CITY": "Chesapeake", "NAME": "Givens, Incorporated", "OBJECTID": 1877, "CREATOR": "INDUS", "GEOSOURCE": "GDT 2001 STREETS", "CREATEDATE": 1049846400000, "ZIP": "23320", "MODE_TYPE": "RAIL & TRUCK", "LONGITUDE": -76.24225, "STATE": "VA", "VERSION": "01", "FIPS": "51", "ASSOC": "NS", "MODDATE": null, "LATITUDE": 36.79234, "ZIP2": " ", "TYPE": "RAIL", "ID": "3091", "PARCEL": 0}},
{"geometry": {"type": "Point", "coordinates": [-76.37463, 36.78342]}, "type": "Feature", "properties": {"CITY": "Chesapeake", "NAME": "Tidewater Warehouse Services, Incorporated", "OBJECTID": 1878, "CREATOR": "INDUS", "GEOSOURCE": "GDT 2001 STREETS", "CREATEDATE": 1049846400000, "ZIP": "23323", "MODE_TYPE": "RAIL & TRUCK", "LONGITUDE": -76.37463, "STATE": "VA", "VERSION": "01", "FIPS": "51", "ASSOC": "NS", "MODDATE": null, "LATITUDE": 36.78342, "ZIP2": " ", "TYPE": "RAIL", "ID": "3092", "PARCEL": 0}},
{"geometry": {"type": "Point", "coordinates": [-79.38644, 36.58651]}, "type": "Feature", "properties": {"CITY": "Danville", "NAME": "Davis Storage And Warehousing, Incorporated", "OBJECTID": 1879, "CREATOR": "INDUS", "GEOSOURCE": "GDT 2001 STREETS", "CREATEDATE": 1049846400000, "ZIP": "24541", "MODE_TYPE": "RAIL & TRUCK", "LONGITUDE": -79.38644, "STATE": "VA", "VERSION": "01", "FIPS": "51", "ASSOC": "NS", "MODDATE": null, "LATITUDE": 36.58651, "ZIP2": " ", "TYPE": "RAIL", "ID": "3093", "PARCEL": 0}},
{"geometry": {"type": "Point", "coordinates": [-77.29223, 38.79932]}, "type": "Feature", "properties": {"CITY": "Fairfax", "NAME": "Meridian Moving and Storage", "OBJECTID": 1880, "CREATOR": "INDUS", "GEOSOURCE": "GDT 2001 STREETS", "CREATEDATE": 1049846400000, "ZIP": "22032", "MODE_TYPE": "RAIL & TRUCK", "LONGITUDE": -77.29223, "STATE": "VA", "VERSION": "01", "FIPS": "51", "ASSOC": "NS", "MODDATE": null, "LATITUDE": 38.79932, "ZIP2": " ", "TYPE": "RAIL", "ID": "3094", "PARCEL": 0}},
{"geometry": {"type": "Point", "coordinates": [-78.87102, 38.44715]}, "type": "Feature", "properties": {"CITY": "Harrisonburg", "NAME": "Cassco Ice & Cold Storage", "OBJECTID": 1881, "CREATOR": "INDUS", "GEOSOURCE": "GDT 2001 STREETS", "CREATEDATE": 1049846400000, "ZIP": "22801", "MODE_TYPE": "RAIL & TRUCK", "LONGITUDE": -78.87102, "STATE": "VA", "VERSION": "01", "FIPS": "51", "ASSOC": "NS", "MODDATE": null, "LATITUDE": 38.44715, "ZIP2": " ", "TYPE": "RAIL", "ID": "3095", "PARCEL": 0}},
{"geometry": {"type": "Point", "coordinates": [-79.17459, 37.36805]}, "type": "Feature", "properties": {"CITY": "Lynchburg", "NAME": "Lynchburg Public Warehouse", "OBJECTID": 1882, "CREATOR": "INDUS", "GEOSOURCE": "GDT 2001 STREETS", "CREATEDATE": 1049846400000, "ZIP": "24502", "MODE_TYPE": "RAIL & TRUCK", "LONGITUDE": -79.17459, "STATE": "VA", "VERSION": "01", "FIPS": "51", "ASSOC": "NS", "MODDATE": null, "LATITUDE": 37.36805, "ZIP2": " ", "TYPE": "RAIL", "ID": "3098", "PARCEL": 0}},
{"geometry": {"type": "Point", "coordinates": [-77.34374, 37.51394]}, "type": "Feature", "properties": {"CITY": "Richmond", "NAME": "Richmond Cold Storage Company, Incorporated", "OBJECTID": 1885, "CREATOR": "INDUS", "GEOSOURCE": "GDT 2001 STREETS", "CREATEDATE": 1049846400000, "ZIP": "23150", "MODE_TYPE": "RAIL & TRUCK", "LONGITUDE": -77.34374, "STATE": "VA", "VERSION": "01", "FIPS": "51", "ASSOC": "CSXT", "MODDATE": null, "LATITUDE": 37.51394, "ZIP2": " ", "TYPE": "RAIL", "ID": "3104", "PARCEL": 0}},
{"geometry": {"type": "Point", "coordinates": [-79.98419, 37.27541]}, "type": "Feature", "properties": {"CITY": "Roanoke", "NAME": "Dehaven Transfer And Storage", "OBJECTID": 1886, "CREATOR": "INDUS", "GEOSOURCE": "GDT 2001 STREETS", "CREATEDATE": 1049846400000, "ZIP": "24022", "MODE_TYPE": "RAIL & TRUCK", "LONGITUDE": -79.98419, "STATE": "VA", "VERSION": "01", "FIPS": "51", "ASSOC": "NS", "MODDATE": null, "LATITUDE": 37.27541, "ZIP2": " ", "TYPE": "RAIL", "ID": "3105", "PARCEL": 0}},
{"geometry": {"type": "Point", "coordinates": [-79.94804, 37.25587]}, "type": "Feature", "properties": {"CITY": "Roanoke", "NAME": "Pitzer Transfer & Storage", "OBJECTID": 1887, "CREATOR": "INDUS", "GEOSOURCE": "GDT 2001 STREETS", "CREATEDATE": 1049846400000, "ZIP": "24030", "MODE_TYPE": "RAIL & TRUCK", "LONGITUDE": -79.94804, "STATE": "VA", "VERSION": "01", "FIPS": "51", "ASSOC": "NS", "MODDATE": null, "LATITUDE": 37.25587, "ZIP2": " ", "TYPE": "RAIL", "ID": "3106", "PARCEL": 0}},
{"geometry": {"type": "Point", "coordinates": [-79.95757, 37.26383]}, "type": "Feature", "properties": {"CITY": "Roanoke", "NAME": "Roanoke Ice & Cold Storage", "OBJECTID": 1888, "CREATOR": "INDUS", "GEOSOURCE": "GDT 2001 STREETS", "CREATEDATE": 1049846400000, "ZIP": "24015", "MODE_TYPE": "RAIL & TRUCK", "LONGITUDE": -79.95757, "STATE": "VA", "VERSION": "01", "FIPS": "51", "ASSOC": "NS", "MODDATE": null, "LATITUDE": 37.26383, "ZIP2": " ", "TYPE": "RAIL", "ID": "3107", "PARCEL": 0}},
{"geometry": {"type": "Point", "coordinates": [-76.26291, 36.80258]}, "type": "Feature", "properties": {"CITY": "CHESAPEAKE", "NAME": "NS-NORFOLK TERMINAL, NORFOLK-VA", "OBJECTID": 2159, "CREATOR": "INDUS", "GEOSOURCE": "GDT 2000 STREETS", "CREATEDATE": 1049846400000, "ZIP": "23324", "MODE_TYPE": "RAIL & TRUCK", "LONGITUDE": -76.26291, "STATE": "VA", "VERSION": "01", "FIPS": "51", "ASSOC": "NORFOLK SOUTHERN", "MODDATE": null, "LATITUDE": 36.80258, "ZIP2": " ", "TYPE": "RAIL", "ID": "349", "PARCEL": 0}},
{"geometry": {"type": "Point", "coordinates": [-77.50816, 38.74316]}, "type": "Feature", "properties": {"CITY": "Manassas", "NAME": "Yellow-Manassas-VA", "OBJECTID": 2461, "CREATOR": "INDUS", "GEOSOURCE": "GDT 2001 STREETS", "CREATEDATE": 1049846400000, "ZIP": "20110", "MODE_TYPE": "TRUCK - PORT - RAIL", "LONGITUDE": -77.50816, "STATE": "VA", "VERSION": "01", "FIPS": "51", "ASSOC": " ", "MODDATE": null, "LATITUDE": 38.74316, "ZIP2": " ", "TYPE": "TRUCK", "ID": "3868", "PARCEL": 0}},
{"geometry": {"type": "Point", "coordinates": [-76.36398, 36.7848]}, "type": "Feature", "properties": {"CITY": "Chesapeake", "NAME": "Yellow-Norfolk-VA", "OBJECTID": 2463, "CREATOR": "INDUS", "GEOSOURCE": "GDT 2001 STREETS", "CREATEDATE": 1049846400000, "ZIP": "23323", "MODE_TYPE": "TRUCK - PORT - AIR", "LONGITUDE": -76.36398, "STATE": "VA", "VERSION": "01", "FIPS": "51", "ASSOC": " ", "MODDATE": null, "LATITUDE": 36.7848, "ZIP2": " ", "TYPE": "TRUCK", "ID": "3870", "PARCEL": 0}},
{"geometry": {"type": "Point", "coordinates": [-77.42166, 37.3912]}, "type": "Feature", "properties": {"CITY": "Richmond", "NAME": "Yellow-Richmond-VA", "OBJECTID": 2466, "CREATOR": "INDUS", "GEOSOURCE": "GDT 2001 STREETS", "CREATEDATE": 1049846400000, "ZIP": "23237", "MODE_TYPE": "TRUCK - PORT - RAIL", "LONGITUDE": -77.42166, "STATE": "VA", "VERSION": "01", "FIPS": "51", "ASSOC": " ", "MODDATE": null, "LATITUDE": 37.3912, "ZIP2": " ", "TYPE": "TRUCK", "ID": "3873", "PARCEL": 0}},
{"geometry": {"type": "Point", "coordinates": [-79.89958, 37.30231]}, "type": "Feature", "properties": {"CITY": "Roanoke", "NAME": "Yellow-Roanoke-VA", "OBJECTID": 2468, "CREATOR": "INDUS", "GEOSOURCE": "GDT 2001 STREETS", "CREATEDATE": 1049846400000, "ZIP": "24012", "MODE_TYPE": "TRUCK - PORT - RAIL", "LONGITUDE": -79.89958, "STATE": "VA", "VERSION": "01", "FIPS": "51", "ASSOC": " ", "MODDATE": null, "LATITUDE": 37.30231, "ZIP2": " ", "TYPE": "TRUCK", "ID": "3875", "PARCEL": 0}},
{"geometry": {"type": "Point", "coordinates": [-79.06325, 38.15717]}, "type": "Feature", "properties": {"CITY": "Staunton", "NAME": "Yellow-Staunton-VA", "OBJECTID": 2470, "CREATOR": "INDUS", "GEOSOURCE": "GDT 2001 STREETS", "CREATEDATE": 1049846400000, "ZIP": "24401", "MODE_TYPE": "TRUCK - PORT - RAIL", "LONGITUDE": -79.06325, "STATE": "VA", "VERSION": "01", "FIPS": "51", "ASSOC": " ", "MODDATE": null, "LATITUDE": 38.15717, "ZIP2": " ", "TYPE": "TRUCK", "ID": "3877", "PARCEL": 0}},
{"geometry": {"type": "Point", "coordinates": [-77.33689, 37.50424]}, "type": "Feature", "properties": {"CITY": "RICHMOND", "NAME": "USPS-AMC-AMF-RICHMOND-VA", "OBJECTID": 2597, "CREATOR": "INDUS", "GEOSOURCE": "GDT 2001 STREETS", "CREATEDATE": 1049846400000, "ZIP": "23180", "MODE_TYPE": "AIR & TRUCK", "LONGITUDE": -77.33689, "STATE": "VA", "VERSION": "01", "FIPS": "51", "ASSOC": " ", "MODDATE": null, "LATITUDE": 37.50424, "ZIP2": " ", "TYPE": "AIR", "ID": "4057", "PARCEL": 0}},
{"geometry": {"type": "Point", "coordinates": [-77.45834, 39.00087]}, "type": "Feature", "properties": {"CITY": "DULLES", "NAME": "USPS-P AND DC-P AND DF-DULLES-VA", "OBJECTID": 2680, "CREATOR": "INDUS", "GEOSOURCE": "GDT 2001 STREETS", "CREATEDATE": 1049846400000, "ZIP": "20101", "MODE_TYPE": "TRUCK & TRUCK", "LONGITUDE": -77.45834, "STATE": "VA", "VERSION": "01", "FIPS": "51", "ASSOC": " ", "MODDATE": null, "LATITUDE": 39.00087, "ZIP2": " ", "TYPE": "TRUCK", "ID": "4204", "PARCEL": 0}},
{"geometry": {"type": "Point", "coordinates": [-78.17881, 38.99099]}, "type": "Feature", "properties": {"CITY": "FRONT ROYAL", "NAME": "VIRGINIA INLAND PORT", "OBJECTID": 2850, "CREATOR": "INDUS", "GEOSOURCE": "GDT 2000 STREETS", "CREATEDATE": 1049846400000, "ZIP": "22630", "MODE_TYPE": "TRUCK - PORT - RAIL", "LONGITUDE": -78.17881, "STATE": "VA", "VERSION": "01", "FIPS": "51", "ASSOC": " ", "MODDATE": null, "LATITUDE": 38.99099, "ZIP2": " ", "TYPE": "PORT", "ID": "544", "PARCEL": 0}},
{"geometry": {"type": "Point", "coordinates": [-76.33055, 36.85413]}, "type": "Feature", "properties": {"CITY": "PORTSMOUTH", "NAME": "PORTSMOUTH MARINE TERMINAL", "OBJECTID": 2851, "CREATOR": "INDUS", "GEOSOURCE": "GDT 2000 STREETS", "CREATEDATE": 1049846400000, "ZIP": "23707", "MODE_TYPE": "TRUCK - PORT - RAIL", "LONGITUDE": -76.33055, "STATE": "VA", "VERSION": "01", "FIPS": "51", "ASSOC": " ", "MODDATE": null, "LATITUDE": 36.85413, "ZIP2": " ", "TYPE": "PORT", "ID": "545", "PARCEL": 0}},
{"geometry": {"type": "Point", "coordinates": [-76.39406, 36.99382]}, "type": "Feature", "properties": {"CITY": "NEWPORT NEWS", "NAME": "NEWPORT NEWS MARINE TERMINAL", "OBJECTID": 2852, "CREATOR": "INDUS", "GEOSOURCE": "GDT 2000 STREETS", "CREATEDATE": 1049846400000, "ZIP": "23607", "MODE_TYPE": "TRUCK - PORT - RAIL", "LONGITUDE": -76.39406, "STATE": "VA", "VERSION": "01", "FIPS": "51", "ASSOC": " ", "MODDATE": null, "LATITUDE": 36.99382, "ZIP2": " ", "TYPE": "PORT", "ID": "546", "PARCEL": 0}},
{"geometry": {"type": "Point", "coordinates": [-76.30966, 36.91691]}, "type": "Feature", "properties": {"CITY": "NORFOLK", "NAME": "NORFOLK INTERNATIONAL TERMINALS", "OBJECTID": 2853, "CREATOR": "INDUS", "GEOSOURCE": "GDT 2000 STREETS", "CREATEDATE": 1049846400000, "ZIP": "23505", "MODE_TYPE": "TRUCK - PORT - RAIL", "LONGITUDE": -76.30966, "STATE": "VA", "VERSION": "01", "FIPS": "51", "ASSOC": " ", "MODDATE": null, "LATITUDE": 36.91691, "ZIP2": " ", "TYPE": "PORT", "ID": "547", "PARCEL": 0}},
{"geometry": {"type": "Point", "coordinates": [-79.93017, 37.30439]}, "type": "Feature", "properties": {"CITY": "ROANOKE", "NAME": "NS INDEPENDENT BULK TRANSFER TERMINAL-ROANOKE-VA", "OBJECTID": 3161, "CREATOR": "INDUS", "GEOSOURCE": "GDT 2000 STREETS", "CREATEDATE": 1049846400000, "ZIP": "24012", "MODE_TYPE": "RAIL & TRUCK", "LONGITUDE": -79.93017, "STATE": "VA", "VERSION": "01", "FIPS": "51", "ASSOC": "NS", "MODDATE": null, "LATITUDE": 37.30439, "ZIP2": " ", "TYPE": "RAIL", "ID": "87", "PARCEL": 0}},
{"geometry": {"type": "Point", "coordinates": [-77.4181, 37.17262]}, "type": "Feature", "properties": {"CITY": "PETERSBURG", "NAME": "TRANSFLO-PETERSBURG-VA-3500 HAILF", "OBJECTID": 3209, "CREATOR": "INDUS", "GEOSOURCE": "GDT 2000 STREETS", "CREATEDATE": 1049846400000, "ZIP": "23805", "MODE_TYPE": "RAIL & TRUCK", "LONGITUDE": -77.4181, "STATE": "VA", "VERSION": "01", "FIPS": "51", "ASSOC": "CSXT", "MODDATE": null, "LATITUDE": 37.17262, "ZIP2": " ", "TYPE": "RAIL", "ID": "92", "PARCEL": 0}}
]}