{"type":"FeatureCollection","features":[
{"geometry": {"type": "Point", "coordinates": [-78.5047649, 38.0343151]}, "type": "Feature", "properties": {"RADIUS1": 0, "DIRECTION": 203, "RADIUS2": 10000, "OBJECTID": 1, "AZIMUTH1": 105, "AZIMUTH2": 210, "YEAR": 1951, "PLACE": "Serpentine walls and Pavilion IX", "OFFSETA": 5, "OFFSETB": 0, "VERT1": 60, "VERT2": -60}},
{"geometry": {"type": "Point", "coordinates": [-78.5006904, 38.0392744]}, "type": "Feature", "properties": {"RADIUS1": 0, "DIRECTION": 245, "RADIUS2": 10000, "OBJECTID": 2, "AZIMUTH1": 145, "AZIMUTH2": 255, "YEAR": 1955, "PLACE": "Aerial", "OFFSETA": 1000, "OFFSETB": 0, "VERT1": 0, "VERT2": -90}},
{"geometry": {"type": "Point", "coordinates": [-78.5136365, 38.029671]}, "type": "Feature", "properties": {"RADIUS1": 0, "DIRECTION": 55, "RADIUS2": 10000, "OBJECTID": 3, "AZIMUTH1": 315, "AZIMUTH2": 65, "YEAR": 1959, "PLACE": "Stadium and Gilmer field", "OFFSETA": 500, "OFFSETB": 0, "VERT1": 60, "VERT2": -60}},
{"geometry": {"type": "Point", "coordinates": [-78.5044921, 38.034184]}, "type": "Feature", "properties": {"RADIUS1": 0, "DIRECTION": 338, "RADIUS2": 10000, "OBJECTID": 4, "AZIMUTH1": 255, "AZIMUTH2": 330, "YEAR": 1963, "PLACE": "Pavilion IX, West Lawn", "OFFSETA": 5, "OFFSETB": 0, "VERT1": 60, "VERT2": -60}},
{"geometry": {"type": "Point", "coordinates": [-78.5036906, 38.0354593]}, "type": "Feature", "properties": {"RADIUS1": 0, "DIRECTION": 115, "RADIUS2": 10000, "OBJECTID": 5, "AZIMUTH1": 40, "AZIMUTH2": 100, "YEAR": 1963, "PLACE": "Rotunda, from the southwest", "OFFSETA": 5, "OFFSETB": 0, "VERT1": 60, "VERT2": -60}},
{"geometry": {"type": "Point", "coordinates": [-78.5047786, 38.0365391]}, "type": "Feature", "properties": {"RADIUS1": 0, "DIRECTION": 323, "RADIUS2": 10000, "OBJECTID": 6, "AZIMUTH1": 215, "AZIMUTH2": 340, "YEAR": 1966, "PLACE": "Alderman Library", "OFFSETA": 5, "OFFSETB": 0, "VERT1": 60, "VERT2": -60}},
{"geometry": {"type": "Point", "coordinates": [-78.5037071, 38.0350511]}, "type": "Feature", "properties": {"RADIUS1": 0, "DIRECTION": 153, "RADIUS2": 10000, "OBJECTID": 7, "AZIMUTH1": 80, "AZIMUTH2": 135, "YEAR": 1969, "PLACE": "The line of people walking across Lawn", "OFFSETA": 5, "OFFSETB": 0, "VERT1": 60, "VERT2": -60}},
{"geometry": {"type": "Point", "coordinates": [-78.5034148, 38.0351798]}, "type": "Feature", "properties": {"RADIUS1": 0, "DIRECTION": 185, "RADIUS2": 10000, "OBJECTID": 8, "AZIMUTH1": 100, "AZIMUTH2": 180, "YEAR": 1971, "PLACE": "Pavilion IV", "OFFSETA": 5, "OFFSETB": 0, "VERT1": 60, "VERT2": -60}},
{"geometry": {"type": "Point", "coordinates": [-78.5045212, 38.034171]}, "type": "Feature", "properties": {"RADIUS1": 0, "DIRECTION": 343, "RADIUS2": 10000, "OBJECTID": 9, "AZIMUTH1": 255, "AZIMUTH2": 340, "YEAR": 1976, "PLACE": "Pavilion IX", "OFFSETA": 5, "OFFSETB": 0, "VERT1": 60, "VERT2": -60}},
{"geometry": {"type": "Point", "coordinates": [-78.5111324, 38.0364873]}, "type": "Feature", "properties": {"RADIUS1": 0, "DIRECTION": 103, "RADIUS2": 10000, "OBJECTID": 10, "AZIMUTH1": 35, "AZIMUTH2": 80, "YEAR": 1980, "PLACE": "UVA  Aerial", "OFFSETA": 1000, "OFFSETB": 0, "VERT1": 60, "VERT2": -60}},
{"geometry": {"type": "Point", "coordinates": [-78.5042473, 38.0407878]}, "type": "Feature", "properties": {"RADIUS1": 0, "DIRECTION": 210, "RADIUS2": 10000, "OBJECTID": 11, "AZIMUTH1": 125, "AZIMUTH2": 205, "YEAR": 1983, "PLACE": "Drama Building, Culbreth and Helms Theatres", "OFFSETA": 5, "OFFSETB": 0, "VERT1": 60, "VERT2": -60}},
{"geometry": {"type": "Point", "coordinates": [-78.5037558, 38.0352112]}, "type": "Feature", "properties": {"RADIUS1": 0, "DIRECTION": 80, "RADIUS2": 10000, "OBJECTID": 12, "AZIMUTH1": 0, "AZIMUTH2": 70, "YEAR": 2000, "PLACE": "Rotunda", "OFFSETA": 5, "OFFSETB": 0, "VERT1": 60, "VERT2": -60}}
]}