{"type":"FeatureCollection","features":[
{"geometry": {"type": "Point", "coordinates": [-78.5045094, 38.0340576]}, "type": "Feature", "properties": {"RADIUS1": 0, "DIRECTION": 10, "RADIUS2": 10000, "OBJECTID": 1, "URL": null, "AZIMUTH1": 295, "AZIMUTH2": 350, "YEAR": 1920, "PLACE": "Pavilion IX in West Lawn", "OFFSETA": 5, "OFFSETB": 0, "VERT1": 60, "VERT2": -60}},
{"geometry": {"type": "Point", "coordinates": [-78.5045094, 38.0340576]}, "type": "Feature", "properties": {"RADIUS1": 0, "DIRECTION": 20, "RADIUS2": 10000, "OBJECTID": 2, "URL": null, "AZIMUTH1": 320, "AZIMUTH2": 350, "YEAR": 1905, "PLACE": "Pavilion IX", "OFFSETA": 5, "OFFSETB": 0, "VERT1": 60, "VERT2": -60}},
{"geometry": {"type": "Point", "coordinates": [-78.503319, 38.0361106]}, "type": "Feature", "properties": {"RADIUS1": 0, "DIRECTION": 235, "RADIUS2": 10000, "OBJECTID": 3, "URL": null, "AZIMUTH1": 145, "AZIMUTH2": 235, "YEAR": 1910, "PLACE": "Rotunda, north facade, from the northwest", "OFFSETA": 5, "OFFSETB": 0, "VERT1": 60, "VERT2": -60}},
{"geometry": {"type": "Point", "coordinates": [-78.5036693, 38.0352793]}, "type": "Feature", "properties": {"RADIUS1": 0, "DIRECTION": 73, "RADIUS2": 10000, "OBJECTID": 4, "URL": "http://people.virginia.edu/~yz7fm/ViewshedImages/1900-1920_Rotunda.jpg", "AZIMUTH1": 340, "AZIMUTH2": 68, "YEAR": 1910, "PLACE": "Rotunda", "OFFSETA": 5, "OFFSETB": 0, "VERT1": 60, "VERT2": -60}},
{"geometry": {"type": "Point", "coordinates": [-78.5040836, 38.0404819]}, "type": "Feature", "properties": {"RADIUS1": 0, "DIRECTION": 98, "RADIUS2": 10000, "OBJECTID": 5, "URL": null, "AZIMUTH1": 20, "AZIMUTH2": 85, "YEAR": 1902, "PLACE": "Lambeth Field", "OFFSETA": 5, "OFFSETB": 0, "VERT1": 60, "VERT2": -60}},
{"geometry": {"type": "Point", "coordinates": [-78.5029745, 38.0417107]}, "type": "Feature", "properties": {"RADIUS1": 0, "DIRECTION": 235, "RADIUS2": 10000, "OBJECTID": 6, "URL": null, "AZIMUTH1": 138, "AZIMUTH2": 240, "YEAR": 1903, "PLACE": "Lambeth Field", "OFFSETA": 5, "OFFSETB": 0, "VERT1": 60, "VERT2": -60}},
{"geometry": {"type": "Point", "coordinates": [-78.5033483, 38.0352891]}, "type": "Feature", "properties": {"RADIUS1": 0, "DIRECTION": 215, "RADIUS2": 10000, "OBJECTID": 7, "URL": null, "AZIMUTH1": 135, "AZIMUTH2": 205, "YEAR": 1905, "PLACE": "East Range", "OFFSETA": 5, "OFFSETB": 0, "VERT1": 60, "VERT2": -60}},
{"geometry": {"type": "Point", "coordinates": [-78.5038795, 38.03526]}, "type": "Feature", "properties": {"RADIUS1": 0, "DIRECTION": 335, "RADIUS2": 10000, "OBJECTID": 8, "URL": null, "AZIMUTH1": 245, "AZIMUTH2": 335, "YEAR": 1906, "PLACE": "James A. Harrison and Wife With Students on West Lawn in Front of Pavilion III", "OFFSETA": 5, "OFFSETB": 0, "VERT1": 60, "VERT2": -60}},
{"geometry": {"type": "Point", "coordinates": [-78.5040402, 38.0347151]}, "type": "Feature", "properties": {"RADIUS1": 0, "DIRECTION": 285, "RADIUS2": 10000, "OBJECTID": 9, "URL": null, "AZIMUTH1": 215, "AZIMUTH2": 265, "YEAR": 1907, "PLACE": "West Range", "OFFSETA": 5, "OFFSETB": 0, "VERT1": 60, "VERT2": -60}},
{"geometry": {"type": "Point", "coordinates": [-78.5033673, 38.03535]}, "type": "Feature", "properties": {"RADIUS1": 0, "DIRECTION": 10, "RADIUS2": 10000, "OBJECTID": 10, "URL": null, "AZIMUTH1": 285, "AZIMUTH2": 0, "YEAR": 1910, "PLACE": "Pavilion I", "OFFSETA": 5, "OFFSETB": 0, "VERT1": 60, "VERT2": -60}},
{"geometry": {"type": "Point", "coordinates": [-78.5044389, 38.0341038]}, "type": "Feature", "properties": {"RADIUS1": 0, "DIRECTION": 25, "RADIUS2": 10000, "OBJECTID": 11, "URL": null, "AZIMUTH1": 290, "AZIMUTH2": 30, "YEAR": 1910, "PLACE": "Pavilion IX", "OFFSETA": 5, "OFFSETB": 0, "VERT1": 60, "VERT2": -60}},
{"geometry": {"type": "Point", "coordinates": [-78.5034805, 38.0338428]}, "type": "Feature", "properties": {"RADIUS1": 0, "DIRECTION": 40, "RADIUS2": 10000, "OBJECTID": 12, "URL": "http://people.virginia.edu/~yz7fm/ViewshedImages/1910-1920_Modern%20aerial%20photo%20of%20Lawn%20showing%20the%20servant%20quarters%20behind%20Pavilion%20VI.jpg", "AZIMUTH1": 325, "AZIMUTH2": 20, "YEAR": 1915, "PLACE": "Modern aerial photo of Lawn showing the servant quarters behind Pavilion VI", "OFFSETA": 500, "OFFSETB": 0, "VERT1": 60, "VERT2": -60}},
{"geometry": {"type": "Point", "coordinates": [-78.5028717, 38.0333864]}, "type": "Feature", "properties": {"RADIUS1": 0, "DIRECTION": 55, "RADIUS2": 10000, "OBJECTID": 13, "URL": null, "AZIMUTH1": 315, "AZIMUTH2": 65, "YEAR": 1911, "PLACE": "East Range", "OFFSETA": 5, "OFFSETB": 0, "VERT1": 60, "VERT2": -60}},
{"geometry": {"type": "Point", "coordinates": [-78.5042732, 38.0344185]}, "type": "Feature", "properties": {"RADIUS1": 0, "DIRECTION": 5, "RADIUS2": 10000, "OBJECTID": 14, "URL": null, "AZIMUTH1": 280, "AZIMUTH2": 0, "YEAR": 1913, "PLACE": "Colonnade Club", "OFFSETA": 5, "OFFSETB": 0, "VERT1": 60, "VERT2": -60}},
{"geometry": {"type": "Point", "coordinates": [-78.5040884, 38.0337329]}, "type": "Feature", "properties": {"RADIUS1": 0, "DIRECTION": 85, "RADIUS2": 10000, "OBJECTID": 15, "URL": null, "AZIMUTH1": 0, "AZIMUTH2": 80, "YEAR": 1914, "PLACE": "Pavilion X", "OFFSETA": 5, "OFFSETB": 0, "VERT1": 60, "VERT2": -60}},
{"geometry": {"type": "Point", "coordinates": [-78.504012, 38.0340056]}, "type": "Feature", "properties": {"RADIUS1": 0, "DIRECTION": 160, "RADIUS2": 10000, "OBJECTID": 16, "URL": null, "AZIMUTH1": 60, "AZIMUTH2": 170, "YEAR": 1914, "PLACE": "Pavilion X", "OFFSETA": 5, "OFFSETB": 0, "VERT1": 60, "VERT2": -60}},
{"geometry": {"type": "Point", "coordinates": [-78.5031227, 38.0355865]}, "type": "Feature", "properties": {"RADIUS1": 0, "DIRECTION": 90, "RADIUS2": 10000, "OBJECTID": 17, "URL": null, "AZIMUTH1": 0, "AZIMUTH2": 90, "YEAR": 1915, "PLACE": "Rotunda Courtyard", "OFFSETA": 5, "OFFSETB": 0, "VERT1": 60, "VERT2": -60}},
{"geometry": {"type": "Point", "coordinates": [-78.5043944, 38.0330538]}, "type": "Feature", "properties": {"RADIUS1": 0, "DIRECTION": 118, "RADIUS2": 10000, "OBJECTID": 18, "URL": null, "AZIMUTH1": 10, "AZIMUTH2": 135, "YEAR": 1918, "PLACE": "Rouss Hall with Pavilion X in background", "OFFSETA": 5, "OFFSETB": 0, "VERT1": 60, "VERT2": -60}},
{"geometry": {"type": "Point", "coordinates": [-78.5022284, 38.0347087]}, "type": "Feature", "properties": {"RADIUS1": 0, "DIRECTION": 255, "RADIUS2": 10000, "OBJECTID": 19, "URL": null, "AZIMUTH1": 180, "AZIMUTH2": 240, "YEAR": 1925, "PLACE": "East Range", "OFFSETA": 5, "OFFSETB": 0, "VERT1": 60, "VERT2": -60}},
{"geometry": {"type": "Point", "coordinates": [-78.5038045, 38.0343899]}, "type": "Feature", "properties": {"RADIUS1": 0, "DIRECTION": 160, "RADIUS2": 10000, "OBJECTID": 20, "URL": null, "AZIMUTH1": 65, "AZIMUTH2": 165, "YEAR": 1920, "PLACE": "Pavilion IX", "OFFSETA": 5, "OFFSETB": 0, "VERT1": 60, "VERT2": -60}},
{"geometry": {"type": "Point", "coordinates": [-78.5040472, 38.0348249]}, "type": "Feature", "properties": {"RADIUS1": 0, "DIRECTION": 0, "RADIUS2": 10000, "OBJECTID": 21, "URL": null, "AZIMUTH1": 265, "AZIMUTH2": 0, "YEAR": 1920, "PLACE": "Pavilion V", "OFFSETA": 5, "OFFSETB": 0, "VERT1": 60, "VERT2": -60}},
{"geometry": {"type": "Point", "coordinates": [-78.5037473, 38.0353994]}, "type": "Feature", "properties": {"RADIUS1": 0, "DIRECTION": 0, "RADIUS2": 10000, "OBJECTID": 22, "URL": null, "AZIMUTH1": 270, "AZIMUTH2": 0, "YEAR": 1925, "PLACE": "Pavilion I", "OFFSETA": 5, "OFFSETB": 0, "VERT1": 60, "VERT2": -60}},
{"geometry": {"type": "Point", "coordinates": [-78.5029561, 38.0335485]}, "type": "Feature", "properties": {"RADIUS1": 0, "DIRECTION": 45, "RADIUS2": 10000, "OBJECTID": 23, "URL": null, "AZIMUTH1": 310, "AZIMUTH2": 50, "YEAR": 1930, "PLACE": "East Range", "OFFSETA": 5, "OFFSETB": 0, "VERT1": 60, "VERT2": -60}},
{"geometry": {"type": "Point", "coordinates": [-78.5024317, 38.0331611]}, "type": "Feature", "properties": {"RADIUS1": 0, "DIRECTION": 195, "RADIUS2": 10000, "OBJECTID": 24, "URL": "http://people.virginia.edu/~yz7fm/ViewshedImages/1928_Construction%20of%20the%20new%20Medical%20School.jpg", "AZIMUTH1": 100, "AZIMUTH2": 200, "YEAR": 1928, "PLACE": "Construction of new medical school", "OFFSETA": 5, "OFFSETB": 0, "VERT1": 60, "VERT2": -60}},
{"geometry": {"type": "Point", "coordinates": [-78.4986571, 38.0318597]}, "type": "Feature", "properties": {"RADIUS1": 0, "DIRECTION": 225, "RADIUS2": 10000, "OBJECTID": 25, "URL": null, "AZIMUTH1": 120, "AZIMUTH2": 240, "YEAR": 1928, "PLACE": "School of Medicine", "OFFSETA": 5, "OFFSETB": 0, "VERT1": 60, "VERT2": -60}},
{"geometry": {"type": "Point", "coordinates": [-78.5026472, 38.038138]}, "type": "Feature", "properties": {"RADIUS1": 0, "DIRECTION": 338, "RADIUS2": 10000, "OBJECTID": 26, "URL": null, "AZIMUTH1": 265, "AZIMUTH2": 320, "YEAR": 1934, "PLACE": "University of Virginia Art Museum", "OFFSETA": 5, "OFFSETB": 0, "VERT1": 60, "VERT2": -60}},
{"geometry": {"type": "Point", "coordinates": [-78.5015442, 38.0399687]}, "type": "Feature", "properties": {"RADIUS1": 0, "DIRECTION": 250, "RADIUS2": 10000, "OBJECTID": 27, "URL": null, "AZIMUTH1": 145, "AZIMUTH2": 265, "YEAR": 1934, "PLACE": "UVA Aerial", "OFFSETA": 500, "OFFSETB": 0, "VERT1": 60, "VERT2": -60}},
{"geometry": {"type": "Point", "coordinates": [-78.5053053, 38.036107]}, "type": "Feature", "properties": {"RADIUS1": 0, "DIRECTION": 55, "RADIUS2": 10000, "OBJECTID": 28, "URL": "http://people.virginia.edu/~yz7fm/ViewshedImages/1940_Alderman%20Library.jpg", "AZIMUTH1": 310, "AZIMUTH2": 70, "YEAR": 1940, "PLACE": "Alderman Library", "OFFSETA": 5, "OFFSETB": 0, "VERT1": 60, "VERT2": -60}},
{"geometry": {"type": "Point", "coordinates": [-78.502192, 38.0347449]}, "type": "Feature", "properties": {"RADIUS1": 0, "DIRECTION": 255, "RADIUS2": 10000, "OBJECTID": 29, "URL": null, "AZIMUTH1": 180, "AZIMUTH2": 240, "YEAR": 1940, "PLACE": "East Range in snow, Hotel F, Randall Hall, and Cobb Hall in background", "OFFSETA": 5, "OFFSETB": 0, "VERT1": 60, "VERT2": -60}},
{"geometry": {"type": "Point", "coordinates": [-78.5064614, 38.0333348]}, "type": "Feature", "properties": {"RADIUS1": 0, "DIRECTION": 328, "RADIUS2": 10000, "OBJECTID": 30, "URL": null, "AZIMUTH1": 240, "AZIMUTH2": 325, "YEAR": 1945, "PLACE": "Maury Hall", "OFFSETA": 5, "OFFSETB": 0, "VERT1": 60, "VERT2": -60}},
{"geometry": {"type": "Point", "coordinates": [-78.5057564, 38.0355445]}, "type": "Feature", "properties": {"RADIUS1": 0, "DIRECTION": 328, "RADIUS2": 10000, "OBJECTID": 31, "URL": null, "AZIMUTH1": 240, "AZIMUTH2": 325, "YEAR": 1945, "PLACE": "Peabody Hall", "OFFSETA": 5, "OFFSETB": 0, "VERT1": 60, "VERT2": -60}},
{"geometry": {"type": "Point", "coordinates": [-78.4985686, 38.0318118]}, "type": "Feature", "properties": {"RADIUS1": 0, "DIRECTION": 233, "RADIUS2": 10000, "OBJECTID": 32, "URL": null, "AZIMUTH1": 115, "AZIMUTH2": 260, "YEAR": 1941, "PLACE": "University Hospital", "OFFSETA": 5, "OFFSETB": 0, "VERT1": 60, "VERT2": -60}},
{"geometry": {"type": "Point", "coordinates": [-78.5019681, 38.037318]}, "type": "Feature", "properties": {"RADIUS1": 0, "DIRECTION": 253, "RADIUS2": 10000, "OBJECTID": 33, "URL": null, "AZIMUTH1": 165, "AZIMUTH2": 250, "YEAR": 1945, "PLACE": "University of Virginia, Aerial View", "OFFSETA": 500, "OFFSETB": 0, "VERT1": 60, "VERT2": -60}}
]}