{"type":"FeatureCollection","features":[
{"geometry": {"type": "Point", "coordinates": [-77.4239932, 38.4511239]}, "type": "Feature", "properties": {"SCALE": 1, "ANGLE": 1, "PLACES_ID": 1, "POLYGONID": 0, "ADDDATE": null, "SOURCE": 0, "VRE": " ", "UPDATEBY": " ", "ADDATE": 934416000000, "OBJECTID": 1, "ADDBY": " ", "UPDATEDATE": null, "POST": " ", "PERIMETER": 0, "CITY": " ", "OBJECTID_1": 1, "NAME": "AUSTIN RIDGE PARK", "ADD_": " ", "Stafford_S": 0, "PLACES_": 1, "UPDATE_": null, "TYPE": 68}},
{"geometry": {"type": "Point", "coordinates": [-77.4074974, 38.4247449]}, "type": "Feature", "properties": {"SCALE": 1, "ANGLE": 1, "PLACES_ID": 2, "POLYGONID": 0, "ADDDATE": null, "SOURCE": 0, "VRE": " ", "UPDATEBY": " ", "ADDATE": 934416000000, "OBJECTID": 2, "ADDBY": " ", "UPDATEDATE": null, "POST": " ", "PERIMETER": 0, "CITY": " ", "OBJECTID_1": 2, "NAME": "FORMER STAFFORD M.S. TRACK", "ADD_": " ", "Stafford_S": 0, "PLACES_": 2, "UPDATE_": null, "TYPE": 66}},
{"geometry": {"type": "Point", "coordinates": [-77.4773612, 38.4429162]}, "type": "Feature", "properties": {"SCALE": 1, "ANGLE": 1, "PLACES_ID": 3, "POLYGONID": 0, "ADDDATE": null, "SOURCE": 0, "VRE": " ", "UPDATEBY": " ", "ADDATE": 934416000000, "OBJECTID": 3, "ADDBY": " ", "UPDATEDATE": null, "POST": " ", "PERIMETER": 0, "CITY": " ", "OBJECTID_1": 3, "NAME": "AUGUSTINE GOLF COURSE", "ADD_": " ", "Stafford_S": 0, "PLACES_": 3, "UPDATE_": null, "TYPE": 64}},
{"geometry": {"type": "Point", "coordinates": [-77.5335945, 38.3702043]}, "type": "Feature", "properties": {"SCALE": 1, "ANGLE": 1, "PLACES_ID": 5, "POLYGONID": 0, "ADDDATE": null, "SOURCE": 0, "VRE": " ", "UPDATEBY": " ", "ADDATE": 934416000000, "OBJECTID": 4, "ADDBY": " ", "UPDATEDATE": null, "POST": " ", "PERIMETER": 0, "CITY": " ", "OBJECTID_1": 4, "NAME": "UNIV OF MARY WASH  GRAD CAMPUS", "ADD_": " ", "Stafford_S": 0, "PLACES_": 4, "UPDATE_": null, "TYPE": 50}},
{"geometry": {"type": "Point", "coordinates": [-77.4557927, 38.3161728]}, "type": "Feature", "properties": {"SCALE": 1, "ANGLE": 1, "PLACES_ID": 7, "POLYGONID": 0, "ADDDATE": null, "SOURCE": 0, "VRE": " ", "UPDATEBY": " ", "ADDATE": 934416000000, "OBJECTID": 5, "ADDBY": " ", "UPDATEDATE": null, "POST": " ", "PERIMETER": 0, "CITY": " ", "OBJECTID_1": 5, "NAME": "YMCA", "ADD_": " ", "Stafford_S": 0, "PLACES_": 5, "UPDATE_": null, "TYPE": 62}},
{"geometry": {"type": "Point", "coordinates": [-77.4592836, 38.3136213]}, "type": "Feature", "properties": {"SCALE": 1, "ANGLE": 1, "PLACES_ID": 8, "POLYGONID": 0, "ADDDATE": null, "SOURCE": 0, "VRE": " ", "UPDATEBY": " ", "ADDATE": 934416000000, "OBJECTID": 6, "ADDBY": " ", "UPDATEDATE": null, "POST": " ", "PERIMETER": 0, "CITY": " ", "OBJECTID_1": 6, "NAME": "PRATT PARK", "ADD_": " ", "Stafford_S": 0, "PLACES_": 6, "UPDATE_": null, "TYPE": 63}},
{"geometry": {"type": "Point", "coordinates": [-77.4726329, 38.3195218]}, "type": "Feature", "properties": {"SCALE": 1, "ANGLE": 1, "PLACES_ID": 9, "POLYGONID": 0, "ADDDATE": null, "SOURCE": 0, "VRE": " ", "UPDATEBY": " ", "ADDATE": 934416000000, "OBJECTID": 7, "ADDBY": " ", "UPDATEDATE": null, "POST": " ", "PERIMETER": 0, "CITY": " ", "OBJECTID_1": 7, "NAME": "FALMOUTH BRIDGE", "ADD_": " ", "Stafford_S": 0, "PLACES_": 7, "UPDATE_": null, "TYPE": 32}},
{"geometry": {"type": "Point", "coordinates": [-77.4679609, 38.3210595]}, "type": "Feature", "properties": {"SCALE": 1, "ANGLE": 1, "PLACES_ID": 10, "POLYGONID": 0, "ADDDATE": null, "SOURCE": 0, "VRE": " ", "UPDATEBY": " ", "ADDATE": 934416000000, "OBJECTID": 8, "ADDBY": " ", "UPDATEDATE": null, "POST": " ", "PERIMETER": 0, "CITY": " ", "OBJECTID_1": 8, "NAME": "FALMOUTH WATERFRONT PARK", "ADD_": " ", "Stafford_S": 0, "PLACES_": 8, "UPDATE_": null, "TYPE": 63}},
{"geometry": {"type": "Point", "coordinates": [-77.4593319, 38.3039689]}, "type": "Feature", "properties": {"SCALE": 1, "ANGLE": 1, "PLACES_ID": 11, "POLYGONID": 0, "ADDDATE": null, "SOURCE": 0, "VRE": " ", "UPDATEBY": " ", "ADDATE": 934416000000, "OBJECTID": 9, "ADDBY": " ", "UPDATEDATE": null, "POST": " ", "PERIMETER": 0, "CITY": " ", "OBJECTID_1": 9, "NAME": "CHATHAM BRIDGE", "ADD_": " ", "Stafford_S": 0, "PLACES_": 9, "UPDATE_": null, "TYPE": 32}},
{"geometry": {"type": "Point", "coordinates": [-77.4512069, 38.2896406]}, "type": "Feature", "properties": {"SCALE": 1, "ANGLE": 1, "PLACES_ID": 12, "POLYGONID": 0, "ADDDATE": null, "SOURCE": 0, "VRE": " ", "UPDATEBY": " ", "ADDATE": 934416000000, "OBJECTID": 10, "ADDBY": " ", "UPDATEDATE": null, "POST": " ", "PERIMETER": 0, "CITY": " ", "OBJECTID_1": 10, "NAME": "BLUE-GREY PKWY", "ADD_": " ", "Stafford_S": 0, "PLACES_": 10, "UPDATE_": null, "TYPE": 32}},
{"geometry": {"type": "Point", "coordinates": [-77.4080217, 38.4186973]}, "type": "Feature", "properties": {"SCALE": 1, "ANGLE": 1, "PLACES_ID": 15, "POLYGONID": 0, "ADDDATE": null, "SOURCE": 0, "VRE": " ", "UPDATEBY": " ", "ADDATE": 934416000000, "OBJECTID": 11, "ADDBY": " ", "UPDATEDATE": null, "POST": " ", "PERIMETER": 0, "CITY": " ", "OBJECTID_1": 11, "NAME": "STAFFORD SQUARE", "ADD_": " ", "Stafford_S": 0, "PLACES_": 11, "UPDATE_": null, "TYPE": 70}},
{"geometry": {"type": "Point", "coordinates": [-77.452202, 38.2955154]}, "type": "Feature", "properties": {"SCALE": 1, "ANGLE": 1, "PLACES_ID": 17, "POLYGONID": 0, "ADDDATE": null, "SOURCE": 0, "VRE": " ", "UPDATEBY": " ", "ADDATE": 934416000000, "OBJECTID": 12, "ADDBY": " ", "UPDATEDATE": null, "POST": " ", "PERIMETER": 0, "CITY": " ", "OBJECTID_1": 12, "NAME": "HISTORIC FERRY CROSSING", "ADD_": " ", "Stafford_S": 0, "PLACES_": 12, "UPDATE_": null, "TYPE": 41}},
{"geometry": {"type": "Point", "coordinates": [-77.4668951, 38.3227129]}, "type": "Feature", "properties": {"SCALE": 1, "ANGLE": 1, "PLACES_ID": 18, "POLYGONID": 0, "ADDDATE": null, "SOURCE": 0, "VRE": " ", "UPDATEBY": " ", "ADDATE": 934416000000, "OBJECTID": 13, "ADDBY": " ", "UPDATEDATE": null, "POST": " ", "PERIMETER": 0, "CITY": " ", "OBJECTID_1": 13, "NAME": "MASTER HOBBY SCHOOL", "ADD_": " ", "Stafford_S": 0, "PLACES_": 13, "UPDATE_": null, "TYPE": 42}},
{"geometry": {"type": "Point", "coordinates": [-77.4556879, 38.4827533]}, "type": "Feature", "properties": {"SCALE": 1, "ANGLE": 1, "PLACES_ID": 19, "POLYGONID": 0, "ADDDATE": null, "SOURCE": 0, "VRE": " ", "UPDATEBY": " ", "ADDATE": 934416000000, "OBJECTID": 14, "ADDBY": " ", "UPDATEDATE": null, "POST": " ", "PERIMETER": 0, "CITY": " ", "OBJECTID_1": 14, "NAME": "VULCAN QUARRY", "ADD_": " ", "Stafford_S": 0, "PLACES_": 14, "UPDATE_": null, "TYPE": 21}},
{"geometry": {"type": "Point", "coordinates": [-77.4309535, 38.2735272]}, "type": "Feature", "properties": {"SCALE": 1, "ANGLE": 1, "PLACES_ID": 20, "POLYGONID": 0, "ADDDATE": null, "SOURCE": 0, "VRE": " ", "UPDATEBY": " ", "ADDATE": 934416000000, "OBJECTID": 15, "ADDBY": " ", "UPDATEDATE": null, "POST": " ", "PERIMETER": 0, "CITY": " ", "OBJECTID_1": 15, "NAME": "DUFF MCDUFF GREEN PARK", "ADD_": " ", "Stafford_S": 0, "PLACES_": 15, "UPDATE_": null, "TYPE": 60}},
{"geometry": {"type": "Point", "coordinates": [-77.5424407, 38.4691787]}, "type": "Feature", "properties": {"SCALE": 1, "ANGLE": 1, "PLACES_ID": 21, "POLYGONID": 0, "ADDDATE": null, "SOURCE": 0, "VRE": " ", "UPDATEBY": " ", "ADDATE": 934416000000, "OBJECTID": 16, "ADDBY": " ", "UPDATEDATE": null, "POST": " ", "PERIMETER": 0, "CITY": " ", "OBJECTID_1": 16, "NAME": "WILLOWMERE PARK", "ADD_": " ", "Stafford_S": 0, "PLACES_": 16, "UPDATE_": null, "TYPE": 60}},
{"geometry": {"type": "Point", "coordinates": [-77.4604545, 38.3184911]}, "type": "Feature", "properties": {"SCALE": 1, "ANGLE": 1, "PLACES_ID": 24, "POLYGONID": 0, "ADDDATE": null, "SOURCE": 0, "VRE": " ", "UPDATEBY": " ", "ADDATE": 934416000000, "OBJECTID": 17, "ADDBY": " ", "UPDATEDATE": null, "POST": " ", "PERIMETER": 0, "CITY": " ", "OBJECTID_1": 17, "NAME": "ST. CLAIR BROOKS PARK", "ADD_": " ", "Stafford_S": 0, "PLACES_": 17, "UPDATE_": null, "TYPE": 63}},
{"geometry": {"type": "Point", "coordinates": [-77.5634237, 38.4004862]}, "type": "Feature", "properties": {"SCALE": 1, "ANGLE": 1, "PLACES_ID": 26, "POLYGONID": 0, "ADDDATE": null, "SOURCE": 0, "VRE": " ", "UPDATEBY": " ", "ADDATE": 934416000000, "OBJECTID": 18, "ADDBY": " ", "UPDATEDATE": null, "POST": "P.O.", "PERIMETER": 0, "CITY": " ", "OBJECTID_1": 18, "NAME": "HARTWOOD POST OFFICE", "ADD_": " ", "Stafford_S": 0, "PLACES_": 18, "UPDATE_": null, "TYPE": 35}},
{"geometry": {"type": "Point", "coordinates": [-77.4353028, 38.474427]}, "type": "Feature", "properties": {"SCALE": 1, "ANGLE": 1, "PLACES_ID": 27, "POLYGONID": 0, "ADDDATE": null, "SOURCE": 0, "VRE": " ", "UPDATEBY": " ", "ADDATE": 934416000000, "OBJECTID": 19, "ADDBY": " ", "UPDATEDATE": null, "POST": "P.O.", "PERIMETER": 0, "CITY": " ", "OBJECTID_1": 19, "NAME": "GARRISONVILLE POST OFFICE", "ADD_": " ", "Stafford_S": 0, "PLACES_": 19, "UPDATE_": null, "TYPE": 35}},
{"geometry": {"type": "Point", "coordinates": [-77.3808913, 38.3854518]}, "type": "Feature", "properties": {"SCALE": 1, "ANGLE": 1, "PLACES_ID": 28, "POLYGONID": 0, "ADDDATE": null, "SOURCE": 0, "VRE": " ", "UPDATEBY": " ", "ADDATE": 934416000000, "OBJECTID": 20, "ADDBY": " ", "UPDATEDATE": null, "POST": "P.O.", "PERIMETER": 0, "CITY": " ", "OBJECTID_1": 20, "NAME": "BROOKE POST OFFICE", "ADD_": " ", "Stafford_S": 0, "PLACES_": 20, "UPDATE_": null, "TYPE": 35}},
{"geometry": {"type": "Point", "coordinates": [-77.5092356, 38.354995]}, "type": "Feature", "properties": {"SCALE": 1, "ANGLE": 1, "PLACES_ID": 29, "POLYGONID": 0, "ADDDATE": null, "SOURCE": 0, "VRE": " ", "UPDATEBY": " ", "ADDATE": 934416000000, "OBJECTID": 21, "ADDBY": " ", "UPDATEDATE": null, "POST": "P.O.", "PERIMETER": 0, "CITY": " ", "OBJECTID_1": 21, "NAME": "FALMOUTH POST OFFICE", "ADD_": " ", "Stafford_S": 0, "PLACES_": 21, "UPDATE_": null, "TYPE": 35}},
{"geometry": {"type": "Point", "coordinates": [-77.5010085, 38.3532345]}, "type": "Feature", "properties": {"SCALE": 1, "ANGLE": 1, "PLACES_ID": 30, "POLYGONID": 0, "ADDDATE": null, "SOURCE": 20, "VRE": " ", "UPDATEBY": " ", "ADDATE": 993427200000, "OBJECTID": 22, "ADDBY": " ", "UPDATEDATE": null, "POST": " ", "PERIMETER": 0, "CITY": " ", "OBJECTID_1": 22, "NAME": "STAFFORD GYMNASTICS & REC CTR", "ADD_": " ", "Stafford_S": 0, "PLACES_": 22, "UPDATE_": null, "TYPE": 33}},
{"geometry": {"type": "Point", "coordinates": [-77.4862902, 38.3652825]}, "type": "Feature", "properties": {"SCALE": 1, "ANGLE": 1, "PLACES_ID": 31, "POLYGONID": 0, "ADDDATE": null, "SOURCE": 0, "VRE": " ", "UPDATEBY": " ", "ADDATE": 934416000000, "OBJECTID": 23, "ADDBY": " ", "UPDATEDATE": null, "POST": " ", "PERIMETER": 0, "CITY": " ", "OBJECTID_1": 23, "NAME": "ENON COMMUNITY CENTER", "ADD_": " ", "Stafford_S": 0, "PLACES_": 23, "UPDATE_": null, "TYPE": 33}},
{"geometry": {"type": "Point", "coordinates": [-77.4375663, 38.3463066]}, "type": "Feature", "properties": {"SCALE": 1, "ANGLE": 1, "PLACES_ID": 32, "POLYGONID": 0, "ADDDATE": null, "SOURCE": 0, "VRE": "V.R.E.", "UPDATEBY": " ", "ADDATE": 934416000000, "OBJECTID": 24, "ADDBY": " ", "UPDATEDATE": null, "POST": " ", "PERIMETER": 0, "CITY": " ", "OBJECTID_1": 24, "NAME": "LEELAND ROAD VRE STATION", "ADD_": " ", "Stafford_S": 0, "PLACES_": 24, "UPDATE_": null, "TYPE": 75}},
{"geometry": {"type": "Point", "coordinates": [-77.3834975, 38.3863583]}, "type": "Feature", "properties": {"SCALE": 1, "ANGLE": 1, "PLACES_ID": 33, "POLYGONID": 0, "ADDDATE": null, "SOURCE": 0, "VRE": "V.R.E.", "UPDATEBY": " ", "ADDATE": 934416000000, "OBJECTID": 25, "ADDBY": " ", "UPDATEDATE": null, "POST": " ", "PERIMETER": 0, "CITY": " ", "OBJECTID_1": 25, "NAME": "BROOKE VRE STATION", "ADD_": " ", "Stafford_S": 0, "PLACES_": 25, "UPDATE_": null, "TYPE": 75}},
{"geometry": {"type": "Point", "coordinates": [-77.4477185, 38.3174705]}, "type": "Feature", "properties": {"SCALE": 1, "ANGLE": 1, "PLACES_ID": 34, "POLYGONID": 0, "ADDDATE": null, "SOURCE": 31, "VRE": " ", "UPDATEBY": " ", "ADDATE": 934416000000, "OBJECTID": 26, "ADDBY": " ", "UPDATEDATE": null, "POST": " ", "PERIMETER": 0, "CITY": "FREDERICKSBURG, VA 22405", "OBJECTID_1": 26, "NAME": "VDOT DISTRICT HQ", "ADD_": "87 DEACON RD", "Stafford_S": 0, "PLACES_": 26, "UPDATE_": null, "TYPE": 73}},
{"geometry": {"type": "Point", "coordinates": [-77.4296507, 38.3924687]}, "type": "Feature", "properties": {"SCALE": 1, "ANGLE": 1, "PLACES_ID": 35, "POLYGONID": 0, "ADDDATE": null, "SOURCE": 31, "VRE": " ", "UPDATEBY": " ", "ADDATE": 934416000000, "OBJECTID": 27, "ADDBY": " ", "UPDATEDATE": null, "POST": " ", "PERIMETER": 0, "CITY": "STAFFORD, VA 22554", "OBJECTID_1": 27, "NAME": "VDOT ESKIMO HILL AREA HQ", "ADD_": "70 STATE SHOP RD", "Stafford_S": 0, "PLACES_": 27, "UPDATE_": null, "TYPE": 73}},
{"geometry": {"type": "Point", "coordinates": [-77.436043, 38.2811121]}, "type": "Feature", "properties": {"SCALE": 1, "ANGLE": 1, "PLACES_ID": 38, "POLYGONID": 0, "ADDDATE": null, "SOURCE": 0, "VRE": " ", "UPDATEBY": " ", "ADDATE": 934416000000, "OBJECTID": 28, "ADDBY": " ", "UPDATEDATE": null, "POST": " ", "PERIMETER": 0, "CITY": " ", "OBJECTID_1": 28, "NAME": "B 101.5", "ADD_": " ", "Stafford_S": 0, "PLACES_": 29, "UPDATE_": null, "TYPE": 76}},
{"geometry": {"type": "Point", "coordinates": [-77.4457676, 38.3176341]}, "type": "Feature", "properties": {"SCALE": 1, "ANGLE": 1, "PLACES_ID": 39, "POLYGONID": 0, "ADDDATE": null, "SOURCE": 31, "VRE": " ", "UPDATEBY": " ", "ADDATE": 934416000000, "OBJECTID": 29, "ADDBY": " ", "UPDATEDATE": null, "POST": " ", "PERIMETER": 0, "CITY": "FREDERICKSBURG, VA 22405", "OBJECTID_1": 29, "NAME": "VDOT RESIDENCY OFFICE", "ADD_": "86 DEACON RD", "Stafford_S": 0, "PLACES_": 30, "UPDATE_": null, "TYPE": 73}},
{"geometry": {"type": "Point", "coordinates": [-77.4974113, 38.4132013]}, "type": "Feature", "properties": {"SCALE": 1, "ANGLE": 1, "PLACES_ID": 41, "POLYGONID": 0, "ADDDATE": null, "SOURCE": 0, "VRE": " ", "UPDATEBY": " ", "ADDATE": 934416000000, "OBJECTID": 30, "ADDBY": " ", "UPDATEDATE": null, "POST": " ", "PERIMETER": 0, "CITY": " ", "OBJECTID_1": 30, "NAME": "ABEL RESERVOIR BOAT LANDING", "ADD_": " ", "Stafford_S": 0, "PLACES_": 31, "UPDATE_": null, "TYPE": 14}},
{"geometry": {"type": "Point", "coordinates": [-77.4171811, 38.2578181]}, "type": "Feature", "properties": {"SCALE": 1, "ANGLE": 1, "PLACES_ID": 42, "POLYGONID": 0, "ADDDATE": null, "SOURCE": 0, "VRE": " ", "UPDATEBY": " ", "ADDATE": 934416000000, "OBJECTID": 31, "ADDBY": " ", "UPDATEDATE": null, "POST": " ", "PERIMETER": 0, "CITY": " ", "OBJECTID_1": 31, "NAME": "LITTLE FALLS BOAT LANDING", "ADD_": " ", "Stafford_S": 0, "PLACES_": 32, "UPDATE_": null, "TYPE": 14}},
{"geometry": {"type": "Point", "coordinates": [-77.4427631, 38.449958]}, "type": "Feature", "properties": {"SCALE": 1, "ANGLE": 1, "PLACES_ID": 43, "POLYGONID": 0, "ADDDATE": null, "SOURCE": 0, "VRE": " ", "UPDATEBY": " ", "ADDATE": 934416000000, "OBJECTID": 32, "ADDBY": " ", "UPDATEDATE": null, "POST": " ", "PERIMETER": 0, "CITY": " ", "OBJECTID_1": 32, "NAME": "AUTUMN RIDGE PARK", "ADD_": " ", "Stafford_S": 0, "PLACES_": 33, "UPDATE_": null, "TYPE": 60}},
{"geometry": {"type": "Point", "coordinates": [-77.4350853, 38.4626523]}, "type": "Feature", "properties": {"SCALE": 1, "ANGLE": 1, "PLACES_ID": 44, "POLYGONID": 0, "ADDDATE": null, "SOURCE": 0, "VRE": " ", "UPDATEBY": " ", "ADDATE": 934416000000, "OBJECTID": 33, "ADDBY": " ", "UPDATEDATE": null, "POST": " ", "PERIMETER": 0, "CITY": " ", "OBJECTID_1": 33, "NAME": "WOODLANDS POOL", "ADD_": " ", "Stafford_S": 0, "PLACES_": 34, "UPDATE_": null, "TYPE": 67}},
{"geometry": {"type": "Point", "coordinates": [-77.4476296, 38.4689847]}, "type": "Feature", "properties": {"SCALE": 1, "ANGLE": 1, "PLACES_ID": 45, "POLYGONID": 0, "ADDDATE": null, "SOURCE": 20, "VRE": " ", "UPDATEBY": " ", "ADDATE": 934416000000, "OBJECTID": 34, "ADDBY": " ", "UPDATEDATE": null, "POST": " ", "PERIMETER": 0, "CITY": " ", "OBJECTID_1": 34, "NAME": "PARK RIDGE ATHLETIC FIELDS", "ADD_": " ", "Stafford_S": 0, "PLACES_": 35, "UPDATE_": null, "TYPE": 84}},
{"geometry": {"type": "Point", "coordinates": [-77.4090371, 38.4221862]}, "type": "Feature", "properties": {"SCALE": 1, "ANGLE": 1, "PLACES_ID": 46, "POLYGONID": 0, "ADDDATE": null, "SOURCE": 0, "VRE": " ", "UPDATEBY": " ", "ADDATE": 934416000000, "OBJECTID": 35, "ADDBY": " ", "UPDATEDATE": null, "POST": " ", "PERIMETER": 0, "CITY": " ", "OBJECTID_1": 35, "NAME": "911 ADMINISTRATION", "ADD_": " ", "Stafford_S": 0, "PLACES_": 36, "UPDATE_": null, "TYPE": 10}},
{"geometry": {"type": "Point", "coordinates": [-77.4090456, 38.4223153]}, "type": "Feature", "properties": {"SCALE": 1, "ANGLE": 1, "PLACES_ID": 47, "POLYGONID": 0, "ADDDATE": null, "SOURCE": 0, "VRE": " ", "UPDATEBY": " ", "ADDATE": 934416000000, "OBJECTID": 36, "ADDBY": " ", "UPDATEDATE": null, "POST": " ", "PERIMETER": 0, "CITY": " ", "OBJECTID_1": 36, "NAME": "STAFFORD CO. COURTHOUSE", "ADD_": " ", "Stafford_S": 0, "PLACES_": 37, "UPDATE_": null, "TYPE": 30}},
{"geometry": {"type": "Point", "coordinates": [-77.3379251, 38.4003636]}, "type": "Feature", "properties": {"SCALE": 1, "ANGLE": 1, "PLACES_ID": 48, "POLYGONID": 0, "ADDDATE": null, "SOURCE": 40, "VRE": " ", "UPDATEBY": " ", "ADDATE": 934416000000, "OBJECTID": 37, "ADDBY": " ", "UPDATEDATE": null, "POST": " ", "PERIMETER": 0, "CITY": " ", "OBJECTID_1": 37, "NAME": "LANDMARK YACHT CLUB", "ADD_": " ", "Stafford_S": 0, "PLACES_": 38, "UPDATE_": null, "TYPE": 16}},
{"geometry": {"type": "Point", "coordinates": [-77.33655, 38.4014552]}, "type": "Feature", "properties": {"SCALE": 1, "ANGLE": 1, "PLACES_ID": 49, "POLYGONID": 0, "ADDDATE": null, "SOURCE": 11, "VRE": " ", "UPDATEBY": " ", "ADDATE": 934416000000, "OBJECTID": 38, "ADDBY": " ", "UPDATEDATE": null, "POST": " ", "PERIMETER": 0, "CITY": " ", "OBJECTID_1": 38, "NAME": "WATSONS PT", "ADD_": " ", "Stafford_S": 0, "PLACES_": 39, "UPDATE_": null, "TYPE": 91}},
{"geometry": {"type": "Point", "coordinates": [-77.3576783, 38.3976285]}, "type": "Feature", "properties": {"SCALE": 1, "ANGLE": 1, "PLACES_ID": 50, "POLYGONID": 0, "ADDDATE": null, "SOURCE": 40, "VRE": " ", "UPDATEBY": " ", "ADDATE": 934416000000, "OBJECTID": 39, "ADDBY": " ", "UPDATEDATE": null, "POST": " ", "PERIMETER": 0, "CITY": " ", "OBJECTID_1": 39, "NAME": "COURTHOUSE ROAD B & B", "ADD_": " ", "Stafford_S": 0, "PLACES_": 40, "UPDATE_": null, "TYPE": 72}},
{"geometry": {"type": "Point", "coordinates": [-77.3681849, 38.3974481]}, "type": "Feature", "properties": {"SCALE": 1, "ANGLE": 1, "PLACES_ID": 51, "POLYGONID": 0, "ADDDATE": null, "SOURCE": 40, "VRE": " ", "UPDATEBY": " ", "ADDATE": 934416000000, "OBJECTID": 40, "ADDBY": " ", "UPDATEDATE": null, "POST": " ", "PERIMETER": 0, "CITY": " ", "OBJECTID_1": 40, "NAME": "PLANTATION PIPELINE CO", "ADD_": " ", "Stafford_S": 0, "PLACES_": 41, "UPDATE_": null, "TYPE": 76}},
{"geometry": {"type": "Point", "coordinates": [-77.3102678, 38.3970337]}, "type": "Feature", "properties": {"SCALE": 1, "ANGLE": 1, "PLACES_ID": 52, "POLYGONID": 0, "ADDDATE": null, "SOURCE": 11, "VRE": " ", "UPDATEBY": " ", "ADDATE": 934416000000, "OBJECTID": 41, "ADDBY": " ", "UPDATEDATE": null, "POST": " ", "PERIMETER": 0, "CITY": " ", "OBJECTID_1": 41, "NAME": "BRENT POINT", "ADD_": " ", "Stafford_S": 0, "PLACES_": 42, "UPDATE_": null, "TYPE": 91}},
{"geometry": {"type": "Point", "coordinates": [-77.3194365, 38.3815655]}, "type": "Feature", "properties": {"SCALE": 1, "ANGLE": 1, "PLACES_ID": 53, "POLYGONID": 0, "ADDDATE": null, "SOURCE": 40, "VRE": " ", "UPDATEBY": " ", "ADDATE": 934416000000, "OBJECTID": 42, "ADDBY": " ", "UPDATEDATE": null, "POST": " ", "PERIMETER": 0, "CITY": " ", "OBJECTID_1": 42, "NAME": "PATAWOMACK BAND MEMORIAL PARK", "ADD_": " ", "Stafford_S": 0, "PLACES_": 43, "UPDATE_": null, "TYPE": 45}},
{"geometry": {"type": "Point", "coordinates": [-77.5662746, 38.4310073]}, "type": "Feature", "properties": {"SCALE": 1, "ANGLE": 1, "PLACES_ID": 54, "POLYGONID": 0, "ADDDATE": null, "SOURCE": 0, "VRE": " ", "UPDATEBY": " ", "ADDATE": 934416000000, "OBJECTID": 43, "ADDBY": " ", "UPDATEDATE": null, "POST": " ", "PERIMETER": 0, "CITY": " ", "OBJECTID_1": 43, "NAME": "CURTIS MEMORIAL PARK", "ADD_": " ", "Stafford_S": 0, "PLACES_": 44, "UPDATE_": null, "TYPE": 60}},
{"geometry": {"type": "Point", "coordinates": [-77.5719657, 38.4347682]}, "type": "Feature", "properties": {"SCALE": 1, "ANGLE": 1, "PLACES_ID": 55, "POLYGONID": 0, "ADDDATE": null, "SOURCE": 0, "VRE": " ", "UPDATEBY": " ", "ADDATE": 934416000000, "OBJECTID": 44, "ADDBY": " ", "UPDATEDATE": null, "POST": " ", "PERIMETER": 0, "CITY": " ", "OBJECTID_1": 44, "NAME": "GAUNTLET GOLF COURSE", "ADD_": " ", "Stafford_S": 0, "PLACES_": 45, "UPDATE_": null, "TYPE": 64}},
{"geometry": {"type": "Point", "coordinates": [-77.3778284, 38.4710163]}, "type": "Feature", "properties": {"SCALE": 1, "ANGLE": 1, "PLACES_ID": 56, "POLYGONID": 0, "ADDDATE": null, "SOURCE": 0, "VRE": " ", "UPDATEBY": " ", "ADDATE": 934416000000, "OBJECTID": 45, "ADDBY": " ", "UPDATEDATE": null, "POST": " ", "PERIMETER": 0, "CITY": " ", "OBJECTID_1": 45, "NAME": "AQUIA HARBOUR GOLF COURSE", "ADD_": " ", "Stafford_S": 0, "PLACES_": 46, "UPDATE_": null, "TYPE": 64}},
{"geometry": {"type": "Point", "coordinates": [-77.5371348, 38.5084536]}, "type": "Feature", "properties": {"SCALE": 1, "ANGLE": 1, "PLACES_ID": 57, "POLYGONID": 0, "ADDDATE": null, "SOURCE": 0, "VRE": " ", "UPDATEBY": " ", "ADDATE": 934416000000, "OBJECTID": 46, "ADDBY": " ", "UPDATEDATE": null, "POST": "P.O.", "PERIMETER": 0, "CITY": " ", "OBJECTID_1": 46, "NAME": "RUBY POST OFFICE", "ADD_": " ", "Stafford_S": 0, "PLACES_": 47, "UPDATE_": null, "TYPE": 35}},
{"geometry": {"type": "Point", "coordinates": [-77.3830005, 38.4577773]}, "type": "Feature", "properties": {"SCALE": 1, "ANGLE": 1, "PLACES_ID": 58, "POLYGONID": 0, "ADDDATE": null, "SOURCE": 14, "VRE": " ", "UPDATEBY": " ", "ADDATE": 934416000000, "OBJECTID": 47, "ADDBY": " ", "UPDATEDATE": null, "POST": " ", "PERIMETER": 0, "CITY": " ", "OBJECTID_1": 47, "NAME": "AQUIA HARBOUR MARINA", "ADD_": " ", "Stafford_S": 0, "PLACES_": 48, "UPDATE_": null, "TYPE": 15}},
{"geometry": {"type": "Point", "coordinates": [-77.4449014, 38.4735392]}, "type": "Feature", "properties": {"SCALE": 1, "ANGLE": 1, "PLACES_ID": 59, "POLYGONID": 0, "ADDDATE": null, "SOURCE": 15, "VRE": " ", "UPDATEBY": " ", "ADDATE": 951696000000, "OBJECTID": 48, "ADDBY": " ", "UPDATEDATE": null, "POST": " ", "PERIMETER": 0, "CITY": " ", "OBJECTID_1": 48, "NAME": "MINNIELAND PRIVATE DAY SCHOOL", "ADD_": "664 GARRISONVILLE RD", "Stafford_S": 0, "PLACES_": 49, "UPDATE_": null, "TYPE": 51}},
{"geometry": {"type": "Point", "coordinates": [-77.4052163, 38.4545481]}, "type": "Feature", "properties": {"SCALE": 1, "ANGLE": 1, "PLACES_ID": 60, "POLYGONID": 0, "ADDDATE": null, "SOURCE": 51, "VRE": " ", "UPDATEBY": " ", "ADDATE": 951868800000, "OBJECTID": 49, "ADDBY": " ", "UPDATEDATE": null, "POST": " ", "PERIMETER": 0, "CITY": " ", "OBJECTID_1": 49, "NAME": "COLONIAL BAPTIST ACADEMY", "ADD_": " ", "Stafford_S": 0, "PLACES_": 50, "UPDATE_": null, "TYPE": 51}},
{"geometry": {"type": "Point", "coordinates": [-77.3953566, 38.473092]}, "type": "Feature", "properties": {"SCALE": 1, "ANGLE": 1, "PLACES_ID": 61, "POLYGONID": 0, "ADDDATE": null, "SOURCE": 31, "VRE": " ", "UPDATEBY": " ", "ADDATE": 951868800000, "OBJECTID": 50, "ADDBY": " ", "UPDATEDATE": null, "POST": " ", "PERIMETER": 0, "CITY": " ", "OBJECTID_1": 50, "NAME": "ST WILLIAM OF YORK CATHOLIC SC", "ADD_": " ", "Stafford_S": 0, "PLACES_": 51, "UPDATE_": null, "TYPE": 51}},
{"geometry": {"type": "Point", "coordinates": [-77.4691749, 38.3679527]}, "type": "Feature", "properties": {"SCALE": 1, "ANGLE": 1, "PLACES_ID": 63, "POLYGONID": 0, "ADDDATE": null, "SOURCE": 14, "VRE": " ", "UPDATEBY": " ", "ADDATE": 949968000000, "OBJECTID": 51, "ADDBY": " ", "UPDATEDATE": null, "POST": " ", "PERIMETER": 0, "CITY": "FREDERICKSBURG, VA 22406", "OBJECTID_1": 51, "NAME": "COUNTY CENTRAL GARAGE", "ADD_": "37 ENON RD", "Stafford_S": 0, "PLACES_": 52, "UPDATE_": null, "TYPE": 36}},
{"geometry": {"type": "Point", "coordinates": [-77.4694755, 38.3666839]}, "type": "Feature", "properties": {"SCALE": 1, "ANGLE": 1, "PLACES_ID": 64, "POLYGONID": 0, "ADDDATE": null, "SOURCE": 14, "VRE": " ", "UPDATEBY": " ", "ADDATE": 949968000000, "OBJECTID": 52, "ADDBY": " ", "UPDATEDATE": null, "POST": " ", "PERIMETER": 0, "CITY": "FREDERICKSBURG, VA 22406", "OBJECTID_1": 52, "NAME": "SCHOOL BD. SUPPORT & MAINT.", "ADD_": "25 WYATT LN", "Stafford_S": 0, "PLACES_": 53, "UPDATE_": null, "TYPE": 36}},
{"geometry": {"type": "Point", "coordinates": [-77.4432998, 38.3813256]}, "type": "Feature", "properties": {"SCALE": 1, "ANGLE": 1, "PLACES_ID": 65, "POLYGONID": 0, "ADDDATE": null, "SOURCE": 31, "VRE": " ", "UPDATEBY": " ", "ADDATE": 960854400000, "OBJECTID": 53, "ADDBY": " ", "UPDATEDATE": null, "POST": " ", "PERIMETER": 0, "CITY": "FALMOUTH, VA 22405", "OBJECTID_1": 53, "NAME": "ALTERNATIVE EDUCATION OFFICE", "ADD_": "35 POTOMAC CREEK DR", "Stafford_S": 0, "PLACES_": 54, "UPDATE_": null, "TYPE": 36}},
{"geometry": {"type": "Point", "coordinates": [-77.4537755, 38.3129719]}, "type": "Feature", "properties": {"SCALE": 1, "ANGLE": 1, "PLACES_ID": 67, "POLYGONID": 0, "ADDDATE": null, "SOURCE": 31, "VRE": " ", "UPDATEBY": " ", "ADDATE": 961372800000, "OBJECTID": 54, "ADDBY": " ", "UPDATEDATE": null, "POST": " ", "PERIMETER": 0, "CITY": "FALMOUTH, VA 22405", "OBJECTID_1": 54, "NAME": "EROSION CONTROL", "ADD_": "312 BUTLER RD, SUITE 405", "Stafford_S": 0, "PLACES_": 55, "UPDATE_": null, "TYPE": 30}},
{"geometry": {"type": "Point", "coordinates": [-77.4537152, 38.31304]}, "type": "Feature", "properties": {"SCALE": 1, "ANGLE": 1, "PLACES_ID": 68, "POLYGONID": 0, "ADDDATE": null, "SOURCE": 31, "VRE": " ", "UPDATEBY": " ", "ADDATE": 961372800000, "OBJECTID": 55, "ADDBY": " ", "UPDATEDATE": null, "POST": " ", "PERIMETER": 0, "CITY": "FALMOUTH, VA 22405", "OBJECTID_1": 55, "NAME": "COOPERATIVE EXTENSION OFFICE", "ADD_": "312 BUTLER RD, SUITE 405", "Stafford_S": 0, "PLACES_": 56, "UPDATE_": null, "TYPE": 30}},
{"geometry": {"type": "Point", "coordinates": [-77.4468102, 38.4643349]}, "type": "Feature", "properties": {"SCALE": 1, "ANGLE": 1, "PLACES_ID": 69, "POLYGONID": 0, "ADDDATE": null, "SOURCE": 31, "VRE": " ", "UPDATEBY": " ", "ADDATE": 934416000000, "OBJECTID": 56, "ADDBY": " ", "UPDATEDATE": null, "POST": " ", "PERIMETER": 0, "CITY": "STAFFORD, VA 22554", "OBJECTID_1": 56, "NAME": "PORTER MEMORIAL LIBRARY", "ADD_": "2001 PARKWAY BLVD", "Stafford_S": 0, "PLACES_": 57, "UPDATE_": null, "TYPE": 34}},
{"geometry": {"type": "Point", "coordinates": [-77.4229905, 38.4129994]}, "type": "Feature", "properties": {"SCALE": 1, "ANGLE": 1, "PLACES_ID": 70, "POLYGONID": 0, "ADDDATE": null, "SOURCE": 31, "VRE": " ", "UPDATEBY": " ", "ADDATE": 961372800000, "OBJECTID": 57, "ADDBY": " ", "UPDATEDATE": null, "POST": " ", "PERIMETER": 0, "CITY": "STAFFORD, VA 22554", "OBJECTID_1": 57, "NAME": "VDOT STAFFORD AREA HQ", "ADD_": "164 WYCHE RD", "Stafford_S": 0, "PLACES_": 58, "UPDATE_": null, "TYPE": 73}},
{"geometry": {"type": "Point", "coordinates": [-77.4581362, 38.4694922]}, "type": "Feature", "properties": {"SCALE": 1, "ANGLE": 1, "PLACES_ID": 71, "POLYGONID": 0, "ADDDATE": null, "SOURCE": 31, "VRE": " ", "UPDATEBY": " ", "ADDATE": 961372800000, "OBJECTID": 58, "ADDBY": " ", "UPDATEDATE": null, "POST": " ", "PERIMETER": 0, "CITY": "STAFFORD, VA 22554", "OBJECTID_1": 58, "NAME": "DEPT OF MOTOR VEHICLES", "ADD_": "874 GARRISONVILLE RD", "Stafford_S": 0, "PLACES_": 59, "UPDATE_": null, "TYPE": 30}},
{"geometry": {"type": "Point", "coordinates": [-77.4648849, 38.3221417]}, "type": "Feature", "properties": {"SCALE": 1, "ANGLE": 1, "PLACES_ID": 73, "POLYGONID": 0, "ADDDATE": null, "SOURCE": 20, "VRE": " ", "UPDATEBY": " ", "ADDATE": 962928000000, "OBJECTID": 59, "ADDBY": " ", "UPDATEDATE": null, "POST": " ", "PERIMETER": 0, "CITY": "FALMOUTH, VA 22405", "OBJECTID_1": 59, "NAME": "C. RAY GRIZZLE ACTIVITY CTR", "ADD_": "60 BUTLER RD", "Stafford_S": 0, "PLACES_": 60, "UPDATE_": null, "TYPE": 33}},
{"geometry": {"type": "Point", "coordinates": [-77.4082449, 38.4254096]}, "type": "Feature", "properties": {"SCALE": 1, "ANGLE": 1, "PLACES_ID": 76, "POLYGONID": 0, "ADDDATE": null, "SOURCE": 14, "VRE": " ", "UPDATEBY": " ", "ADDATE": 947635200000, "OBJECTID": 60, "ADDBY": " ", "UPDATEDATE": null, "POST": " ", "PERIMETER": 0, "CITY": " ", "OBJECTID_1": 60, "NAME": "HOPE CREEK BUILDING", "ADD_": " ", "Stafford_S": 0, "PLACES_": 61, "UPDATE_": null, "TYPE": 70}},
{"geometry": {"type": "Point", "coordinates": [-77.3847939, 38.4780116]}, "type": "Feature", "properties": {"SCALE": 1, "ANGLE": 1, "PLACES_ID": 79, "POLYGONID": 0, "ADDDATE": null, "SOURCE": 0, "VRE": " ", "UPDATEBY": " ", "ADDATE": 934416000000, "OBJECTID": 61, "ADDBY": " ", "UPDATEDATE": null, "POST": " ", "PERIMETER": 0, "CITY": " ", "OBJECTID_1": 61, "NAME": "CARL LEWIS COMMUNITY CENTER", "ADD_": " ", "Stafford_S": 0, "PLACES_": 62, "UPDATE_": null, "TYPE": 33}},
{"geometry": {"type": "Point", "coordinates": [-77.4256502, 38.4566397]}, "type": "Feature", "properties": {"SCALE": 1, "ANGLE": 1, "PLACES_ID": 80, "POLYGONID": 0, "ADDDATE": null, "SOURCE": 20, "VRE": " ", "UPDATEBY": " ", "ADDATE": 934416000000, "OBJECTID": 62, "ADDBY": " ", "UPDATEDATE": null, "POST": " ", "PERIMETER": 0, "CITY": " ", "OBJECTID_1": 62, "NAME": "HAMPTON OAKS COMMUNTITY CTR", "ADD_": " ", "Stafford_S": 0, "PLACES_": 63, "UPDATE_": null, "TYPE": 83}},
{"geometry": {"type": "Point", "coordinates": [-77.4478093, 38.4693598]}, "type": "Feature", "properties": {"SCALE": 1, "ANGLE": 1, "PLACES_ID": 81, "POLYGONID": 0, "ADDDATE": null, "SOURCE": 20, "VRE": " ", "UPDATEBY": " ", "ADDATE": 934416000000, "OBJECTID": 63, "ADDBY": " ", "UPDATEDATE": null, "POST": " ", "PERIMETER": 0, "CITY": "STAFFORD, VA 22554", "OBJECTID_1": 63, "NAME": "PARK RIDGE COMMUNITY CTR", "ADD_": "1001 PARKWAY BLVD", "Stafford_S": 0, "PLACES_": 64, "UPDATE_": null, "TYPE": 83}},
{"geometry": {"type": "Point", "coordinates": [-77.5666116, 38.4316732]}, "type": "Feature", "properties": {"SCALE": 1, "ANGLE": 1, "PLACES_ID": 82, "POLYGONID": 0, "ADDDATE": null, "SOURCE": 14, "VRE": " ", "UPDATEBY": " ", "ADDATE": null, "OBJECTID": 64, "ADDBY": " ", "UPDATEDATE": null, "POST": " ", "PERIMETER": 0, "CITY": " ", "OBJECTID_1": 64, "NAME": "CURTIS PARK POOL", "ADD_": " ", "Stafford_S": 0, "PLACES_": 65, "UPDATE_": null, "TYPE": 67}},
{"geometry": {"type": "Point", "coordinates": [-77.385044, 38.4251944]}, "type": "Feature", "properties": {"SCALE": 1, "ANGLE": 1, "PLACES_ID": 83, "POLYGONID": 0, "ADDDATE": null, "SOURCE": 30, "VRE": " ", "UPDATEBY": " ", "ADDATE": null, "OBJECTID": 65, "ADDBY": " ", "UPDATEDATE": null, "POST": " ", "PERIMETER": 0, "CITY": " ", "OBJECTID_1": 65, "NAME": "CHILDRENS ACADEMY", "ADD_": "2 WALKER WAY", "Stafford_S": 0, "PLACES_": 66, "UPDATE_": null, "TYPE": 51}},
{"geometry": {"type": "Point", "coordinates": [-77.4060952, 38.4267447]}, "type": "Feature", "properties": {"SCALE": 1, "ANGLE": 1, "PLACES_ID": 85, "POLYGONID": 0, "ADDDATE": null, "SOURCE": 20, "VRE": " ", "UPDATEBY": " ", "ADDATE": null, "OBJECTID": 66, "ADDBY": " ", "UPDATEDATE": null, "POST": " ", "PERIMETER": 0, "CITY": " ", "OBJECTID_1": 66, "NAME": "FBURG CHRISTIAN SCHOOL", "ADD_": " ", "Stafford_S": 0, "PLACES_": 67, "UPDATE_": null, "TYPE": 51}},
{"geometry": {"type": "Point", "coordinates": [-77.3964354, 38.4473172]}, "type": "Feature", "properties": {"SCALE": 1, "ANGLE": 1, "PLACES_ID": 86, "POLYGONID": 0, "ADDDATE": null, "SOURCE": 31, "VRE": " ", "UPDATEBY": " ", "ADDATE": 961372800000, "OBJECTID": 67, "ADDBY": " ", "UPDATEDATE": null, "POST": " ", "PERIMETER": 0, "CITY": "STAFFORD, VA 22554", "OBJECTID_1": 67, "NAME": "UTILITIES FIELD OPERATIONS", "ADD_": "71 COAL LANDING RD", "Stafford_S": 0, "PLACES_": 68, "UPDATE_": null, "TYPE": 77}},
{"geometry": {"type": "Point", "coordinates": [-77.4479343, 38.31078]}, "type": "Feature", "properties": {"SCALE": 1, "ANGLE": 1, "PLACES_ID": 88, "POLYGONID": 0, "ADDDATE": null, "SOURCE": 20, "VRE": " ", "UPDATEBY": " ", "ADDATE": 1002067200000, "OBJECTID": 68, "ADDBY": " ", "UPDATEDATE": null, "POST": "P.O.", "PERIMETER": 0, "CITY": " ", "OBJECTID_1": 68, "NAME": "CONTRACT POST OFFICE", "ADD_": " ", "Stafford_S": 0, "PLACES_": 69, "UPDATE_": null, "TYPE": 35}},
{"geometry": {"type": "Point", "coordinates": [-77.3880389, 38.2608484]}, "type": "Feature", "properties": {"SCALE": 1, "ANGLE": 1, "PLACES_ID": 89, "POLYGONID": 0, "ADDDATE": null, "SOURCE": 0, "VRE": " ", "UPDATEBY": " ", "ADDATE": 934416000000, "OBJECTID": 69, "ADDBY": " ", "UPDATEDATE": null, "POST": " ", "PERIMETER": 0, "CITY": " ", "OBJECTID_1": 69, "NAME": "FORMER RENAISSANCE FAIRE SITE", "ADD_": " ", "Stafford_S": 0, "PLACES_": 70, "UPDATE_": null, "TYPE": 72}},
{"geometry": {"type": "Point", "coordinates": [-77.3174395, 38.3878341]}, "type": "Feature", "properties": {"SCALE": 1, "ANGLE": 1, "PLACES_ID": 90, "POLYGONID": 0, "ADDDATE": null, "SOURCE": 0, "VRE": " ", "UPDATEBY": " ", "ADDATE": 934416000000, "OBJECTID": 70, "ADDBY": " ", "UPDATEDATE": null, "POST": " ", "PERIMETER": 0, "CITY": " ", "OBJECTID_1": 70, "NAME": "AQUIA LANDING", "ADD_": " ", "Stafford_S": 0, "PLACES_": 71, "UPDATE_": null, "TYPE": 60}},
{"geometry": {"type": "Point", "coordinates": [-77.3450396, 38.4078531]}, "type": "Feature", "properties": {"SCALE": 1, "ANGLE": 1, "PLACES_ID": 91, "POLYGONID": 0, "ADDDATE": null, "SOURCE": 0, "VRE": " ", "UPDATEBY": " ", "ADDATE": 1020384000000, "OBJECTID": 71, "ADDBY": " ", "UPDATEDATE": null, "POST": " ", "PERIMETER": 0, "CITY": " ", "OBJECTID_1": 71, "NAME": " GOURDS POINT", "ADD_": " ", "Stafford_S": 0, "PLACES_": 72, "UPDATE_": null, "TYPE": 91}},
{"geometry": {"type": "Point", "coordinates": [-77.3013745, 38.3498245]}, "type": "Feature", "properties": {"SCALE": 1, "ANGLE": 1, "PLACES_ID": 92, "POLYGONID": 0, "ADDDATE": null, "SOURCE": 50, "VRE": " ", "UPDATEBY": " ", "ADDATE": 1020384000000, "OBJECTID": 72, "ADDBY": " ", "UPDATEDATE": null, "POST": " ", "PERIMETER": 0, "CITY": " ", "OBJECTID_1": 72, "NAME": " INDIAN POINT", "ADD_": " ", "Stafford_S": 0, "PLACES_": 73, "UPDATE_": null, "TYPE": 91}},
{"geometry": {"type": "Point", "coordinates": [-77.2887521, 38.3513871]}, "type": "Feature", "properties": {"SCALE": 1, "ANGLE": 1, "PLACES_ID": 93, "POLYGONID": 0, "ADDDATE": null, "SOURCE": 50, "VRE": " ", "UPDATEBY": " ", "ADDATE": 934416000000, "OBJECTID": 73, "ADDBY": " ", "UPDATEDATE": null, "POST": " ", "PERIMETER": 0, "CITY": " ", "OBJECTID_1": 73, "NAME": "MARLBOROUGH POINT", "ADD_": " ", "Stafford_S": 0, "PLACES_": 74, "UPDATE_": null, "TYPE": 91}},
{"geometry": {"type": "Point", "coordinates": [-77.3156377, 38.3891986]}, "type": "Feature", "properties": {"SCALE": 1, "ANGLE": 1, "PLACES_ID": 94, "POLYGONID": 0, "ADDDATE": null, "SOURCE": 50, "VRE": " ", "UPDATEBY": " ", "ADDATE": 1020384000000, "OBJECTID": 74, "ADDBY": " ", "UPDATEDATE": null, "POST": " ", "PERIMETER": 0, "CITY": " ", "OBJECTID_1": 74, "NAME": "YOU BE DAMN LANDING", "ADD_": " ", "Stafford_S": 0, "PLACES_": 75, "UPDATE_": null, "TYPE": 91}},
{"geometry": {"type": "Point", "coordinates": [-77.322762, 38.3928764]}, "type": "Feature", "properties": {"SCALE": 1, "ANGLE": 1, "PLACES_ID": 95, "POLYGONID": 0, "ADDDATE": null, "SOURCE": 11, "VRE": " ", "UPDATEBY": " ", "ADDATE": 934416000000, "OBJECTID": 75, "ADDBY": " ", "UPDATEDATE": null, "POST": " ", "PERIMETER": 0, "CITY": " ", "OBJECTID_1": 75, "NAME": "THORNY POINT", "ADD_": " ", "Stafford_S": 0, "PLACES_": 76, "UPDATE_": null, "TYPE": 91}},
{"geometry": {"type": "Point", "coordinates": [-77.3171556, 38.3947338]}, "type": "Feature", "properties": {"SCALE": 1, "ANGLE": 1, "PLACES_ID": 96, "POLYGONID": 0, "ADDDATE": null, "SOURCE": 11, "VRE": " ", "UPDATEBY": " ", "ADDATE": 934416000000, "OBJECTID": 76, "ADDBY": " ", "UPDATEDATE": null, "POST": " ", "PERIMETER": 0, "CITY": " ", "OBJECTID_1": 76, "NAME": "SIMMS POINT", "ADD_": " ", "Stafford_S": 0, "PLACES_": 77, "UPDATE_": null, "TYPE": 91}},
{"geometry": {"type": "Point", "coordinates": [-77.3307121, 38.3462284]}, "type": "Feature", "properties": {"SCALE": 1, "ANGLE": 1, "PLACES_ID": 97, "POLYGONID": 0, "ADDDATE": null, "SOURCE": 50, "VRE": " ", "UPDATEBY": " ", "ADDATE": 1020384000000, "OBJECTID": 77, "ADDBY": " ", "UPDATEDATE": null, "POST": " ", "PERIMETER": 0, "CITY": " ", "OBJECTID_1": 77, "NAME": "OLD LANDING POINT", "ADD_": " ", "Stafford_S": 0, "PLACES_": 78, "UPDATE_": null, "TYPE": 91}},
{"geometry": {"type": "Point", "coordinates": [-77.3578967, 38.3469538]}, "type": "Feature", "properties": {"SCALE": 1, "ANGLE": 1, "PLACES_ID": 98, "POLYGONID": 0, "ADDDATE": null, "SOURCE": 50, "VRE": " ", "UPDATEBY": " ", "ADDATE": 1020384000000, "OBJECTID": 78, "ADDBY": " ", "UPDATEDATE": null, "POST": " ", "PERIMETER": 0, "CITY": " ", "OBJECTID_1": 78, "NAME": "STONE POINT", "ADD_": " ", "Stafford_S": 0, "PLACES_": 79, "UPDATE_": null, "TYPE": 91}},
{"geometry": {"type": "Point", "coordinates": [-77.350396, 38.3456264]}, "type": "Feature", "properties": {"SCALE": 1, "ANGLE": 1, "PLACES_ID": 99, "POLYGONID": 0, "ADDDATE": null, "SOURCE": 50, "VRE": " ", "UPDATEBY": " ", "ADDATE": 1020384000000, "OBJECTID": 79, "ADDBY": " ", "UPDATEDATE": null, "POST": " ", "PERIMETER": 0, "CITY": " ", "OBJECTID_1": 79, "NAME": " SPILLMANS LANDING", "ADD_": " ", "Stafford_S": 0, "PLACES_": 80, "UPDATE_": null, "TYPE": 91}},
{"geometry": {"type": "Point", "coordinates": [-77.3154491, 38.3417449]}, "type": "Feature", "properties": {"SCALE": 1, "ANGLE": 1, "PLACES_ID": 100, "POLYGONID": 0, "ADDDATE": null, "SOURCE": 50, "VRE": " ", "UPDATEBY": " ", "ADDATE": 1020384000000, "OBJECTID": 80, "ADDBY": " ", "UPDATEDATE": null, "POST": " ", "PERIMETER": 0, "CITY": " ", "OBJECTID_1": 80, "NAME": " WHIPSAWASONS POINT", "ADD_": " ", "Stafford_S": 0, "PLACES_": 81, "UPDATE_": null, "TYPE": 91}},
{"geometry": {"type": "Point", "coordinates": [-77.3228728, 38.3477436]}, "type": "Feature", "properties": {"SCALE": 1, "ANGLE": 1, "PLACES_ID": 101, "POLYGONID": 0, "ADDDATE": null, "SOURCE": 50, "VRE": " ", "UPDATEBY": " ", "ADDATE": 1020470400000, "OBJECTID": 81, "ADDBY": " ", "UPDATEDATE": null, "POST": " ", "PERIMETER": 0, "CITY": " ", "OBJECTID_1": 81, "NAME": "BOYKINS ISLAND", "ADD_": " ", "Stafford_S": 0, "PLACES_": 82, "UPDATE_": null, "TYPE": 91}},
{"geometry": {"type": "Point", "coordinates": [-77.3301928, 38.3423332]}, "type": "Feature", "properties": {"SCALE": 1, "ANGLE": 1, "PLACES_ID": 102, "POLYGONID": 0, "ADDDATE": null, "SOURCE": 50, "VRE": " ", "UPDATEBY": " ", "ADDATE": 1020384000000, "OBJECTID": 82, "ADDBY": " ", "UPDATEDATE": null, "POST": " ", "PERIMETER": 0, "CITY": " ", "OBJECTID_1": 82, "NAME": "BELLE HARBOR YACHT CLUB", "ADD_": " ", "Stafford_S": 0, "PLACES_": 83, "UPDATE_": null, "TYPE": 16}},
{"geometry": {"type": "Point", "coordinates": [-77.357994, 38.4226946]}, "type": "Feature", "properties": {"SCALE": 1, "ANGLE": 1, "PLACES_ID": 104, "POLYGONID": 0, "ADDDATE": null, "SOURCE": 50, "VRE": " ", "UPDATEBY": " ", "ADDATE": 1020384000000, "OBJECTID": 83, "ADDBY": " ", "UPDATEDATE": null, "POST": " ", "PERIMETER": 0, "CITY": " ", "OBJECTID_1": 83, "NAME": "HOPE SPRINGS MARINA", "ADD_": " ", "Stafford_S": 0, "PLACES_": 84, "UPDATE_": null, "TYPE": 16}},
{"geometry": {"type": "Point", "coordinates": [-77.36634, 38.4302882]}, "type": "Feature", "properties": {"SCALE": 1, "ANGLE": 1, "PLACES_ID": 105, "POLYGONID": 0, "ADDDATE": null, "SOURCE": 50, "VRE": " ", "UPDATEBY": " ", "ADDATE": 1020384000000, "OBJECTID": 84, "ADDBY": " ", "UPDATEDATE": null, "POST": " ", "PERIMETER": 0, "CITY": " ", "OBJECTID_1": 84, "NAME": "WILLOW LANDING", "ADD_": " ", "Stafford_S": 0, "PLACES_": 85, "UPDATE_": null, "TYPE": 16}},
{"geometry": {"type": "Point", "coordinates": [-77.5878055, 38.3925042]}, "type": "Feature", "properties": {"SCALE": 1, "ANGLE": 1, "PLACES_ID": 106, "POLYGONID": 0, "ADDDATE": null, "SOURCE": 80, "VRE": " ", "UPDATEBY": " ", "ADDATE": 1020384000000, "OBJECTID": 85, "ADDBY": " ", "UPDATEDATE": null, "POST": " ", "PERIMETER": 0, "CITY": " ", "OBJECTID_1": 85, "NAME": "PRIVATE AIRSTRIP", "ADD_": " ", "Stafford_S": 0, "PLACES_": 86, "UPDATE_": null, "TYPE": 74}},
{"geometry": {"type": "Point", "coordinates": [-77.4723872, 38.4327338]}, "type": "Feature", "properties": {"SCALE": 1, "ANGLE": 1, "PLACES_ID": 107, "POLYGONID": 0, "ADDDATE": null, "SOURCE": 0, "VRE": " ", "UPDATEBY": " ", "ADDATE": 1020384000000, "OBJECTID": 86, "ADDBY": " ", "UPDATEDATE": null, "POST": " ", "PERIMETER": 0, "CITY": " ", "OBJECTID_1": 86, "NAME": "PRIVATE AIRSTRIP", "ADD_": " ", "Stafford_S": 0, "PLACES_": 87, "UPDATE_": null, "TYPE": 74}},
{"geometry": {"type": "Point", "coordinates": [-77.6124686, 38.4841571]}, "type": "Feature", "properties": {"SCALE": 1, "ANGLE": 1, "PLACES_ID": 108, "POLYGONID": 0, "ADDDATE": null, "SOURCE": 0, "VRE": " ", "UPDATEBY": " ", "ADDATE": 1000857600000, "OBJECTID": 87, "ADDBY": " ", "UPDATEDATE": null, "POST": " ", "PERIMETER": 0, "CITY": " ", "OBJECTID_1": 87, "NAME": "HARTWOOD AIRPORT", "ADD_": " ", "Stafford_S": 0, "PLACES_": 88, "UPDATE_": null, "TYPE": 74}},
{"geometry": {"type": "Point", "coordinates": [-77.4507299, 38.3958114]}, "type": "Feature", "properties": {"SCALE": 1, "ANGLE": 1, "PLACES_ID": 109, "POLYGONID": 0, "ADDDATE": null, "SOURCE": 0, "VRE": " ", "UPDATEBY": " ", "ADDATE": 1000857600000, "OBJECTID": 88, "ADDBY": " ", "UPDATEDATE": null, "POST": " ", "PERIMETER": 0, "CITY": " ", "OBJECTID_1": 88, "NAME": "STAFFORD REGIONAL AIRPORT", "ADD_": " ", "Stafford_S": 0, "PLACES_": 89, "UPDATE_": null, "TYPE": 74}},
{"geometry": {"type": "Point", "coordinates": [-77.4509831, 38.3591511]}, "type": "Feature", "properties": {"SCALE": 1, "ANGLE": 1, "PLACES_ID": 110, "POLYGONID": 0, "ADDDATE": null, "SOURCE": 0, "VRE": " ", "UPDATEBY": " ", "ADDATE": 1000857600000, "OBJECTID": 89, "ADDBY": " ", "UPDATEDATE": null, "POST": " ", "PERIMETER": 0, "CITY": " ", "OBJECTID_1": 89, "NAME": "DOGWOOD AIRPARK", "ADD_": " ", "Stafford_S": 0, "PLACES_": 90, "UPDATE_": null, "TYPE": 74}},
{"geometry": {"type": "Point", "coordinates": [-77.5954822, 38.4448703]}, "type": "Feature", "properties": {"SCALE": 1, "ANGLE": 1, "PLACES_ID": 111, "POLYGONID": 0, "ADDDATE": null, "SOURCE": 80, "VRE": " ", "UPDATEBY": " ", "ADDATE": 1020643200000, "OBJECTID": 90, "ADDBY": " ", "UPDATEDATE": null, "POST": " ", "PERIMETER": 0, "CITY": " ", "OBJECTID_1": 90, "NAME": " NAT GAS TRANS FAC. MLV 110", "ADD_": " ", "Stafford_S": 0, "PLACES_": 91, "UPDATE_": null, "TYPE": 76}},
{"geometry": {"type": "Point", "coordinates": [-77.4887186, 38.4856295]}, "type": "Feature", "properties": {"SCALE": 1, "ANGLE": 1, "PLACES_ID": 112, "POLYGONID": 0, "ADDDATE": null, "SOURCE": 60, "VRE": " ", "UPDATEBY": " ", "ADDATE": 1020643200000, "OBJECTID": 91, "ADDBY": " ", "UPDATEDATE": null, "POST": " ", "PERIMETER": 0, "CITY": " ", "OBJECTID_1": 91, "NAME": "HILLCREST FARM INN", "ADD_": " ", "Stafford_S": 0, "PLACES_": 92, "UPDATE_": null, "TYPE": 72}},
{"geometry": {"type": "Point", "coordinates": [-77.3517662, 38.4185362]}, "type": "Feature", "properties": {"SCALE": 1, "ANGLE": 1, "PLACES_ID": 114, "POLYGONID": 0, "ADDDATE": null, "SOURCE": 50, "VRE": " ", "UPDATEBY": " ", "ADDATE": 1020384000000, "OBJECTID": 92, "ADDBY": " ", "UPDATEDATE": null, "POST": " ", "PERIMETER": 0, "CITY": " ", "OBJECTID_1": 92, "NAME": "AQUIA BAY", "ADD_": " ", "Stafford_S": 0, "PLACES_": 93, "UPDATE_": null, "TYPE": 16}},
{"geometry": {"type": "Point", "coordinates": [-77.4473452, 38.4693226]}, "type": "Feature", "properties": {"SCALE": 1, "ANGLE": 1, "PLACES_ID": 115, "POLYGONID": 0, "ADDDATE": null, "SOURCE": 20, "VRE": " ", "UPDATEBY": " ", "ADDATE": 1000771200000, "OBJECTID": 93, "ADDBY": " ", "UPDATEDATE": null, "POST": " ", "PERIMETER": 0, "CITY": " ", "OBJECTID_1": 93, "NAME": "PRIVATE POOL", "ADD_": " ", "Stafford_S": 0, "PLACES_": 94, "UPDATE_": null, "TYPE": 85}},
{"geometry": {"type": "Point", "coordinates": [-77.4480717, 38.4614189]}, "type": "Feature", "properties": {"SCALE": 1, "ANGLE": 1, "PLACES_ID": 116, "POLYGONID": 0, "ADDDATE": null, "SOURCE": 0, "VRE": " ", "UPDATEBY": " ", "ADDATE": 934416000000, "OBJECTID": 94, "ADDBY": " ", "UPDATEDATE": null, "POST": " ", "PERIMETER": 0, "CITY": " ", "OBJECTID_1": 94, "NAME": "PARK RIDGE HOME OWNERS POOL", "ADD_": " ", "Stafford_S": 0, "PLACES_": 95, "UPDATE_": null, "TYPE": 85}},
{"geometry": {"type": "Point", "coordinates": [-77.3177112, 38.4733615]}, "type": "Feature", "properties": {"SCALE": 1, "ANGLE": 1, "PLACES_ID": 122, "POLYGONID": 0, "ADDDATE": null, "SOURCE": 0, "VRE": " ", "UPDATEBY": " ", "ADDATE": 1020816000000, "OBJECTID": 95, "ADDBY": " ", "UPDATEDATE": null, "POST": " ", "PERIMETER": 0, "CITY": " ", "OBJECTID_1": 95, "NAME": "CLIFTON POINT", "ADD_": " ", "Stafford_S": 0, "PLACES_": 96, "UPDATE_": null, "TYPE": 91}},
{"geometry": {"type": "Point", "coordinates": [-77.3372901, 38.4376436]}, "type": "Feature", "properties": {"SCALE": 1, "ANGLE": 1, "PLACES_ID": 123, "POLYGONID": 0, "ADDDATE": null, "SOURCE": 21, "VRE": "V.R.E.", "UPDATEBY": " ", "ADDATE": 1024099200000, "OBJECTID": 96, "ADDBY": " ", "UPDATEDATE": null, "POST": " ", "PERIMETER": 0, "CITY": " ", "OBJECTID_1": 96, "NAME": "FUTURE VRE STATION", "ADD_": " ", "Stafford_S": 0, "PLACES_": 97, "UPDATE_": null, "TYPE": 75}},
{"geometry": {"type": "Point", "coordinates": [-77.4294601, 38.476208]}, "type": "Feature", "properties": {"SCALE": 1, "ANGLE": 1, "PLACES_ID": 127, "POLYGONID": 0, "ADDDATE": null, "SOURCE": 0, "VRE": " ", "UPDATEBY": " ", "ADDATE": 1024358400000, "OBJECTID": 97, "ADDBY": " ", "UPDATEDATE": null, "POST": " ", "PERIMETER": 0, "CITY": " ", "OBJECTID_1": 97, "NAME": "LAPETITE ACADEMY", "ADD_": "25 TRAVIS LANE", "Stafford_S": 0, "PLACES_": 98, "UPDATE_": null, "TYPE": 51}},
{"geometry": {"type": "Point", "coordinates": [-77.4036532, 38.4645734]}, "type": "Feature", "properties": {"SCALE": 1, "ANGLE": 1, "PLACES_ID": 129, "POLYGONID": 0, "ADDDATE": null, "SOURCE": 31, "VRE": " ", "UPDATEBY": " ", "ADDATE": 1024358400000, "OBJECTID": 98, "ADDBY": " ", "UPDATEDATE": null, "POST": " ", "PERIMETER": 0, "CITY": " ", "OBJECTID_1": 98, "NAME": "AQUIA CHURCH", "ADD_": " ", "Stafford_S": 0, "PLACES_": 99, "UPDATE_": null, "TYPE": 40}},
{"geometry": {"type": "Point", "coordinates": [-77.472861, 38.3240797]}, "type": "Feature", "properties": {"SCALE": 1, "ANGLE": 1, "PLACES_ID": 130, "POLYGONID": 0, "ADDDATE": null, "SOURCE": 0, "VRE": " ", "UPDATEBY": " ", "ADDATE": 1024358400000, "OBJECTID": 99, "ADDBY": " ", "UPDATEDATE": null, "POST": " ", "PERIMETER": 0, "CITY": " ", "OBJECTID_1": 99, "NAME": "BELMONT", "ADD_": " ", "Stafford_S": 0, "PLACES_": 100, "UPDATE_": null, "TYPE": 40}},
{"geometry": {"type": "Point", "coordinates": [-77.4477713, 38.2929943]}, "type": "Feature", "properties": {"SCALE": 1, "ANGLE": 1, "PLACES_ID": 131, "POLYGONID": 0, "ADDDATE": null, "SOURCE": 0, "VRE": " ", "UPDATEBY": " ", "ADDATE": 1024358400000, "OBJECTID": 100, "ADDBY": " ", "UPDATEDATE": null, "POST": " ", "PERIMETER": 0, "CITY": " ", "OBJECTID_1": 100, "NAME": "GEORGE WASHINGTON'S FERRY FARM", "ADD_": " ", "Stafford_S": 0, "PLACES_": 101, "UPDATE_": null, "TYPE": 40}},
{"geometry": {"type": "Point", "coordinates": [-77.4639409, 38.4675982]}, "type": "Feature", "properties": {"SCALE": 1, "ANGLE": 1, "PLACES_ID": 133, "POLYGONID": 0, "ADDDATE": null, "SOURCE": 40, "VRE": " ", "UPDATEBY": " ", "ADDATE": 1027987200000, "OBJECTID": 101, "ADDBY": " ", "UPDATEDATE": null, "POST": " ", "PERIMETER": 0, "CITY": " ", "OBJECTID_1": 101, "NAME": "FBURG CHRISTIAN SCHOOL", "ADD_": " ", "Stafford_S": 0, "PLACES_": 102, "UPDATE_": null, "TYPE": 51}},
{"geometry": {"type": "Point", "coordinates": [-77.5612549, 38.436602]}, "type": "Feature", "properties": {"SCALE": 1, "ANGLE": 1, "PLACES_ID": 134, "POLYGONID": 0, "ADDDATE": null, "SOURCE": 0, "VRE": " ", "UPDATEBY": " ", "ADDATE": 1032912000000, "OBJECTID": 102, "ADDBY": " ", "UPDATEDATE": null, "POST": " ", "PERIMETER": 0, "CITY": " ", "OBJECTID_1": 102, "NAME": "CURTIS PARK LAKE BOAT RAMP", "ADD_": " ", "Stafford_S": 0, "PLACES_": 103, "UPDATE_": null, "TYPE": 14}},
{"geometry": {"type": "Point", "coordinates": [-77.5128923, 38.3492385]}, "type": "Feature", "properties": {"SCALE": 1, "ANGLE": 1, "PLACES_ID": 6, "POLYGONID": 0, "ADDDATE": null, "SOURCE": 0, "VRE": " ", "UPDATEBY": " ", "ADDATE": 934416000000, "OBJECTID": 103, "ADDBY": " ", "UPDATEDATE": null, "POST": " ", "PERIMETER": 0, "CITY": " ", "OBJECTID_1": 103, "NAME": "HERITAGE COMMERCE CENTER", "ADD_": " ", "Stafford_S": 0, "PLACES_": 104, "UPDATE_": null, "TYPE": 70}},
{"geometry": {"type": "Point", "coordinates": [-77.410659, 38.4222754]}, "type": "Feature", "properties": {"SCALE": 1, "ANGLE": 1, "PLACES_ID": 72, "POLYGONID": 0, "ADDDATE": null, "SOURCE": 31, "VRE": " ", "UPDATEBY": " ", "ADDATE": 961372800000, "OBJECTID": 104, "ADDBY": " ", "UPDATEDATE": null, "POST": " ", "PERIMETER": 0, "CITY": "STAFFORD, VA 22554", "OBJECTID_1": 104, "NAME": "FOSTER CARE DIV OF SOC SERVICES", "ADD_": "1259 COURTHOUSE RD SUITE 102", "Stafford_S": 0, "PLACES_": 105, "UPDATE_": null, "TYPE": 30}},
{"geometry": {"type": "Point", "coordinates": [-77.5862352, 38.4918292]}, "type": "Feature", "properties": {"SCALE": 1, "ANGLE": 1, "PLACES_ID": 121, "POLYGONID": 0, "ADDDATE": null, "SOURCE": 80, "VRE": " ", "UPDATEBY": " ", "ADDATE": 1020643200000, "OBJECTID": 105, "ADDBY": " ", "UPDATEDATE": null, "POST": " ", "PERIMETER": 0, "CITY": " ", "OBJECTID_1": 105, "NAME": "NOVEC MAINT / PAYMENT FACILITY", "ADD_": "2430 POPLAR RD HARTWOOD", "Stafford_S": 0, "PLACES_": 106, "UPDATE_": null, "TYPE": 10}},
{"geometry": {"type": "Point", "coordinates": [-77.4143431, 38.468625]}, "type": "Feature", "properties": {"SCALE": 1, "ANGLE": 1, "PLACES_ID": 126, "POLYGONID": 0, "ADDDATE": null, "SOURCE": 0, "VRE": " ", "UPDATEBY": " ", "ADDATE": 1024358400000, "OBJECTID": 106, "ADDBY": " ", "UPDATEDATE": null, "POST": " ", "PERIMETER": 0, "CITY": " ", "OBJECTID_1": 106, "NAME": "CHILDRENS WORLD LEARNING CENTER", "ADD_": "29 GREENSPRING DRIVE", "Stafford_S": 0, "PLACES_": 107, "UPDATE_": null, "TYPE": 51}},
{"geometry": {"type": "Point", "coordinates": [-77.4203188, 38.4047074]}, "type": "Feature", "properties": {"SCALE": 1, "ANGLE": 1, "PLACES_ID": 117, "POLYGONID": 0, "ADDDATE": null, "SOURCE": 31, "VRE": " ", "UPDATEBY": " ", "ADDATE": 961372800000, "OBJECTID": 107, "ADDBY": " ", "UPDATEDATE": null, "POST": " ", "PERIMETER": 0, "CITY": "STAFFORD, VA 22554", "OBJECTID_1": 107, "NAME": "MAGISTRATES OFFICE", "ADD_": "1745 JEFF DAVIS HWY,SUITE 201", "Stafford_S": 0, "PLACES_": 108, "UPDATE_": null, "TYPE": 30}},
{"geometry": {"type": "Point", "coordinates": [-77.4423746, 38.306528]}, "type": "Feature", "properties": {"SCALE": 1, "ANGLE": 0, "PLACES_ID": 136, "POLYGONID": 0, "ADDDATE": null, "SOURCE": 0, "VRE": " ", "UPDATEBY": " ", "ADDATE": 1035331200000, "OBJECTID": 108, "ADDBY": " ", "UPDATEDATE": null, "POST": " ", "PERIMETER": 0, "CITY": "FREDERICKSBURG", "OBJECTID_1": 108, "NAME": "KINGS ACADEMY CHRISTIAN SCHOOL", "ADD_": "15 PINE ROAD", "Stafford_S": 0, "PLACES_": 109, "UPDATE_": null, "TYPE": 51}},
{"geometry": {"type": "Point", "coordinates": [-77.5321884, 38.3585037]}, "type": "Feature", "properties": {"SCALE": 1, "ANGLE": 1, "PLACES_ID": 22, "POLYGONID": 0, "ADDDATE": null, "SOURCE": 0, "VRE": " ", "UPDATEBY": " ", "ADDATE": 934416000000, "OBJECTID": 109, "ADDBY": " ", "UPDATEDATE": null, "POST": " ", "PERIMETER": 0, "CITY": "FREDERICKSBURG", "OBJECTID_1": 109, "NAME": "HOLY CROSS CATHOLIC SCHOOL", "ADD_": "88 GALLIMORE DR", "Stafford_S": 0, "PLACES_": 110, "UPDATE_": null, "TYPE": 51}},
{"geometry": {"type": "Point", "coordinates": [-77.3757687, 38.3009653]}, "type": "Feature", "properties": {"SCALE": 1, "ANGLE": 1, "PLACES_ID": 132, "POLYGONID": 0, "ADDDATE": null, "SOURCE": 0, "VRE": " ", "UPDATEBY": " ", "ADDATE": 1024358400000, "OBJECTID": 110, "ADDBY": " ", "UPDATEDATE": null, "POST": " ", "PERIMETER": 0, "CITY": " ", "OBJECTID_1": 110, "NAME": "WHITE OAK CIVIL WAR MUSEUM", "ADD_": " ", "Stafford_S": 0, "PLACES_": 111, "UPDATE_": null, "TYPE": 72}},
{"geometry": {"type": "Point", "coordinates": [-77.4964569, 38.3387166]}, "type": "Feature", "properties": {"SCALE": 1, "ANGLE": 1, "PLACES_ID": 135, "POLYGONID": 0, "ADDDATE": null, "SOURCE": 0, "VRE": " ", "UPDATEBY": " ", "ADDATE": 1024358400000, "OBJECTID": 111, "ADDBY": " ", "UPDATEDATE": null, "POST": " ", "PERIMETER": 0, "CITY": " ", "OBJECTID_1": 111, "NAME": "RIVERSIDE CENTER DINNER THEATER", "ADD_": " ", "Stafford_S": 0, "PLACES_": 112, "UPDATE_": null, "TYPE": 72}},
{"geometry": {"type": "Point", "coordinates": [-77.4203152, 38.4042428]}, "type": "Feature", "properties": {"SCALE": 1, "ANGLE": 1, "PLACES_ID": 119, "POLYGONID": 0, "ADDDATE": null, "SOURCE": 33, "VRE": " ", "UPDATEBY": " ", "ADDATE": 960768000000, "OBJECTID": 112, "ADDBY": " ", "UPDATEDATE": null, "POST": " ", "PERIMETER": 0, "CITY": "STAFFORD, VA 22554", "OBJECTID_1": 112, "NAME": "INSTRUCTIONAL ANNEX", "ADD_": "1729 JEFFERSON DAVIS HWY", "Stafford_S": 0, "PLACES_": 113, "UPDATE_": null, "TYPE": 36}},
{"geometry": {"type": "Point", "coordinates": [-77.4102327, 38.3845034]}, "type": "Feature", "properties": {"SCALE": 1, "ANGLE": 1, "PLACES_ID": 66, "POLYGONID": 0, "ADDDATE": null, "SOURCE": 31, "VRE": " ", "UPDATEBY": " ", "ADDATE": 934416000000, "OBJECTID": 113, "ADDBY": " ", "UPDATEDATE": null, "POST": " ", "PERIMETER": 0, "CITY": "STAFFORD, VA 22554", "OBJECTID_1": 113, "NAME": "STAFFORD REGIONAL LANDFILL", "ADD_": "489 ESKIMO HILL RD", "Stafford_S": 0, "PLACES_": 114, "UPDATE_": null, "TYPE": 12}},
{"geometry": {"type": "Point", "coordinates": [-77.412909, 38.3818923]}, "type": "Feature", "properties": {"SCALE": 1, "ANGLE": 1, "PLACES_ID": 62, "POLYGONID": 0, "ADDDATE": null, "SOURCE": 31, "VRE": " ", "UPDATEBY": " ", "ADDATE": 960854400000, "OBJECTID": 114, "ADDBY": " ", "UPDATEDATE": null, "POST": " ", "PERIMETER": 0, "CITY": "STAFFORD, VA 22554", "OBJECTID_1": 114, "NAME": "ANIMAL SHELTER", "ADD_": "473 ESKIMO HILL RD", "Stafford_S": 0, "PLACES_": 115, "UPDATE_": null, "TYPE": 36}},
{"geometry": {"type": "Point", "coordinates": [-77.4213105, 38.3776582]}, "type": "Feature", "properties": {"SCALE": 1, "ANGLE": 0, "PLACES_ID": 138, "POLYGONID": 0, "ADDDATE": null, "SOURCE": 36, "VRE": " ", "UPDATEBY": " ", "ADDATE": 1041552000000, "OBJECTID": 115, "ADDBY": " ", "UPDATEDATE": null, "POST": " ", "PERIMETER": 0, "CITY": "STAFFORD, VA 22554", "OBJECTID_1": 115, "NAME": "STAFFORD DETENTION CENTER", "ADD_": "384 ESKIMO HILL RD", "Stafford_S": 0, "PLACES_": 116, "UPDATE_": null, "TYPE": 12}},
{"geometry": {"type": "Point", "coordinates": [-77.4547675, 38.3087242]}, "type": "Feature", "properties": {"SCALE": 1, "ANGLE": 1, "PLACES_ID": 23, "POLYGONID": 0, "ADDDATE": null, "SOURCE": 0, "VRE": " ", "UPDATEBY": " ", "ADDATE": 934416000000, "OBJECTID": 116, "ADDBY": " ", "UPDATEDATE": null, "POST": " ", "PERIMETER": 0, "CITY": " ", "OBJECTID_1": 116, "NAME": "CHATHAM MANOR", "ADD_": " ", "Stafford_S": 0, "PLACES_": 117, "UPDATE_": null, "TYPE": 40}},
{"geometry": {"type": "Point", "coordinates": [-77.5345896, 38.3217812]}, "type": "Feature", "properties": {"SCALE": 1, "ANGLE": 0, "PLACES_ID": 139, "POLYGONID": 0, "ADDDATE": null, "SOURCE": 31, "VRE": " ", "UPDATEBY": " ", "ADDATE": 1041552000000, "OBJECTID": 117, "ADDBY": " ", "UPDATEDATE": null, "POST": " ", "PERIMETER": 0, "CITY": " ", "OBJECTID_1": 117, "NAME": "CANNON RIDGE GOLF COURSE", "ADD_": " ", "Stafford_S": 0, "PLACES_": 118, "UPDATE_": null, "TYPE": 64}},
{"geometry": {"type": "Point", "coordinates": [-77.4035772, 38.4407759]}, "type": "Feature", "properties": {"SCALE": 1, "ANGLE": 1, "PLACES_ID": 84, "POLYGONID": 0, "ADDDATE": null, "SOURCE": 37, "VRE": " ", "UPDATEBY": " ", "ADDATE": 1000771200000, "OBJECTID": 118, "ADDBY": " ", "UPDATEDATE": null, "POST": " ", "PERIMETER": 0, "CITY": "STAFFORD", "OBJECTID_1": 118, "NAME": "WAYSIDE", "ADD_": " ", "Stafford_S": 0, "PLACES_": 119, "UPDATE_": null, "TYPE": 63}},
{"geometry": {"type": "Point", "coordinates": [-77.4016172, 38.4499275]}, "type": "Feature", "properties": {"SCALE": 1, "ANGLE": 1, "PLACES_ID": 25, "POLYGONID": 0, "ADDDATE": null, "SOURCE": 0, "VRE": " ", "UPDATEBY": " ", "ADDATE": 934416000000, "OBJECTID": 119, "ADDBY": " ", "UPDATEDATE": null, "POST": "P.O.", "PERIMETER": 0, "CITY": " ", "OBJECTID_1": 119, "NAME": "STAFFORD POST OFFICE", "ADD_": " ", "Stafford_S": 0, "PLACES_": 120, "UPDATE_": null, "TYPE": 35}},
{"geometry": {"type": "Point", "coordinates": [-77.398701, 38.4441703]}, "type": "Feature", "properties": {"SCALE": 1, "ANGLE": 1, "PLACES_ID": 128, "POLYGONID": 0, "ADDDATE": null, "SOURCE": 0, "VRE": " ", "UPDATEBY": " ", "ADDATE": 1024358400000, "OBJECTID": 120, "ADDBY": " ", "UPDATEDATE": null, "POST": " ", "PERIMETER": 0, "CITY": " ", "OBJECTID_1": 120, "NAME": "LAPETITE ACADEMY", "ADD_": "45 CONFEDERATE WAY", "Stafford_S": 0, "PLACES_": 121, "UPDATE_": null, "TYPE": 51}},
{"geometry": {"type": "Point", "coordinates": [-77.3800152, 38.4494148]}, "type": "Feature", "properties": {"SCALE": 1, "ANGLE": 1, "PLACES_ID": 78, "POLYGONID": 0, "ADDDATE": null, "SOURCE": 20, "VRE": " ", "UPDATEBY": " ", "ADDATE": null, "OBJECTID": 121, "ADDBY": " ", "UPDATEDATE": null, "POST": " ", "PERIMETER": 0, "CITY": " ", "OBJECTID_1": 121, "NAME": "GOVERNMENT ISLAND", "ADD_": " ", "Stafford_S": 0, "PLACES_": 122, "UPDATE_": null, "TYPE": 60}},
{"geometry": {"type": "Point", "coordinates": [-77.4695636, 38.323156]}, "type": "Feature", "properties": {"SCALE": 1, "ANGLE": 0, "PLACES_ID": 142, "POLYGONID": 0, "ADDDATE": null, "SOURCE": 0, "VRE": " ", "UPDATEBY": " ", "ADDATE": 1052179200000, "OBJECTID": 122, "ADDBY": " ", "UPDATEDATE": null, "POST": " ", "PERIMETER": 0, "CITY": " ", "OBJECTID_1": 122, "NAME": "STAFFORD COUNTY MUSEUM", "ADD_": " ", "Stafford_S": 0, "PLACES_": 123, "UPDATE_": null, "TYPE": 72}},
{"geometry": {"type": "Point", "coordinates": [-77.4219268, 38.4081181]}, "type": "Feature", "properties": {"SCALE": 1, "ANGLE": 1, "PLACES_ID": 118, "POLYGONID": 0, "ADDDATE": null, "SOURCE": 0, "VRE": " ", "UPDATEBY": " ", "ADDATE": 934416000000, "OBJECTID": 123, "ADDBY": " ", "UPDATEDATE": null, "POST": " ", "PERIMETER": 0, "CITY": " ", "OBJECTID_1": 123, "NAME": "RAPPAHANNOCK JUVENILE CENTER", "ADD_": " ", "Stafford_S": 0, "PLACES_": 124, "UPDATE_": null, "TYPE": 12}},
{"geometry": {"type": "Point", "coordinates": [-77.422135, 38.4073755]}, "type": "Feature", "properties": {"SCALE": 1, "ANGLE": 1, "PLACES_ID": 118, "POLYGONID": 0, "ADDDATE": null, "SOURCE": 0, "VRE": " ", "UPDATEBY": " ", "ADDATE": 934416000000, "OBJECTID": 124, "ADDBY": " ", "UPDATEDATE": null, "POST": " ", "PERIMETER": 0, "CITY": " ", "OBJECTID_1": 124, "NAME": "RAPPAHANNOCK REGIONAL JAIL", "ADD_": " ", "Stafford_S": 0, "PLACES_": 125, "UPDATE_": null, "TYPE": 12}},
{"geometry": {"type": "Point", "coordinates": [-77.4208093, 38.4044007]}, "type": "Feature", "properties": {"SCALE": 1, "ANGLE": 0, "PLACES_ID": 143, "POLYGONID": 0, "ADDDATE": null, "SOURCE": 0, "VRE": " ", "UPDATEBY": " ", "ADDATE": 1059609600000, "OBJECTID": 125, "ADDBY": " ", "UPDATEDATE": null, "POST": " ", "PERIMETER": 0, "CITY": "Stafford, Va 22554", "OBJECTID_1": 125, "NAME": "ROWSER BUILDING", "ADD_": "1739 Jefferson Davis Highway", "Stafford_S": 0, "PLACES_": 126, "UPDATE_": null, "TYPE": 36}},
{"geometry": {"type": "Point", "coordinates": [-77.4742789, 38.3325423]}, "type": "Feature", "properties": {"SCALE": 1, "ANGLE": 0, "PLACES_ID": 137, "POLYGONID": 0, "ADDDATE": null, "SOURCE": 98, "VRE": " ", "UPDATEBY": " ", "ADDATE": 1039392000000, "OBJECTID": 126, "ADDBY": " ", "UPDATEDATE": null, "POST": " ", "PERIMETER": 0, "CITY": "FREDERICKSBURG", "OBJECTID_1": 126, "NAME": "HEAD START", "ADD_": "610 GAYLE ST", "Stafford_S": 0, "PLACES_": 127, "UPDATE_": null, "TYPE": 52}},
{"geometry": {"type": "Point", "coordinates": [-77.4750663, 38.3322369]}, "type": "Feature", "properties": {"SCALE": 1, "ANGLE": 0, "PLACES_ID": 140, "POLYGONID": 0, "ADDDATE": null, "SOURCE": 16, "VRE": " ", "UPDATEBY": " ", "ADDATE": 1045094400000, "OBJECTID": 127, "ADDBY": " ", "UPDATEDATE": null, "POST": " ", "PERIMETER": 0, "CITY": "FREDERICKSBURG", "OBJECTID_1": 127, "NAME": "GARI MELCHERS COMPLEX", "ADD_": "610 GAYLE ST", "Stafford_S": 0, "PLACES_": 128, "UPDATE_": null, "TYPE": 30}},
{"geometry": {"type": "Point", "coordinates": [-77.4746659, 38.3326592]}, "type": "Feature", "properties": {"SCALE": 1, "ANGLE": 0, "PLACES_ID": 144, "POLYGONID": 0, "ADDDATE": null, "SOURCE": 31, "VRE": " ", "UPDATEBY": " ", "ADDATE": 1063584000000, "OBJECTID": 128, "ADDBY": " ", "UPDATEDATE": null, "POST": " ", "PERIMETER": 0, "CITY": "FREDERICKSBURG", "OBJECTID_1": 128, "NAME": "ALTERNATIVE ED PROG & STUDENT SERV", "ADD_": "610 GAYLE ST", "Stafford_S": 0, "PLACES_": 129, "UPDATE_": null, "TYPE": 36}},
{"geometry": {"type": "Point", "coordinates": [-77.474816, 38.3321463]}, "type": "Feature", "properties": {"SCALE": 1, "ANGLE": 0, "PLACES_ID": 145, "POLYGONID": 0, "ADDDATE": null, "SOURCE": 31, "VRE": " ", "UPDATEBY": " ", "ADDATE": 1063584000000, "OBJECTID": 129, "ADDBY": " ", "UPDATEDATE": null, "POST": " ", "PERIMETER": 0, "CITY": "FREDERICKSBURG", "OBJECTID_1": 129, "NAME": "TURNING POINT", "ADD_": "610 GAYLE ST", "Stafford_S": 0, "PLACES_": 130, "UPDATE_": null, "TYPE": 52}},
{"geometry": {"type": "Point", "coordinates": [-77.4748048, 38.3319748]}, "type": "Feature", "properties": {"SCALE": 1, "ANGLE": 0, "PLACES_ID": 146, "POLYGONID": 0, "ADDDATE": null, "SOURCE": 31, "VRE": " ", "UPDATEBY": " ", "ADDATE": 1063584000000, "OBJECTID": 130, "ADDBY": " ", "UPDATEDATE": null, "POST": " ", "PERIMETER": 0, "CITY": "FREDERICKSBURG", "OBJECTID_1": 130, "NAME": "MIDDLE SCH ALTERNATIVE ED", "ADD_": "610 GAYLE ST", "Stafford_S": 0, "PLACES_": 131, "UPDATE_": null, "TYPE": 52}},
{"geometry": {"type": "Point", "coordinates": [-77.5755992, 38.4188135]}, "type": "Feature", "properties": {"SCALE": 1, "ANGLE": 0, "PLACES_ID": 147, "POLYGONID": 0, "ADDDATE": null, "SOURCE": 0, "VRE": " ", "UPDATEBY": " ", "ADDATE": 934416000000, "OBJECTID": 131, "ADDBY": " ", "UPDATEDATE": null, "POST": " ", "PERIMETER": 0, "CITY": " ", "OBJECTID_1": 131, "NAME": "HARTWOOD WINERY", "ADD_": " ", "Stafford_S": 0, "PLACES_": 132, "UPDATE_": null, "TYPE": 71}},
{"geometry": {"type": "Point", "coordinates": [-77.4009669, 38.4620432]}, "type": "Feature", "properties": {"SCALE": 1, "ANGLE": 0, "PLACES_ID": 149, "POLYGONID": 0, "ADDDATE": null, "SOURCE": 0, "VRE": " ", "UPDATEBY": " ", "ADDATE": 1081468800000, "OBJECTID": 132, "ADDBY": " ", "UPDATEDATE": null, "POST": " ", "PERIMETER": 0, "CITY": " ", "OBJECTID_1": 132, "NAME": "AQUIA MOVIES 10", "ADD_": " ", "Stafford_S": 0, "PLACES_": 133, "UPDATE_": null, "TYPE": 72}},
{"geometry": {"type": "Point", "coordinates": [-77.4003111, 38.4711718]}, "type": "Feature", "properties": {"SCALE": 1, "ANGLE": 0, "PLACES_ID": 150, "POLYGONID": 0, "ADDDATE": null, "SOURCE": 0, "VRE": " ", "UPDATEBY": " ", "ADDATE": 1081468800000, "OBJECTID": 133, "ADDBY": " ", "UPDATEDATE": null, "POST": " ", "PERIMETER": 0, "CITY": " ", "OBJECTID_1": 133, "NAME": "AQUIA PINES CAMPGROUND", "ADD_": " ", "Stafford_S": 0, "PLACES_": 134, "UPDATE_": null, "TYPE": 72}},
{"geometry": {"type": "Point", "coordinates": [-77.4112388, 38.4117103]}, "type": "Feature", "properties": {"SCALE": 1, "ANGLE": 0, "PLACES_ID": 151, "POLYGONID": 0, "ADDDATE": null, "SOURCE": 0, "VRE": " ", "UPDATEBY": " ", "ADDATE": 1081468800000, "OBJECTID": 134, "ADDBY": " ", "UPDATEDATE": null, "POST": " ", "PERIMETER": 0, "CITY": " ", "OBJECTID_1": 134, "NAME": "CAVALIER FAMILY SKATING CENTER", "ADD_": " ", "Stafford_S": 0, "PLACES_": 135, "UPDATE_": null, "TYPE": 72}},
{"geometry": {"type": "Point", "coordinates": [-77.4398074, 38.49235]}, "type": "Feature", "properties": {"SCALE": 1, "ANGLE": 0, "PLACES_ID": 152, "POLYGONID": 0, "ADDDATE": null, "SOURCE": 50, "VRE": " ", "UPDATEBY": " ", "ADDATE": 1085356800000, "OBJECTID": 135, "ADDBY": " ", "UPDATEDATE": null, "POST": " ", "PERIMETER": 0, "CITY": " ", "OBJECTID_1": 135, "NAME": "VIRGINIA POWER SUBSTATION", "ADD_": " ", "Stafford_S": 0, "PLACES_": 136, "UPDATE_": null, "TYPE": 76}},
{"geometry": {"type": "Point", "coordinates": [-77.3894187, 38.4460499]}, "type": "Feature", "properties": {"SCALE": 1, "ANGLE": 0, "PLACES_ID": 153, "POLYGONID": 0, "ADDDATE": null, "SOURCE": 50, "VRE": " ", "UPDATEBY": " ", "ADDATE": 1085356800000, "OBJECTID": 136, "ADDBY": " ", "UPDATEDATE": null, "POST": " ", "PERIMETER": 0, "CITY": " ", "OBJECTID_1": 136, "NAME": "VIRGINIA POWER SUBSTATION", "ADD_": " ", "Stafford_S": 0, "PLACES_": 137, "UPDATE_": null, "TYPE": 76}},
{"geometry": {"type": "Point", "coordinates": [-77.5186138, 38.3603016]}, "type": "Feature", "properties": {"SCALE": 1, "ANGLE": 1, "PLACES_ID": 37, "POLYGONID": 0, "ADDDATE": null, "SOURCE": 0, "VRE": " ", "UPDATEBY": " ", "ADDATE": 934416000000, "OBJECTID": 137, "ADDBY": " ", "UPDATEDATE": null, "POST": " ", "PERIMETER": 0, "CITY": " ", "OBJECTID_1": 137, "NAME": "VIRGINIA POWER HQ", "ADD_": " ", "Stafford_S": 0, "PLACES_": 138, "UPDATE_": null, "TYPE": 76}},
{"geometry": {"type": "Point", "coordinates": [-77.453823, 38.3444949]}, "type": "Feature", "properties": {"SCALE": 1, "ANGLE": 0, "PLACES_ID": 154, "POLYGONID": 0, "ADDDATE": null, "SOURCE": 50, "VRE": " ", "UPDATEBY": " ", "ADDATE": 1085356800000, "OBJECTID": 138, "ADDBY": " ", "UPDATEDATE": null, "POST": " ", "PERIMETER": 0, "CITY": " ", "OBJECTID_1": 138, "NAME": "VIRGINIA POWER SUBSTATION", "ADD_": " ", "Stafford_S": 0, "PLACES_": 139, "UPDATE_": null, "TYPE": 76}},
{"geometry": {"type": "Point", "coordinates": [-77.3972634, 38.4827555]}, "type": "Feature", "properties": {"SCALE": 1, "ANGLE": 0, "PLACES_ID": 141, "POLYGONID": 0, "ADDDATE": null, "SOURCE": 96, "VRE": " ", "UPDATEBY": " ", "ADDATE": null, "OBJECTID": 139, "ADDBY": " ", "UPDATEDATE": null, "POST": " ", "PERIMETER": 0, "CITY": " ", "OBJECTID_1": 139, "NAME": "SMITH LAKE PARK", "ADD_": " ", "Stafford_S": 0, "PLACES_": 140, "UPDATE_": null, "TYPE": 60}},
{"geometry": {"type": "Point", "coordinates": [-77.369927, 38.5169615]}, "type": "Feature", "properties": {"SCALE": 1, "ANGLE": 1, "PLACES_ID": 16, "POLYGONID": 0, "ADDDATE": null, "SOURCE": 25, "VRE": " ", "UPDATEBY": " ", "ADDATE": 934416000000, "OBJECTID": 140, "ADDBY": " ", "UPDATEDATE": null, "POST": " ", "PERIMETER": 0, "CITY": " ", "OBJECTID_1": 140, "NAME": "FORMER FRITTER PARK", "ADD_": " ", "Stafford_S": 0, "PLACES_": 141, "UPDATE_": 1094601600000, "TYPE": 70}},
{"geometry": {"type": "Point", "coordinates": [-77.3563493, 38.4866272]}, "type": "Feature", "properties": {"SCALE": 1, "ANGLE": 0, "PLACES_ID": 148, "POLYGONID": 0, "ADDDATE": null, "SOURCE": 25, "VRE": " ", "UPDATEBY": " ", "ADDATE": 1084924800000, "OBJECTID": 141, "ADDBY": " ", "UPDATEDATE": null, "POST": " ", "PERIMETER": 0, "CITY": " ", "OBJECTID_1": 141, "NAME": "MONCURE PROPERTY", "ADD_": "WIDEWATER RD", "Stafford_S": 0, "PLACES_": 142, "UPDATE_": 1094601600000, "TYPE": 60}},
{"geometry": {"type": "Point", "coordinates": [-77.4219846, 38.4216853]}, "type": "Feature", "properties": {"SCALE": 1, "ANGLE": 1, "PLACES_ID": 125, "POLYGONID": 0, "ADDDATE": null, "SOURCE": 21, "VRE": " ", "UPDATEBY": " ", "ADDATE": 1024099200000, "OBJECTID": 142, "ADDBY": " ", "UPDATEDATE": null, "POST": " ", "PERIMETER": 0, "CITY": " ", "OBJECTID_1": 142, "NAME": "I-95 INTERCHANGE", "ADD_": " ", "Stafford_S": 0, "PLACES_": 143, "UPDATE_": 1094601600000, "TYPE": 17}},
{"geometry": {"type": "Point", "coordinates": [-77.4103441, 38.4223233]}, "type": "Feature", "properties": {"SCALE": 1, "ANGLE": 1, "PLACES_ID": 87, "POLYGONID": 0, "ADDDATE": null, "SOURCE": 31, "VRE": " ", "UPDATEBY": " ", "ADDATE": 961372800000, "OBJECTID": 143, "ADDBY": " ", "UPDATEDATE": null, "POST": " ", "PERIMETER": 0, "CITY": "STAFFORD, VA 22554", "OBJECTID_1": 143, "NAME": "LANDFILL/R-BOARD/RECYCLING OFFICES", "ADD_": "1259 COURTHOUSE RD, SUITE 205", "Stafford_S": 0, "PLACES_": 144, "UPDATE_": 1094601600000, "TYPE": 77}},
{"geometry": {"type": "Point", "coordinates": [-77.4100131, 38.4221882]}, "type": "Feature", "properties": {"SCALE": 1, "ANGLE": 0, "PLACES_ID": 155, "POLYGONID": 0, "ADDDATE": null, "SOURCE": 0, "VRE": " ", "UPDATEBY": " ", "ADDATE": 1094601600000, "OBJECTID": 144, "ADDBY": " ", "UPDATEDATE": null, "POST": " ", "PERIMETER": 0, "CITY": " ", "OBJECTID_1": 144, "NAME": "SHERIFF(PROFESSIONAL SERVICES UNIT)", "ADD_": "GOGGINS BUILDING", "Stafford_S": 0, "PLACES_": 145, "UPDATE_": null, "TYPE": 30}},
{"geometry": {"type": "Point", "coordinates": [-77.4099119, 38.4221067]}, "type": "Feature", "properties": {"SCALE": 1, "ANGLE": 0, "PLACES_ID": 156, "POLYGONID": 0, "ADDDATE": null, "SOURCE": 0, "VRE": " ", "UPDATEBY": " ", "ADDATE": 1094601600000, "OBJECTID": 145, "ADDBY": " ", "UPDATEDATE": null, "POST": " ", "PERIMETER": 0, "CITY": " ", "OBJECTID_1": 145, "NAME": "TRANSPORTATION PLANNING", "ADD_": "GOGGINS BUILDING", "Stafford_S": 0, "PLACES_": 146, "UPDATE_": null, "TYPE": 30}},
{"geometry": {"type": "Point", "coordinates": [-77.408971, 38.4231142]}, "type": "Feature", "properties": {"SCALE": 1, "ANGLE": 1, "PLACES_ID": 13, "POLYGONID": 0, "ADDDATE": null, "SOURCE": 0, "VRE": " ", "UPDATEBY": " ", "ADDATE": 934416000000, "OBJECTID": 146, "ADDBY": " ", "UPDATEDATE": null, "POST": " ", "PERIMETER": 0, "CITY": " ", "OBJECTID_1": 146, "NAME": "GOV'T ADMINISTRATION CENTER", "ADD_": " ", "Stafford_S": 0, "PLACES_": 147, "UPDATE_": null, "TYPE": 30}},
{"geometry": {"type": "Point", "coordinates": [-77.4072445, 38.4227708]}, "type": "Feature", "properties": {"SCALE": 1, "ANGLE": 1, "PLACES_ID": 113, "POLYGONID": 0, "ADDDATE": null, "SOURCE": 0, "VRE": " ", "UPDATEBY": " ", "ADDATE": 1020643200000, "OBJECTID": 147, "ADDBY": " ", "UPDATEDATE": null, "POST": " ", "PERIMETER": 0, "CITY": " ", "OBJECTID_1": 147, "NAME": "CODE ADMIN STAFF/CID/CT SERVICES", "ADD_": " ", "Stafford_S": 0, "PLACES_": 148, "UPDATE_": 1094601600000, "TYPE": 30}},
{"geometry": {"type": "Point", "coordinates": [-77.4057768, 38.4244383]}, "type": "Feature", "properties": {"SCALE": 1, "ANGLE": 1, "PLACES_ID": 77, "POLYGONID": 0, "ADDDATE": null, "SOURCE": 14, "VRE": " ", "UPDATEBY": " ", "ADDATE": 934416000000, "OBJECTID": 148, "ADDBY": " ", "UPDATEDATE": null, "POST": " ", "PERIMETER": 0, "CITY": "STAFFORD, VA 22554", "OBJECTID_1": 148, "NAME": "COURTHOUSE COMMUNITY CENTER", "ADD_": "29 STAFFORD AVE", "Stafford_S": 0, "PLACES_": 149, "UPDATE_": null, "TYPE": 33}},
{"geometry": {"type": "Point", "coordinates": [-77.4063565, 38.4242275]}, "type": "Feature", "properties": {"SCALE": 1, "ANGLE": 1, "PLACES_ID": 75, "POLYGONID": 0, "ADDDATE": null, "SOURCE": 31, "VRE": " ", "UPDATEBY": " ", "ADDATE": 1039392000000, "OBJECTID": 149, "ADDBY": " ", "UPDATEDATE": null, "POST": " ", "PERIMETER": 0, "CITY": "STAFFORD, VA 22554", "OBJECTID_1": 149, "NAME": "PARENT RESOURCE CTR", "ADD_": "2160 JEFFERSON DAVIS HWY", "Stafford_S": 0, "PLACES_": 150, "UPDATE_": null, "TYPE": 36}},
{"geometry": {"type": "Point", "coordinates": [-77.4063489, 38.4250949]}, "type": "Feature", "properties": {"SCALE": 1, "ANGLE": 1, "PLACES_ID": 74, "POLYGONID": 0, "ADDDATE": null, "SOURCE": 14, "VRE": " ", "UPDATEBY": " ", "ADDATE": 947635200000, "OBJECTID": 150, "ADDBY": " ", "UPDATEDATE": null, "POST": " ", "PERIMETER": 0, "CITY": "STAFFORD, VA 22554", "OBJECTID_1": 150, "NAME": "ALVIN Y. BANDY ADMIN. COMPLEX", "ADD_": " ", "Stafford_S": 0, "PLACES_": 151, "UPDATE_": null, "TYPE": 36}},
{"geometry": {"type": "Point", "coordinates": [-77.4072332, 38.4239617]}, "type": "Feature", "properties": {"SCALE": 1, "ANGLE": 1, "PLACES_ID": 14, "POLYGONID": 0, "ADDDATE": null, "SOURCE": 0, "VRE": " ", "UPDATEBY": " ", "ADDATE": 934416000000, "OBJECTID": 151, "ADDBY": " ", "UPDATEDATE": null, "POST": " ", "PERIMETER": 0, "CITY": " ", "OBJECTID_1": 151, "NAME": "COURTHOUSE PRO. CENTER", "ADD_": " ", "Stafford_S": 0, "PLACES_": 152, "UPDATE_": null, "TYPE": 70}},
{"geometry": {"type": "Point", "coordinates": [-77.4614319, 38.3756313]}, "type": "Feature", "properties": {"SCALE": 1, "ANGLE": 1, "PLACES_ID": 124, "POLYGONID": 0, "ADDDATE": null, "SOURCE": 21, "VRE": " ", "UPDATEBY": " ", "ADDATE": 1024099200000, "OBJECTID": 152, "ADDBY": " ", "UPDATEDATE": null, "POST": " ", "PERIMETER": 0, "CITY": " ", "OBJECTID_1": 152, "NAME": "I-95 INTERCHANGE (FUTURE)", "ADD_": " ", "Stafford_S": 0, "PLACES_": 153, "UPDATE_": null, "TYPE": 17}},
{"geometry": {"type": "Point", "coordinates": [-77.5335945, 38.3702043]}, "type": "Feature", "properties": {"SCALE": 0, "ANGLE": 0, "PLACES_ID": 0, "POLYGONID": 0, "ADDDATE": null, "SOURCE": 0, "VRE": " ", "UPDATEBY": " ", "ADDATE": 934416000000, "OBJECTID": 153, "ADDBY": " ", "UPDATEDATE": null, "POST": " ", "PERIMETER": 0, "CITY": " ", "OBJECTID_1": 153, "NAME": "JAMES MONROE CENTER", "ADD_": " ", "Stafford_S": 0, "PLACES_": 0, "UPDATE_": null, "TYPE": 50}},
{"geometry": {"type": "Point", "coordinates": [-77.474358, 38.3314603]}, "type": "Feature", "properties": {"SCALE": 0, "ANGLE": 0, "PLACES_ID": 0, "POLYGONID": 0, "ADDDATE": null, "SOURCE": 0, "VRE": " ", "UPDATEBY": " ", "ADDATE": null, "OBJECTID": 156, "ADDBY": " ", "UPDATEDATE": null, "POST": " ", "PERIMETER": 0, "CITY": " ", "OBJECTID_1": 154, "NAME": "MELCHERS COMPLEX", "ADD_": " ", "Stafford_S": 0, "PLACES_": 0, "UPDATE_": null, "TYPE": 0}},
{"geometry": {"type": "Point", "coordinates": [-77.4980387, 38.3628823]}, "type": "Feature", "properties": {"SCALE": 0, "ANGLE": 0, "PLACES_ID": 0, "POLYGONID": 0, "ADDDATE": 1244160000000, "SOURCE": 0, "VRE": " ", "UPDATEBY": "stafford", "ADDATE": null, "OBJECTID": 157, "ADDBY": "stafford", "UPDATEDATE": 1244160000000, "POST": " ", "PERIMETER": 0, "CITY": " ", "OBJECTID_1": 155, "NAME": "FALLS RUN LIBRARY", "ADD_": "806 Lyons Blvd", "Stafford_S": 0, "PLACES_": 0, "UPDATE_": null, "TYPE": 34}},
{"geometry": {"type": "Point", "coordinates": [-77.3433627, 38.3658408]}, "type": "Feature", "properties": {"SCALE": 0, "ANGLE": 0, "PLACES_ID": 0, "POLYGONID": 0, "ADDDATE": 1262649600000, "SOURCE": 0, "VRE": " ", "UPDATEBY": "stafford", "ADDATE": null, "OBJECTID": 159, "ADDBY": "stafford", "UPDATEDATE": 1262649600000, "POST": " ", "PERIMETER": 0, "CITY": " ", "OBJECTID_1": 156, "NAME": "CROWS NEST", "ADD_": " ", "Stafford_S": 0, "PLACES_": 0, "UPDATE_": null, "TYPE": 0}},
{"geometry": {"type": "Point", "coordinates": [-77.4080467, 38.4227074]}, "type": "Feature", "properties": {"SCALE": 0, "ANGLE": 0, "PLACES_ID": 0, "POLYGONID": 0, "ADDDATE": 1276214400000, "SOURCE": 0, "VRE": " ", "UPDATEBY": "GISMOS", "ADDATE": null, "OBJECTID": 160, "ADDBY": "GISMOS", "UPDATEDATE": 1276214400000, "POST": " ", "PERIMETER": 0, "CITY": " ", "OBJECTID_1": 157, "NAME": "STAFFORD COURTHOUSE SE CORNERSTONE", "ADD_": " ", "Stafford_S": 0, "PLACES_": 0, "UPDATE_": null, "TYPE": 0}},
{"geometry": {"type": "Point", "coordinates": [-77.4080294, 38.4237685]}, "type": "Feature", "properties": {"SCALE": 0, "ANGLE": 0, "PLACES_ID": 0, "POLYGONID": 0, "ADDDATE": 1276214400000, "SOURCE": 0, "VRE": " ", "UPDATEBY": "GISMOS", "ADDATE": null, "OBJECTID": 161, "ADDBY": "GISMOS", "UPDATEDATE": 1276214400000, "POST": " ", "PERIMETER": 0, "CITY": " ", "OBJECTID_1": 158, "NAME": "STAFFORD COURTHOUSE NE CORNERSTONE", "ADD_": " ", "Stafford_S": 0, "PLACES_": 0, "UPDATE_": null, "TYPE": 0}}
]}