{"type":"FeatureCollection","features":[
{"geometry": {"type": "Point", "coordinates": [-77.3777526, 38.4722862]}, "type": "Feature", "properties": {"District": "303", "Precinct": "HARBOUR", "Id": 11, "OBJECTID": 1, "NAME": "HARBOUR COUNTRY CLUB"}},
{"geometry": {"type": "Point", "coordinates": [-77.5286007, 38.4932786]}, "type": "Feature", "properties": {"District": "203", "Precinct": "RUBY", "Id": 7, "OBJECTID": 2, "NAME": "ROCK HILL BAPTIST CHURCH"}},
{"geometry": {"type": "Point", "coordinates": [-77.4679686, 38.4773347]}, "type": "Feature", "properties": {"District": "201", "Precinct": "ROCK HILL", "Id": 5, "OBJECTID": 3, "NAME": "MOUNT ARARAT BAPTIST CHURCH"}},
{"geometry": {"type": "Point", "coordinates": [-77.446925, 38.4643769]}, "type": "Feature", "properties": {"District": "702", "Precinct": "WHITSON", "Id": 23, "OBJECTID": 4, "NAME": "PORTER LIBRARY"}},
{"geometry": {"type": "Point", "coordinates": [-77.405689, 38.424465]}, "type": "Feature", "properties": {"District": "402", "Precinct": "COURTHOUSE", "Id": 13, "OBJECTID": 5, "NAME": "COURTHOUSE COMMUNITY CENTER"}},
{"geometry": {"type": "Point", "coordinates": [-77.5670689, 38.4020192]}, "type": "Feature", "properties": {"District": "101", "Precinct": "HARTWOOD", "Id": 1, "OBJECTID": 6, "NAME": "HARTWOOD PRESBYTERIAN CHURCH"}},
{"geometry": {"type": "Point", "coordinates": [-77.5356435, 38.3613329]}, "type": "Feature", "properties": {"District": "102", "Precinct": "ROCKY RUN", "Id": 2, "OBJECTID": 7, "NAME": "ROCKY RUN E.S."}},
{"geometry": {"type": "Point", "coordinates": [-77.4646405, 38.3605968]}, "type": "Feature", "properties": {"District": "103", "Precinct": "SIMPSON", "Id": 3, "OBJECTID": 8, "NAME": "STAFFORD H.S."}},
{"geometry": {"type": "Point", "coordinates": [-77.4620106, 38.4519559]}, "type": "Feature", "properties": {"District": "204", "Precinct": "STEFANIGA", "Id": 8, "OBJECTID": 9, "NAME": "RODNEY THOMPSON M.S."}},
{"geometry": {"type": "Point", "coordinates": [-77.4785405, 38.4762854]}, "type": "Feature", "properties": {"District": "202", "Precinct": "ROSEVILLE", "Id": 6, "OBJECTID": 10, "NAME": "ROCK HILL E.S."}},
{"geometry": {"type": "Point", "coordinates": [-77.3704238, 38.482227]}, "type": "Feature", "properties": {"District": "302", "Precinct": "WIDEWATER", "Id": 10, "OBJECTID": 11, "NAME": "WIDEWATER E.S."}},
{"geometry": {"type": "Point", "coordinates": [-77.4353658, 38.4839857]}, "type": "Feature", "properties": {"District": "304", "Precinct": "BARRETT", "Id": 9, "OBJECTID": 12, "NAME": "KATE WALLER BARRETT E.S."}},
{"geometry": {"type": "Point", "coordinates": [-77.4156184, 38.4748136]}, "type": "Feature", "properties": {"District": "301", "Precinct": "GRIFFIS", "Id": 12, "OBJECTID": 13, "NAME": "MONCURE E.S."}},
{"geometry": {"type": "Point", "coordinates": [-77.3957858, 38.4064566]}, "type": "Feature", "properties": {"District": "403", "Precinct": "BROOKE", "Id": 14, "OBJECTID": 14, "NAME": "BROOKE POINT HIGH SCHOOL"}},
{"geometry": {"type": "Point", "coordinates": [-77.4180432, 38.3348469]}, "type": "Feature", "properties": {"District": "501", "Precinct": "GRAFTON", "Id": 15, "OBJECTID": 15, "NAME": "DIXON-SMITH M.S."}},
{"geometry": {"type": "Point", "coordinates": [-77.4596673, 38.3459556]}, "type": "Feature", "properties": {"District": "503", "Precinct": "DREW", "Id": 17, "OBJECTID": 16, "NAME": "DREW M.S."}},
{"geometry": {"type": "Point", "coordinates": [-77.4959168, 38.3668387]}, "type": "Feature", "properties": {"District": "504", "Precinct": "GAYLE", "Id": 18, "OBJECTID": 17, "NAME": "GAYLE M.S."}},
{"geometry": {"type": "Point", "coordinates": [-77.4328862, 38.293929]}, "type": "Feature", "properties": {"District": "601", "Precinct": "FERRY FARM", "Id": 19, "OBJECTID": 18, "NAME": "FERRY FARM E.S."}},
{"geometry": {"type": "Point", "coordinates": [-77.4202116, 38.4577264]}, "type": "Feature", "properties": {"District": "703", "Precinct": "HAMPTON", "Id": 24, "OBJECTID": 19, "NAME": "HAMPTON OAKS E.S."}},
{"geometry": {"type": "Point", "coordinates": [-77.5316191, 38.3705103]}, "type": "Feature", "properties": {"District": "104", "Precinct": "COLLEGE", "Id": 0, "OBJECTID": 20, "NAME": "UNIVERSITY OF MARY WASHINGTON"}},
{"geometry": {"type": "Point", "coordinates": [-77.4393017, 38.4530215]}, "type": "Feature", "properties": {"District": "701", "Precinct": "WOODLANDS", "Id": 0, "OBJECTID": 21, "NAME": "H.H. POOLE M.S."}},
{"geometry": {"type": "Point", "coordinates": [-77.4031412, 38.4513312]}, "type": "Feature", "properties": {"District": "401", "Precinct": "AQUIA", "Id": 0, "OBJECTID": 22, "NAME": "UNITED FAITH CHRIS. MINISTRY"}},
{"geometry": {"type": "Point", "coordinates": [-77.3842228, 38.4581122]}, "type": "Feature", "properties": {"District": "404", "Precinct": "GOVERNMENT ISLAND", "Id": 0, "OBJECTID": 23, "NAME": "HARBOUR INN"}},
{"geometry": {"type": "Point", "coordinates": [-77.4387288, 38.3421983]}, "type": "Feature", "properties": {"District": "502", "Precinct": "FALMOUTH", "Id": 0, "OBJECTID": 24, "NAME": "CONWAY E.S."}},
{"geometry": {"type": "Point", "coordinates": [-77.4447444, 38.3101601]}, "type": "Feature", "properties": {"District": "602", "Precinct": "CHATHAM", "Id": 0, "OBJECTID": 25, "NAME": "EAGLES LODGE"}},
{"geometry": {"type": "Point", "coordinates": [-77.3746552, 38.3019192]}, "type": "Feature", "properties": {"District": "603", "Precinct": "WHITE OAK", "Id": 0, "OBJECTID": 26, "NAME": "WHITE OAK FIRE STATION"}},
{"geometry": {"type": "Point", "coordinates": [-77.4976813, 38.3627886]}, "type": "Feature", "properties": {"District": "604", "Precinct": "ENGLAND RUN", "Id": 0, "OBJECTID": 27, "NAME": "ENGLAND RUN LIBRARY"}}
]}