{"type":"FeatureCollection","features":[
{"geometry": {"type": "Point", "coordinates": [-76.2896293, 37.057938]}, "type": "Feature", "properties": {"SiteTitle": "Mainsail Drive Condominiums", "DateLastIn": " ", "GlobalID": "baa3fad9-46ba-4144-b454-af61cf82b745", "OBJECTID": 780, "OwnerType": "Private", "Owner_Name": "SOUTHALL LANDINGS PROPERTY OWNERS ", "SWMFType": "Grassed Swale", "LucityAutoID": "BMP_006_001", "StreetNumb": "301", "ScheduledI": "July_Nov", "Inspection": 0, "StreetName": "MAINSAIL DRIVE"}},
{"geometry": {"type": "Point", "coordinates": [-76.3955328, 37.0869787]}, "type": "Feature", "properties": {"SiteTitle": "Sonic", "DateLastIn": " ", "GlobalID": "09cfaef3-0983-490e-933e-9a7df3e1e7c6", "OBJECTID": 781, "OwnerType": "Private", "Owner_Name": "BOOM INC ", "SWMFType": "Bioretention Basins", "LucityAutoID": "BMP_004_001", "StreetNumb": "200", "ScheduledI": "May_Sept", "Inspection": 365, "StreetName": "FLOYD THOMPSON DRIVE"}},
{"geometry": {"type": "Point", "coordinates": [-76.3958962, 37.0867062]}, "type": "Feature", "properties": {"SiteTitle": "Sonic", "DateLastIn": " ", "GlobalID": "92e08079-1fb0-4d7c-918c-89a9fb9d2c89", "OBJECTID": 782, "OwnerType": "Private", "Owner_Name": "BOOM INC ", "SWMFType": "Bioretention Basins", "LucityAutoID": "BMP_004_002", "StreetNumb": "200", "ScheduledI": "May_Sept", "Inspection": 365, "StreetName": "FLOYD THOMPSON DRIVE"}},
{"geometry": {"type": "Point", "coordinates": [-76.4173404, 37.0335872]}, "type": "Feature", "properties": {"SiteTitle": "6th Mount Zion Baptist Temple Parking Lot", "DateLastIn": " ", "GlobalID": "1a25fb5a-a682-42c1-b010-fbf1d5052d89", "OBJECTID": 783, "OwnerType": "Private", "Owner_Name": "SIXTH MOUNT ZION BAPTIST TEMPLE ", "SWMFType": "Manufactured BMP Systems", "LucityAutoID": "BMP_157_001", "StreetNumb": "3101", "ScheduledI": "Apr_Aug", "Inspection": 0, "StreetName": "BUTTERNUT DRIVE"}},
{"geometry": {"type": "Point", "coordinates": [-76.4173008, 37.0341818]}, "type": "Feature", "properties": {"SiteTitle": "6th Mount Zion Baptist Temple Parking Lot", "DateLastIn": " ", "GlobalID": "5e3a289d-0b85-48c2-8b29-2b1835820e3d", "OBJECTID": 784, "OwnerType": "Private", "Owner_Name": "SIXTH MOUNT ZION BAPTIST TEMPLE ", "SWMFType": "Manufactured BMP Systems", "LucityAutoID": "BMP_157_002", "StreetNumb": "3101", "ScheduledI": "Apr_Aug", "Inspection": 0, "StreetName": "BUTTERNUT DRIVE"}},
{"geometry": {"type": "Point", "coordinates": [-76.3502938, 37.0370848]}, "type": "Feature", "properties": {"SiteTitle": "Mount Hebron Baptist Church", "DateLastIn": " ", "GlobalID": "3d53055e-3e04-4a89-be36-1a59082aff35", "OBJECTID": 785, "OwnerType": "Private", "Owner_Name": "CHURCH MOUNT HEBRON MINISTRIES INC ", "SWMFType": "Grassed Swale", "LucityAutoID": "BMP_116_001", "StreetNumb": "123", "ScheduledI": "Apr_Aug", "Inspection": 0, "StreetName": "RIP RAP ROAD"}},
{"geometry": {"type": "Point", "coordinates": [-76.4145699, 37.0896017]}, "type": "Feature", "properties": {"SiteTitle": "Semple Cove", "DateLastIn": " ", "GlobalID": "abbab9d6-172e-46e0-81d8-e3ac27c09c1d", "OBJECTID": 786, "OwnerType": "Private", "Owner_Name": "MACDONALD CHARLES R & STEPHANIE L ", "SWMFType": "Detention Basin", "LucityAutoID": "BMP_238_001", "StreetNumb": "6", "ScheduledI": "May_Sept", "Inspection": 365, "StreetName": "GINGER COURT"}},
{"geometry": {"type": "Point", "coordinates": [-76.3456307, 37.0530654]}, "type": "Feature", "properties": {"SiteTitle": "Bassette Town Homes", "DateLastIn": " ", "GlobalID": "22c9ae15-a320-4a50-a930-fe09fa573ec6", "OBJECTID": 787, "OwnerType": "Private", "Owner_Name": "BASSETTE LANDING OWNERS ASSOC INC ", "SWMFType": "Grassed Swale", "LucityAutoID": "BMP_312_001", "StreetNumb": "201", "ScheduledI": "June_Oct", "Inspection": 365, "StreetName": "BOATHOUSE LANE"}},
{"geometry": {"type": "Point", "coordinates": [-76.2957531, 37.0742193]}, "type": "Feature", "properties": {"SiteTitle": "Ashe Meadows", "DateLastIn": " ", "GlobalID": "c6c9e514-a084-476b-af0c-6363b36a03ba", "OBJECTID": 788, "OwnerType": "Private", "Owner_Name": "MASON ANDREA R & DICKENS JASON N ", "SWMFType": "Retention Basin", "LucityAutoID": "BMP_223_001", "StreetNumb": " ", "ScheduledI": "July_Nov", "Inspection": 365, "StreetName": "ASHE MEADOWS DRIVE"}},
{"geometry": {"type": "Point", "coordinates": [-76.2961779, 37.0754722]}, "type": "Feature", "properties": {"SiteTitle": "Ashe Meadows", "DateLastIn": " ", "GlobalID": "7425be46-4fb0-43c4-b3f9-cc225d0347ab", "OBJECTID": 789, "OwnerType": "Private", "Owner_Name": "ASHE CONRAD G SR FAMILY TRUST ", "SWMFType": "Detention Basin", "LucityAutoID": "BMP_202_001", "StreetNumb": " ", "ScheduledI": "July_Nov", "Inspection": 365, "StreetName": "ASHE MEADOWS DRIVE"}},
{"geometry": {"type": "Point", "coordinates": [-76.3205417, 37.0334771]}, "type": "Feature", "properties": {"SiteTitle": "Buckroe Village", "DateLastIn": " ", "GlobalID": "172374ed-0c73-4f2d-b407-4433267526ab", "OBJECTID": 790, "OwnerType": "Private", "Owner_Name": "WEI & XIN LLC ", "SWMFType": "Retention Basin", "LucityAutoID": "BMP_192_001", "StreetNumb": "1404", "ScheduledI": "Apr_Aug", "Inspection": 365, "StreetName": "E PEMBROKE AVE"}},
{"geometry": {"type": "Point", "coordinates": [-76.4097168, 37.0263728]}, "type": "Feature", "properties": {"SiteTitle": "Danielle Place", "DateLastIn": " ", "GlobalID": "0928f60e-1cca-479e-99af-58ff98e9f1e7", "OBJECTID": 791, "OwnerType": "Private", "Owner_Name": "BRASWELL CORENA J & MOORE GLENDA B ", "SWMFType": "General Infiltration Practices", "LucityAutoID": "BMP_184_001", "StreetNumb": "207", "ScheduledI": "Apr_Aug", "Inspection": 365, "StreetName": "DAN LEIGH COURT"}},
{"geometry": {"type": "Point", "coordinates": [-76.4268311, 37.0796229]}, "type": "Feature", "properties": {"SiteTitle": "Bethel Lakes", "DateLastIn": " ", "GlobalID": "736e91db-7b79-4881-bf68-d0a03fcdfcbe", "OBJECTID": 792, "OwnerType": "Private", "Owner_Name": "KEIFER ROBERT E JR ETAL ", "SWMFType": "Retention Basin", "LucityAutoID": "BMP_025_001", "StreetNumb": "84", "ScheduledI": "May_Sept", "Inspection": 365, "StreetName": "TUPELO CIRCLE"}},
{"geometry": {"type": "Point", "coordinates": [-76.3987343, 37.0512125]}, "type": "Feature", "properties": {"SiteTitle": "Town Square Town Homes", "DateLastIn": " ", "GlobalID": "1a6a8a5b-0a0f-4d98-b852-225e1598980f", "OBJECTID": 793, "OwnerType": "Private", "Owner_Name": "TOWN SQUARE HOMEOWNERS ASSOC ", "SWMFType": "Manufactured BMP Systems", "LucityAutoID": "BMP_170_001", "StreetNumb": "2", "ScheduledI": "June_Oct", "Inspection": 365, "StreetName": "RUTLAND DRIVE"}},
{"geometry": {"type": "Point", "coordinates": [-76.3992801, 37.0512909]}, "type": "Feature", "properties": {"SiteTitle": "Town Square Town Homes", "DateLastIn": " ", "GlobalID": "10285a5b-c1de-4ad7-9dc4-019184f906e0", "OBJECTID": 794, "OwnerType": "Private", "Owner_Name": "TOWN SQUARE HOMEOWNERS ASSOC ", "SWMFType": "Manufactured BMP Systems", "LucityAutoID": "BMP_170_002", "StreetNumb": "20", "ScheduledI": "June_Oct", "Inspection": 365, "StreetName": "RUTLAND DRIVE"}},
{"geometry": {"type": "Point", "coordinates": [-76.3992403, 37.0509268]}, "type": "Feature", "properties": {"SiteTitle": "Town Square Town Homes", "DateLastIn": " ", "GlobalID": "98b6d529-8f3b-4f8e-a582-705fb8dccaab", "OBJECTID": 795, "OwnerType": "Private", "Owner_Name": "DASILVA CHERYL AKILAH ", "SWMFType": "Manufactured BMP Systems", "LucityAutoID": "BMP_176_001", "StreetNumb": "30", "ScheduledI": "June_Oct", "Inspection": 365, "StreetName": "RUTLAND DRIVE"}},
{"geometry": {"type": "Point", "coordinates": [-76.3990495, 37.0508323]}, "type": "Feature", "properties": {"SiteTitle": "Town Square Town Homes", "DateLastIn": " ", "GlobalID": "4411978d-0a60-4284-9cb7-a8901dc2f963", "OBJECTID": 796, "OwnerType": "Private", "Owner_Name": "TOWN SQUARE HOMEOWNERS ASSOC ", "SWMFType": "Detention Basin", "LucityAutoID": "BMP_170_003", "StreetNumb": "32", "ScheduledI": "June_Oct", "Inspection": 365, "StreetName": "RUTLAND DRIVE"}},
{"geometry": {"type": "Point", "coordinates": [-76.303381, 37.0539952]}, "type": "Feature", "properties": {"SiteTitle": "Merrimack Grove", "DateLastIn": " ", "GlobalID": "2bc5fe52-18b5-4f64-af19-39e530d2ffec", "OBJECTID": 797, "OwnerType": "Private", "Owner_Name": "GARCIA XAVIER ", "SWMFType": "General Infiltration Practices", "LucityAutoID": "BMP_263_001", "StreetNumb": "72", "ScheduledI": "July_Nov", "Inspection": 365, "StreetName": "MANILLA LANE"}},
{"geometry": {"type": "Point", "coordinates": [-76.3863027, 37.061107]}, "type": "Feature", "properties": {"SiteTitle": "Sharon Baptist Church", "DateLastIn": " ", "GlobalID": "e5b7d995-5749-457b-aca2-a0251c6c3f6a", "OBJECTID": 798, "OwnerType": "Private", "Owner_Name": "BEACON BAPTIST CHURCH ", "SWMFType": "Detention Basin", "LucityAutoID": "BMP_057_001", "StreetNumb": "2625", "ScheduledI": "June_Oct", "Inspection": 365, "StreetName": "N ARMISTEAD AVE"}},
{"geometry": {"type": "Point", "coordinates": [-76.4236792, 37.0768063]}, "type": "Feature", "properties": {"SiteTitle": "Compton Court", "DateLastIn": " ", "GlobalID": "d72eabd5-8ec7-44f1-beba-0f3b96585f4d", "OBJECTID": 799, "OwnerType": "Private", "Owner_Name": "PRINCE YOLANDA W ", "SWMFType": "General Infiltration Practices", "LucityAutoID": "BMP_140_001", "StreetNumb": "14", "ScheduledI": "May_Sept", "Inspection": 0, "StreetName": "COMPTON COURT"}},
{"geometry": {"type": "Point", "coordinates": [-76.3965959, 37.1006824]}, "type": "Feature", "properties": {"SiteTitle": "Creasy & Whiteed/ Lt 7 Wythe Creek Park", "DateLastIn": " ", "GlobalID": "b7b0bc0d-a720-42cc-9492-0a923258241f", "OBJECTID": 800, "OwnerType": "Private", "Owner_Name": "WHITEED ENTERPRISES L L C ", "SWMFType": "Detention Basin", "LucityAutoID": "BMP_041_001", "StreetNumb": "209", "ScheduledI": "May_Sept", "Inspection": 0, "StreetName": "CHALLENGER WAY"}},
{"geometry": {"type": "Point", "coordinates": [-76.3958212, 37.1015067]}, "type": "Feature", "properties": {"SiteTitle": "Vacant Office Warehouse", "DateLastIn": " ", "GlobalID": "a08b6384-81de-40f9-b88a-69c8ba61e574", "OBJECTID": 801, "OwnerType": "Private", "Owner_Name": "POWELL CHRISTOPHER J ", "SWMFType": "Detention Basin", "LucityAutoID": "BMP_162_001", "StreetNumb": "2", "ScheduledI": "May_Sept", "Inspection": 0, "StreetName": "SHUTTLE COURT"}},
{"geometry": {"type": "Point", "coordinates": [-76.3893478, 37.0641496]}, "type": "Feature", "properties": {"SiteTitle": "Butler Farm Estates", "DateLastIn": " ", "GlobalID": "e66f8449-4947-4a66-87a6-1eb160480696", "OBJECTID": 802, "OwnerType": "Private", "Owner_Name": "EVERETT RODERICK ", "SWMFType": "Detention Basin", "LucityAutoID": "BMP_158_001", "StreetNumb": "9", "ScheduledI": "May_Sept", "Inspection": 365, "StreetName": "HARMONY COURT"}},
{"geometry": {"type": "Point", "coordinates": [-76.2907414, 37.0528816]}, "type": "Feature", "properties": {"SiteTitle": "Benthall Estates", "DateLastIn": " ", "GlobalID": "900e9a6b-4e6b-494e-86b9-ebc50a72d5ca", "OBJECTID": 803, "OwnerType": "Private", "Owner_Name": "HARRIS RIVER INC ", "SWMFType": "Detention Basin", "LucityAutoID": "BMP_327_001", "StreetNumb": "223", "ScheduledI": "July_Nov", "Inspection": 0, "StreetName": "BENTHALL ROAD"}},
{"geometry": {"type": "Point", "coordinates": [-76.2966183, 37.074242]}, "type": "Feature", "properties": {"SiteTitle": "Beach Road Estates", "DateLastIn": " ", "GlobalID": "19b27a7a-7d91-4bfe-b6ec-b1ec03c6c207", "OBJECTID": 804, "OwnerType": "Private", "Owner_Name": "POWELL COREY T ", "SWMFType": "Detention Basin", "LucityAutoID": "BMP_227_001", "StreetNumb": "31", "ScheduledI": "July_Nov", "Inspection": 0, "StreetName": "SHARON BASS DRIVE"}},
{"geometry": {"type": "Point", "coordinates": [-76.343677, 37.0523122]}, "type": "Feature", "properties": {"SiteTitle": "Riverchase Townhomes", "DateLastIn": " ", "GlobalID": "99be1fe7-9483-4fa5-ba36-8e4f28e90dd7", "OBJECTID": 805, "OwnerType": "Private", "Owner_Name": "A N & H ASSOCIATES INC ", "SWMFType": "Detention Basin", "LucityAutoID": "BMP_320_001", "StreetNumb": "98", "ScheduledI": "June_Oct", "Inspection": 0, "StreetName": "RIVERCHASE DRIVE"}},
{"geometry": {"type": "Point", "coordinates": [-76.3041691, 37.0405868]}, "type": "Feature", "properties": {"SiteTitle": "First Bank", "DateLastIn": " ", "GlobalID": "f7936418-cb36-4295-8213-6f449b07a815", "OBJECTID": 806, "OwnerType": "Private", "Owner_Name": "LENHART FRAUENBERG PARTNERSHIP LLP ", "SWMFType": "Detention Basin", "LucityAutoID": "BMP_209_001", "StreetNumb": "2001", "ScheduledI": "July_Nov", "Inspection": 0, "StreetName": "E PEMBROKE AVE"}},
{"geometry": {"type": "Point", "coordinates": [-76.2941391, 37.0401086]}, "type": "Feature", "properties": {"SiteTitle": "Buckroe Bayfront", "DateLastIn": " ", "GlobalID": "01ed18ef-703f-4053-8cde-6bef5237a211", "OBJECTID": 807, "OwnerType": "Private", "Owner_Name": "BUCKROE BAYFRONT HOMEOWNERS ASSOC ", "SWMFType": "Detention Basin", "LucityAutoID": "BMP_326_001", "StreetNumb": "1820", "ScheduledI": "Apr_Aug", "Inspection": 365, "StreetName": "N MALLORY STREET"}},
{"geometry": {"type": "Point", "coordinates": [-76.3430069, 37.0643168]}, "type": "Feature", "properties": {"SiteTitle": "Greenway Farms", "DateLastIn": " ", "GlobalID": "0a9b6f9b-7351-4794-89fe-68453f147706", "OBJECTID": 808, "OwnerType": "Private", "Owner_Name": "PIERCE DARRIN E & SABRINA Y ", "SWMFType": "General Infiltration Practices", "LucityAutoID": "BMP_289_001", "StreetNumb": "11", "ScheduledI": "June_Oct", "Inspection": 0, "StreetName": "MICHELE DRIVE"}},
{"geometry": {"type": "Point", "coordinates": [-76.3491897, 37.0479316]}, "type": "Feature", "properties": {"SiteTitle": "Lantana Condominiums", "DateLastIn": " ", "GlobalID": "682771d0-a2be-45d7-9ab1-09d303d0db2e", "OBJECTID": 809, "OwnerType": "Private", "Owner_Name": "LANTANA TWO ", "SWMFType": "Detention Basin", "LucityAutoID": "BMP_077_001", "StreetNumb": " ", "ScheduledI": "June_Oct", "Inspection": 0, "StreetName": "LANTANA LANE"}},
{"geometry": {"type": "Point", "coordinates": [-76.4308899, 37.0445401]}, "type": "Feature", "properties": {"SiteTitle": "Commonwealth Assisted Living at Hampton/ Eden Court", "DateLastIn": " ", "GlobalID": "cbf61b83-945f-498b-bed3-73d21bda7dca", "OBJECTID": 810, "OwnerType": "Private", "Owner_Name": "MAYFAIR-HAMPTON LLC ", "SWMFType": "Grassed Swale", "LucityAutoID": "BMP_246_002", "StreetNumb": "1030", "ScheduledI": "Apr_Aug", "Inspection": 365, "StreetName": "TOPPING LANE"}},
{"geometry": {"type": "Point", "coordinates": [-76.319692, 37.0176206]}, "type": "Feature", "properties": {"SiteTitle": "American Theatre Expansion and Parking Lot", "DateLastIn": " ", "GlobalID": "e6dcd2f6-a73c-4d3c-a15b-1397d3222e6c", "OBJECTID": 811, "OwnerType": "Private", "Owner_Name": "CHARLES H TAYLOR ARTS CTR FOUNDATION", "SWMFType": "Manufactured BMP Systems", "LucityAutoID": "BMP_177_001", "StreetNumb": "125", "ScheduledI": "Apr_Aug", "Inspection": 365, "StreetName": "E MELLEN STREET"}},
{"geometry": {"type": "Point", "coordinates": [-76.3200321, 37.0176968]}, "type": "Feature", "properties": {"SiteTitle": "American Theatre Expansion and Parking Lot", "DateLastIn": " ", "GlobalID": "15b26fb2-6463-46e1-9fe8-6585af7f061e", "OBJECTID": 812, "OwnerType": "Private", "Owner_Name": "CHARLES H TAYLOR ARTS CTR FOUNDATION", "SWMFType": "Manufactured BMP Systems", "LucityAutoID": "BMP_177_002", "StreetNumb": "125", "ScheduledI": "Apr_Aug", "Inspection": 365, "StreetName": "E MELLEN STREET"}},
{"geometry": {"type": "Point", "coordinates": [-76.3937645, 37.0364752]}, "type": "Feature", "properties": {"SiteTitle": "Nascar Sports Grille", "DateLastIn": " ", "GlobalID": "c784bd57-44ae-4fa9-88c0-5e72a517ae35", "OBJECTID": 813, "OwnerType": "Private", "Owner_Name": "ECONOMIC DEVELOPMENT AUTHORITY ", "SWMFType": "Grassed Swale", "LucityAutoID": "BMP_310_003", "StreetNumb": "2000", "ScheduledI": "Apr_Aug", "Inspection": 0, "StreetName": "POWER PLANT PARKWAY"}},
{"geometry": {"type": "Point", "coordinates": [-76.4359236, 37.0474095]}, "type": "Feature", "properties": {"SiteTitle": "Liberty Baptist Church Addition", "DateLastIn": " ", "GlobalID": "8495c710-9e66-4088-870f-84c236231be5", "OBJECTID": 814, "OwnerType": "Private", "Owner_Name": "LIBERTY BAPTIST CHURCH ", "SWMFType": "Retention Basin", "LucityAutoID": "BMP_243_002", "StreetNumb": "1021", "ScheduledI": "July_Nov", "Inspection": 365, "StreetName": "BIG BETHEL ROAD"}},
{"geometry": {"type": "Point", "coordinates": [-76.3249066, 37.0455122]}, "type": "Feature", "properties": {"SiteTitle": "Smith Elementary Parking Lot Addition", "DateLastIn": " ", "GlobalID": "c6d63aeb-4c43-48aa-b88b-70f0e77c81f3", "OBJECTID": 815, "OwnerType": "School", "Owner_Name": "SCHOOL BOARD HAMPTON ", "SWMFType": "Detention Basin", "LucityAutoID": "BMP_114_001", "StreetNumb": "379", "ScheduledI": "Apr_Aug", "Inspection": 365, "StreetName": "WOODLAND ROAD"}},
{"geometry": {"type": "Point", "coordinates": [-76.3927537, 37.0924807]}, "type": "Feature", "properties": {"SiteTitle": "Bojangles'", "DateLastIn": " ", "GlobalID": "1e9a3cbd-d14e-4d93-927f-de619b3ac8c2", "OBJECTID": 816, "OwnerType": "Private", "Owner_Name": "CB&T AUG RE LLC ", "SWMFType": "Retention Basin", "LucityAutoID": "BMP_221_001", "StreetNumb": "3351", "ScheduledI": "May_Sept", "Inspection": 365, "StreetName": "COMMANDER SHEPARD BLVD."}},
{"geometry": {"type": "Point", "coordinates": [-76.4043517, 37.0049467]}, "type": "Feature", "properties": {"SiteTitle": "Peninsula Foodbank", "DateLastIn": " ", "GlobalID": "45282518-793e-431a-b839-4e0582868761", "OBJECTID": 817, "OwnerType": "Private", "Owner_Name": "FOODBANK OF THE VA PENINSULA INC ", "SWMFType": "Retention Basin", "LucityAutoID": "BMP_300_001", "StreetNumb": "2401", "ScheduledI": "May_Sept", "Inspection": 365, "StreetName": "ALUMINUM AVE"}},
{"geometry": {"type": "Point", "coordinates": [-76.3203128, 37.0267739]}, "type": "Feature", "properties": {"SiteTitle": "Robert R. Morton Early Childhood Center Parking Lot", "DateLastIn": " ", "GlobalID": "e9e80883-ae56-4fcc-8e25-2d5037466fb5", "OBJECTID": 818, "OwnerType": "School", "Owner_Name": "SCHOOL BOARD HAMPTON ", "SWMFType": "Grassed Swale", "LucityAutoID": "BMP_297_001", "StreetNumb": "339", "ScheduledI": "Apr_Aug", "Inspection": 0, "StreetName": "OLD BUCKROE ROAD"}},
{"geometry": {"type": "Point", "coordinates": [-76.4236712, 37.0434592]}, "type": "Feature", "properties": {"SiteTitle": "Northampton Church of Christ", "DateLastIn": " ", "GlobalID": "7f7ee417-e86e-4d68-a433-ab3e25b43b55", "OBJECTID": 819, "OwnerType": "Private", "Owner_Name": "NORTHAMPTON CHURCH OF CHRIST ", "SWMFType": "Extended Detention Basin", "LucityAutoID": "BMP_064_001", "StreetNumb": "1409", "ScheduledI": "Apr_Aug", "Inspection": 365, "StreetName": "TODDS LANE"}},
{"geometry": {"type": "Point", "coordinates": [-76.4060944, 37.0833526]}, "type": "Feature", "properties": {"SiteTitle": "King Commerce Center", "DateLastIn": " ", "GlobalID": "7401c72e-84e8-4957-ae34-fe1b39f00ce9", "OBJECTID": 820, "OwnerType": "Private", "Owner_Name": "ECONOMIC DEVELOPMENT AUTHORITY ", "SWMFType": "Retention Basin", "LucityAutoID": "BMP_234_001", "StreetNumb": "2010,20,30,40,50", "ScheduledI": "May_Sept", "Inspection": 0, "StreetName": "EXPLORATION WAY"}},
{"geometry": {"type": "Point", "coordinates": [-76.3992677, 37.050227]}, "type": "Feature", "properties": {"SiteTitle": "Peninsula Neurology", "DateLastIn": " ", "GlobalID": "c38f6f31-3040-48c5-a5e5-ad84986214af", "OBJECTID": 821, "OwnerType": "Private", "Owner_Name": "HAMPTON MEDICAL LLC ", "SWMFType": "Extended Detention Basin", "LucityAutoID": "BMP_149_001", "StreetNumb": "414", "ScheduledI": "June_Oct", "Inspection": 365, "StreetName": "MARCELLA ROAD"}},
{"geometry": {"type": "Point", "coordinates": [-76.343393, 37.0167973]}, "type": "Feature", "properties": {"SiteTitle": "Bluewater Marina Pavilion", "DateLastIn": " ", "GlobalID": "f91a1d41-3f10-488e-878d-fb3dad4f5333", "OBJECTID": 822, "OwnerType": "Private", "Owner_Name": "BLUEWATER YACHT SALES LC ", "SWMFType": "General Infiltration Practices", "LucityAutoID": "BMP_276_001", "StreetNumb": "15", "ScheduledI": "May_Sept", "Inspection": 0, "StreetName": "MARINA ROAD"}},
{"geometry": {"type": "Point", "coordinates": [-76.4070534, 37.0011603]}, "type": "Feature", "properties": {"SiteTitle": "Devon At Aluminum Ave", "DateLastIn": " ", "GlobalID": "7d6819a3-b8dc-43b3-b7d0-08a971bddf58", "OBJECTID": 823, "OwnerType": "Private", "Owner_Name": "BEH LC ", "SWMFType": "Retention Basin", "LucityAutoID": "BMP_206_001", "StreetNumb": "2101", "ScheduledI": "May_Sept", "Inspection": 365, "StreetName": "ALUMINUM AVE"}},
{"geometry": {"type": "Point", "coordinates": [-76.3984067, 37.0118098]}, "type": "Feature", "properties": {"SiteTitle": "Warwick Plumbing and Heating", "DateLastIn": " ", "GlobalID": "1605b483-15d3-44fc-8c45-e97eab42706e", "OBJECTID": 824, "OwnerType": "Private", "Owner_Name": "WARWICK PLUMBING & HEATING CORP ", "SWMFType": "Manufactured BMP Systems", "LucityAutoID": "BMP_173_002", "StreetNumb": "500", "ScheduledI": "Apr_Aug", "Inspection": 365, "StreetName": "INDUSTRY DRIVE"}},
{"geometry": {"type": "Point", "coordinates": [-76.3984126, 37.0117755]}, "type": "Feature", "properties": {"SiteTitle": "Warwick Plumbing and Heating", "DateLastIn": " ", "GlobalID": "e2b3cb82-fca3-41dc-bed1-e14585e32aa8", "OBJECTID": 825, "OwnerType": "Private", "Owner_Name": "WARWICK PLUMBING & HEATING CORP ", "SWMFType": "Manufactured BMP Systems", "LucityAutoID": "BMP_173_001", "StreetNumb": "500", "ScheduledI": "Apr_Aug", "Inspection": 365, "StreetName": "INDUSTRY DRIVE"}},
{"geometry": {"type": "Point", "coordinates": [-76.4275675, 37.0527264]}, "type": "Feature", "properties": {"SiteTitle": "Friends of Jesus Learning Center", "DateLastIn": " ", "GlobalID": "d5c9f044-6596-403e-9365-9c2815cf1541", "OBJECTID": 826, "OwnerType": "Private", "Owner_Name": "FIRST FRIENDS CHURCH ", "SWMFType": "Grassed Swale", "LucityAutoID": "BMP_210_001", "StreetNumb": "1062", "ScheduledI": "June_Oct", "Inspection": 0, "StreetName": "BIG BETHEL ROAD"}},
{"geometry": {"type": "Point", "coordinates": [-76.4272045, 37.052703]}, "type": "Feature", "properties": {"SiteTitle": "Friends of Jesus Learning Center", "DateLastIn": " ", "GlobalID": "d23d072b-2e95-4c96-9ab2-0c2fd204915f", "OBJECTID": 827, "OwnerType": "Private", "Owner_Name": "FIRST FRIENDS CHURCH ", "SWMFType": "Grassed Swale", "LucityAutoID": "BMP_210_002", "StreetNumb": "1062", "ScheduledI": "June_Oct", "Inspection": 0, "StreetName": "BIG BETHEL ROAD"}},
{"geometry": {"type": "Point", "coordinates": [-76.3461457, 37.0313559]}, "type": "Feature", "properties": {"SiteTitle": "Courthouse Parking Lot Improvement", "DateLastIn": " ", "GlobalID": "e5b85d7e-5e8d-4ceb-8e60-c708febe30ac", "OBJECTID": 828, "OwnerType": "Private", "Owner_Name": "HAMPTON CITY OF ", "SWMFType": "Manufactured BMP Systems", "LucityAutoID": "BMP_251_001", "StreetNumb": "2", "ScheduledI": "May_Sept", "Inspection": 365, "StreetName": "W PEMBROKE AVE"}},
{"geometry": {"type": "Point", "coordinates": [-76.3992799, 37.0937442]}, "type": "Feature", "properties": {"SiteTitle": "Falcon Creek Apartments", "DateLastIn": " ", "GlobalID": "13a0748f-96e4-42fe-900d-612e1d0822b4", "OBJECTID": 829, "OwnerType": "Private", "Owner_Name": "FCLA LP ", "SWMFType": "Retention Basin", "LucityAutoID": "BMP_188_001", "StreetNumb": "38", "ScheduledI": "May_Sept", "Inspection": 365, "StreetName": "SEMPLE FARM ROAD"}},
{"geometry": {"type": "Point", "coordinates": [-76.394608, 37.0305001]}, "type": "Feature", "properties": {"SiteTitle": "Victory Life Fellowship Center", "DateLastIn": " ", "GlobalID": "59b2032e-c32b-418f-a96e-124bd51a12ab", "OBJECTID": 830, "OwnerType": "Private", "Owner_Name": "VICTORY LIFE WORLD OUTREACH CTR ", "SWMFType": "Detention Basin", "LucityAutoID": "BMP_070_001", "StreetNumb": "1741", "ScheduledI": "Apr_Aug", "Inspection": 365, "StreetName": "W QUEEN STREET"}},
{"geometry": {"type": "Point", "coordinates": [-76.4007728, 37.0556826]}, "type": "Feature", "properties": {"SiteTitle": "Country Inn Suites", "DateLastIn": " ", "GlobalID": "df4e86e1-ab81-469a-9a8f-b2ca0db98964", "OBJECTID": 831, "OwnerType": "Private", "Owner_Name": "DNC HOTELS LLC ", "SWMFType": "Bioretention Basins", "LucityAutoID": "BMP_084_002", "StreetNumb": "1551", "ScheduledI": "June_Oct", "Inspection": 365, "StreetName": "HARDY CASH DRIVE"}},
{"geometry": {"type": "Point", "coordinates": [-76.3827458, 37.0382425]}, "type": "Feature", "properties": {"SiteTitle": "Target Store", "DateLastIn": " ", "GlobalID": "7e91ad27-a8e0-456c-8309-37f5905ca936", "OBJECTID": 832, "OwnerType": "Private", "Owner_Name": "GOODWILL INDUSTRIES OF CENTRAL ", "SWMFType": "Detention Basin", "LucityAutoID": "BMP_051_001", "StreetNumb": "1911", "ScheduledI": "June_Oct", "Inspection": 365, "StreetName": "SAVILLE ROW"}},
{"geometry": {"type": "Point", "coordinates": [-76.4465669, 37.0409469]}, "type": "Feature", "properties": {"SiteTitle": "Bellwood Landing", "DateLastIn": " ", "GlobalID": "5ffc4ce0-b0d8-4930-bda6-c71a32f341ba", "OBJECTID": 833, "OwnerType": "Private", "Owner_Name": null, "SWMFType": "Bioretention Basins", "LucityAutoID": "BMP_338_001", "StreetNumb": "761", "ScheduledI": "July_Nov", "Inspection": 365, "StreetName": "BELLWOOD ROAD"}},
{"geometry": {"type": "Point", "coordinates": [-76.3353695, 37.0289094]}, "type": "Feature", "properties": {"SiteTitle": "Pooles Grant Condos", "DateLastIn": " ", "GlobalID": "2ba75cf1-ec2d-48d2-89fa-96c44f26dc6d", "OBJECTID": 834, "OwnerType": "Private", "Owner_Name": "ATLANTIC BAY PROPERTIES LLC ", "SWMFType": "General Infiltration Practices", "LucityAutoID": "BMP_072_001", "StreetNumb": "19", "ScheduledI": "Apr_Aug", "Inspection": 365, "StreetName": "BROUGH LANE"}},
{"geometry": {"type": "Point", "coordinates": [-76.4005418, 37.0501737]}, "type": "Feature", "properties": {"SiteTitle": "Bridgewater Apartments", "DateLastIn": " ", "GlobalID": "efe1e23b-2a34-4b7e-88d8-71bc53a3316b", "OBJECTID": 835, "OwnerType": "Private", "Owner_Name": "GINKGO BRIDGEWATER LLC ", "SWMFType": "Retention Basin", "LucityAutoID": "BMP_175_001", "StreetNumb": "507", "ScheduledI": "June_Oct", "Inspection": 365, "StreetName": "MARCELLA ROAD"}},
{"geometry": {"type": "Point", "coordinates": [-76.4275413, 37.057282]}, "type": "Feature", "properties": {"SiteTitle": "7-11 Store", "DateLastIn": " ", "GlobalID": "0a0071b9-5d20-4592-b9cd-40faa4b8895e", "OBJECTID": 836, "OwnerType": "Private", "Owner_Name": "Z MARK LLC ", "SWMFType": "General Infiltration Practices", "LucityAutoID": "BMP_066_001", "StreetNumb": "2", "ScheduledI": "June_Oct", "Inspection": 365, "StreetName": "VILLAGE DRIVE"}},
{"geometry": {"type": "Point", "coordinates": [-76.4085154, 37.0059379]}, "type": "Feature", "properties": {"SiteTitle": "Copeland Business Center", "DateLastIn": " ", "GlobalID": "c54a987e-7127-4eb5-8220-962dfd828628", "OBJECTID": 837, "OwnerType": "Private", "Owner_Name": "CHICKS PROPERTIES LLC ", "SWMFType": "Grassed Swale", "LucityAutoID": "BMP_021_001", "StreetNumb": "2100", "ScheduledI": "May_Sept", "Inspection": 365, "StreetName": "ALUMINUM AVE"}},
{"geometry": {"type": "Point", "coordinates": [-76.3238335, 37.0168502]}, "type": "Feature", "properties": {"SiteTitle": "Mansfield Oil/Gas n Go/Happy Shopper", "DateLastIn": " ", "GlobalID": "1fa7d931-e542-4360-8200-8c1590f3ba00", "OBJECTID": 838, "OwnerType": "Private", "Owner_Name": "LAP RETAIL HOLDINGS LLC ", "SWMFType": "Detention Basin", "LucityAutoID": "BMP_054_001", "StreetNumb": "209", "ScheduledI": "Apr_Aug", "Inspection": 365, "StreetName": "S MALLORY STREET"}},
{"geometry": {"type": "Point", "coordinates": [-76.4045328, 37.009466]}, "type": "Feature", "properties": {"SiteTitle": "Langley Federal Credit Union", "DateLastIn": " ", "GlobalID": "32136b68-34ac-48db-b8a7-c7b60dfd3687", "OBJECTID": 839, "OwnerType": "Private", "Owner_Name": "ACO DEVELOPMENT LLC ", "SWMFType": "Retention Basin", "LucityAutoID": "BMP_154_001", "StreetNumb": "409", "ScheduledI": "May_Sept", "Inspection": 365, "StreetName": "ABERDEEN ROAD"}},
{"geometry": {"type": "Point", "coordinates": [-76.4025117, 37.0420433]}, "type": "Feature", "properties": {"SiteTitle": "Pomoco Parking Lot", "DateLastIn": " ", "GlobalID": "cdcfcde4-79b8-468d-b214-f6bc7aecc462", "OBJECTID": 840, "OwnerType": "Private", "Owner_Name": "POMOCO LAKESHORE PROPERTY LLC ", "SWMFType": "Extended Detention Basin", "LucityAutoID": "BMP_155_001", "StreetNumb": "2606", "ScheduledI": "Apr_Aug", "Inspection": 365, "StreetName": "CUNNINGHAM DRIVE"}},
{"geometry": {"type": "Point", "coordinates": [-76.43293, 37.0261244]}, "type": "Feature", "properties": {"SiteTitle": "Lees Cleaners", "DateLastIn": " ", "GlobalID": "2a720cf8-884b-4d84-9aab-ab029734d3e2", "OBJECTID": 841, "OwnerType": "Private", "Owner_Name": "KIM HONG & CHONG HI ", "SWMFType": "Detention Basin", "LucityAutoID": "BMP_245_001", "StreetNumb": "4810", "ScheduledI": "Apr_Aug", "Inspection": 365, "StreetName": "W MERCURY BLVD"}},
{"geometry": {"type": "Point", "coordinates": [-76.3339547, 37.0225802]}, "type": "Feature", "properties": {"SiteTitle": "Hampton University Tennis Courts", "DateLastIn": " ", "GlobalID": "9ae0f49b-457a-4bee-bdc2-b97108129391", "OBJECTID": 842, "OwnerType": "Private", "Owner_Name": "HAMPTON INSTITUTE ", "SWMFType": "General Infiltration Practices", "LucityAutoID": "BMP_186_004", "StreetNumb": "130", "ScheduledI": "Apr_Aug", "Inspection": 365, "StreetName": "TYLER STREET"}},
{"geometry": {"type": "Point", "coordinates": [-76.3936935, 37.1009014]}, "type": "Feature", "properties": {"SiteTitle": "Hewitt Office/Warehouse 2", "DateLastIn": " ", "GlobalID": "71d33bcc-1fa3-46fe-860e-ae87b91d4fa9", "OBJECTID": 843, "OwnerType": "Private", "Owner_Name": "14 NETTLES LLC ", "SWMFType": "Bioretention Basins", "LucityAutoID": "BMP_085_001", "StreetNumb": "57", "ScheduledI": " ", "Inspection": 365, "StreetName": "WYTHE CREEK ROAD"}},
{"geometry": {"type": "Point", "coordinates": [-76.4110672, 37.0115666]}, "type": "Feature", "properties": {"SiteTitle": "A. H. Harris and Sons, Inc.", "DateLastIn": " ", "GlobalID": "10125168-8f3f-4628-a9c0-bd2ec69f5b91", "OBJECTID": 844, "OwnerType": "Private", "Owner_Name": "FRD GROUP LLC ", "SWMFType": "Detention Basin", "LucityAutoID": "BMP_307_001", "StreetNumb": "307", "ScheduledI": "May_Sept", "Inspection": 365, "StreetName": "E ST"}},
{"geometry": {"type": "Point", "coordinates": [-76.3959466, 37.0938493]}, "type": "Feature", "properties": {"SiteTitle": "Race Coast Mart", "DateLastIn": " ", "GlobalID": "715595b4-85dc-4435-8598-01b4b65cf2ba", "OBJECTID": 845, "OwnerType": "Private", "Owner_Name": "AHADU CORPORATION ", "SWMFType": "Detention Basin", "LucityAutoID": "BMP_152_001", "StreetNumb": "3370", "ScheduledI": "May_Sept", "Inspection": 365, "StreetName": "COMMANDER SHEPARD BLVD"}},
{"geometry": {"type": "Point", "coordinates": [-76.3277156, 37.0692972]}, "type": "Feature", "properties": {"SiteTitle": "Gates of Heaven Church", "DateLastIn": " ", "GlobalID": "29aecb28-b07f-43a7-86b5-6ff5d3b6903b", "OBJECTID": 846, "OwnerType": "Private", "Owner_Name": "CHURCH OF LIVING GOD INTERNATL INC ", "SWMFType": "Bioretention Basins", "LucityAutoID": "BMP_125_002", "StreetNumb": "1013", "ScheduledI": "June_Oct", "Inspection": 365, "StreetName": "E LITTLE BACK RIVER ROAD"}},
{"geometry": {"type": "Point", "coordinates": [-76.4078131, 37.0060317]}, "type": "Feature", "properties": {"SiteTitle": "A. T. Systems", "DateLastIn": " ", "GlobalID": "b13933b8-8114-48f9-962e-275409ad8e23", "OBJECTID": 847, "OwnerType": "Private", "Owner_Name": "SUPERSONIC LLC ", "SWMFType": "Grassed Swale", "LucityAutoID": "BMP_020_001", "StreetNumb": "2102", "ScheduledI": "May_Sept", "Inspection": 365, "StreetName": "ALUMINUM AVE"}},
{"geometry": {"type": "Point", "coordinates": [-76.4056824, 37.0154598]}, "type": "Feature", "properties": {"SiteTitle": "Sam Rust Seafood Inc.", "DateLastIn": " ", "GlobalID": "b79a927b-5845-43d0-b930-26b2a13e1e28", "OBJECTID": 848, "OwnerType": "Private", "Owner_Name": "RUST SAM SEAFOOD INCORPORATED ", "SWMFType": "General Infiltration Practices", "LucityAutoID": "BMP_091_001", "StreetNumb": "620", "ScheduledI": "May_Sept", "Inspection": 365, "StreetName": "REGIONAL DRIVE"}},
{"geometry": {"type": "Point", "coordinates": [-76.3807446, 37.0110683]}, "type": "Feature", "properties": {"SiteTitle": "United Church of God", "DateLastIn": " ", "GlobalID": "93accad7-a1e4-447b-bdd7-257a2afc1b4e", "OBJECTID": 849, "OwnerType": "Private", "Owner_Name": "UNITED CHURCH OF GOD ", "SWMFType": "Grassed Swale", "LucityAutoID": "BMP_010_001", "StreetNumb": "2699", "ScheduledI": "May_Sept", "Inspection": 365, "StreetName": "JAMESTOWN AVE"}},
{"geometry": {"type": "Point", "coordinates": [-76.3810741, 37.0256556]}, "type": "Feature", "properties": {"SiteTitle": "Tidewater Senior Apartments", "DateLastIn": " ", "GlobalID": "6ba1779a-bcfd-4774-90c1-f291f2419c63", "OBJECTID": 850, "OwnerType": "Private", "Owner_Name": "TIDEWATER SENIORS APARTMENTS LLC ", "SWMFType": "Detention Basin", "LucityAutoID": "BMP_135_001", "StreetNumb": "1446", "ScheduledI": "Apr_Aug", "Inspection": 365, "StreetName": "W QUEEN STREET"}},
{"geometry": {"type": "Point", "coordinates": [-76.3938531, 37.0543777]}, "type": "Feature", "properties": {"SiteTitle": "Riverside Behavioral Health Center Hospital", "DateLastIn": " ", "GlobalID": "fe532cc4-b68e-435e-a2bb-42d94a67250c", "OBJECTID": 851, "OwnerType": "Private", "Owner_Name": "RIVERSIDE BEHAVIORAL CENTER INC ", "SWMFType": "Manufactured BMP Systems", "LucityAutoID": "BMP_139_001", "StreetNumb": "2244", "ScheduledI": "June_Oct", "Inspection": 365, "StreetName": "EXECUTIVE DRIVE"}},
{"geometry": {"type": "Point", "coordinates": [-76.3681838, 37.0177908]}, "type": "Feature", "properties": {"SiteTitle": "Flying Twenties Social Club", "DateLastIn": " ", "GlobalID": "09b75789-ffff-4f0a-8e26-ed5c5a100cef", "OBJECTID": 852, "OwnerType": "Private", "Owner_Name": "FLYING TWENTIES SOCIAL CLUB IN ", "SWMFType": "Grassed Swale", "LucityAutoID": "BMP_239_001", "StreetNumb": "620", "ScheduledI": "May_Sept", "Inspection": 365, "StreetName": "ANDERSON LANE"}},
{"geometry": {"type": "Point", "coordinates": [-76.3865757, 37.0134332]}, "type": "Feature", "properties": {"SiteTitle": "M. Price Distr", "DateLastIn": " ", "GlobalID": "fb1f718b-5a0d-4f12-b282-606e0099a2fd", "OBJECTID": 853, "OwnerType": "Private", "Owner_Name": "M PRICE DISTRIBUTING COMPANY ", "SWMFType": "Detention Basin", "LucityAutoID": "BMP_259_002", "StreetNumb": "1", "ScheduledI": "Apr_Aug", "Inspection": 365, "StreetName": "BUDWEISER STREET"}},
{"geometry": {"type": "Point", "coordinates": [-76.3957911, 37.1010421]}, "type": "Feature", "properties": {"SiteTitle": "Creasy & Whiteed/Lt 7 Wythe Creek Park", "DateLastIn": " ", "GlobalID": "64c538c1-4db8-462b-a660-554090d97b17", "OBJECTID": 854, "OwnerType": "Private", "Owner_Name": "ASPIOTIS MICHAEL S ", "SWMFType": "Grassed Swale", "LucityAutoID": "BMP_008_001", "StreetNumb": "3", "ScheduledI": "May_Sept", "Inspection": 365, "StreetName": "SHUTTLE COURT"}},
{"geometry": {"type": "Point", "coordinates": [-76.3553227, 37.0298955]}, "type": "Feature", "properties": {"SiteTitle": "Pembroke Auto Service", "DateLastIn": " ", "GlobalID": "9fee41ca-ff5e-4a0d-a162-3ee5a8413035", "OBJECTID": 855, "OwnerType": "Private", "Owner_Name": "NGUYEN DOAN T ", "SWMFType": "Detention Basin", "LucityAutoID": "BMP_156_001", "StreetNumb": "410", "ScheduledI": "May_Sept", "Inspection": 365, "StreetName": "W PEMBROKE AVE"}},
{"geometry": {"type": "Point", "coordinates": [-76.3806223, 37.001937]}, "type": "Feature", "properties": {"SiteTitle": "Kecoughtan Court Apartments", "DateLastIn": " ", "GlobalID": "ea1e4239-0956-47b3-962d-5f5e09983eee", "OBJECTID": 856, "OwnerType": "Private", "Owner_Name": "COLONIAL LANDING LLC ", "SWMFType": "General Infiltration Practices", "LucityAutoID": "BMP_104_001", "StreetNumb": "2121", "ScheduledI": "May_Sept", "Inspection": 365, "StreetName": "KECOUGHTAN ROAD"}},
{"geometry": {"type": "Point", "coordinates": [-76.3955822, 37.0858771]}, "type": "Feature", "properties": {"SiteTitle": "Lee Property", "DateLastIn": " ", "GlobalID": "fb2cfe5a-0b51-48bb-b8f1-05aefa2345a8", "OBJECTID": 857, "OwnerType": "Private", "Owner_Name": "MAGRUDER PROPERTIES LLC ", "SWMFType": "Extended Detention Basin", "LucityAutoID": "BMP_011_001", "StreetNumb": "299", "ScheduledI": "May_Sept", "Inspection": 365, "StreetName": "FLOYD THOMPSON BLVD"}},
{"geometry": {"type": "Point", "coordinates": [-76.388266, 36.9990274]}, "type": "Feature", "properties": {"SiteTitle": "Goodwill Baptist Church", "DateLastIn": " ", "GlobalID": "abcb0d77-b706-409e-8cf0-199ff923887b", "OBJECTID": 858, "OwnerType": "Private", "Owner_Name": "GOODWILL BAPTIST CHURCH ", "SWMFType": "Grassed Swale", "LucityAutoID": "BMP_260_001", "StreetNumb": "301", "ScheduledI": "May_Sept", "Inspection": 365, "StreetName": "CATALPA AVE"}},
{"geometry": {"type": "Point", "coordinates": [-76.3280266, 37.0218725]}, "type": "Feature", "properties": {"SiteTitle": "Zion Baptist Church", "DateLastIn": " ", "GlobalID": "df48219a-5aa3-49b1-b8b8-663dbf1e6774", "OBJECTID": 859, "OwnerType": "Private", "Owner_Name": "ZION BAPTIST CHURCH ", "SWMFType": "General Infiltration Practices", "LucityAutoID": "BMP_281_001", "StreetNumb": "125", "ScheduledI": "Apr_Aug", "Inspection": 365, "StreetName": "W COUNTY STREET"}},
{"geometry": {"type": "Point", "coordinates": [-76.3513064, 37.0506437]}, "type": "Feature", "properties": {"SiteTitle": "Sinclair Commons", "DateLastIn": " ", "GlobalID": "c01ff9be-cbfe-4221-95dd-d2ed2b68b4d2", "OBJECTID": 860, "OwnerType": "Private", "Owner_Name": "SINCLAIR COMMONS LP ", "SWMFType": "Retention Basin", "LucityAutoID": "BMP_293_001", "StreetNumb": "201", "ScheduledI": "June_Oct", "Inspection": 365, "StreetName": "W GILBERT STREET"}},
{"geometry": {"type": "Point", "coordinates": [-76.3225241, 37.0186606]}, "type": "Feature", "properties": {"SiteTitle": "Old Point National Bank", "DateLastIn": " ", "GlobalID": "37f73a3a-24f9-4e6e-abbe-f13a046f1a78", "OBJECTID": 861, "OwnerType": "Private", "Owner_Name": "OLD POINT NATIONAL BANK ", "SWMFType": "Grassed Swale", "LucityAutoID": "BMP_030_001", "StreetNumb": "1", "ScheduledI": "Apr_Aug", "Inspection": 365, "StreetName": "W MELLEN STREET"}},
{"geometry": {"type": "Point", "coordinates": [-76.4068577, 37.0327822]}, "type": "Feature", "properties": {"SiteTitle": "Hampton/Newport News Comm. Svcs. Bd.", "DateLastIn": " ", "GlobalID": "b8bd6c08-c8f4-4e2d-8022-6a4c66a2c3f9", "OBJECTID": 862, "OwnerType": "Private", "Owner_Name": "HAMPTON-NEWPORT NEWS COMMUNITY ", "SWMFType": "Grassed Swale", "LucityAutoID": "BMP_204_001", "StreetNumb": "1431", "ScheduledI": "Apr_Aug", "Inspection": 365, "StreetName": "ABERDEEN ROAD"}},
{"geometry": {"type": "Point", "coordinates": [-76.4036033, 37.0115153]}, "type": "Feature", "properties": {"SiteTitle": "Hampton-Seagull Co. LLC", "DateLastIn": " ", "GlobalID": "3e2b851e-8306-4a23-b3e0-dc1b7af8920d", "OBJECTID": 863, "OwnerType": "Private", "Owner_Name": "2328 SANDFIDDLER ROAD LLC ", "SWMFType": "Detention Basin", "LucityAutoID": "BMP_185_001", "StreetNumb": "597", "ScheduledI": "May_Sept", "Inspection": 365, "StreetName": "ABERDEEN ROAD"}},
{"geometry": {"type": "Point", "coordinates": [-76.3954233, 37.0880152]}, "type": "Feature", "properties": {"SiteTitle": "Derby Run Apartments", "DateLastIn": " ", "GlobalID": "19f0edf9-bbae-4103-99ca-02948d31ff63", "OBJECTID": 864, "OwnerType": "Private", "Owner_Name": "DERBY RUN ASSOCIATES L P ", "SWMFType": "Detention Basin", "LucityAutoID": "BMP_122_001", "StreetNumb": "300", "ScheduledI": "May_Sept", "Inspection": 365, "StreetName": "FLOYD THOMPSON BLVD"}},
{"geometry": {"type": "Point", "coordinates": [-76.4050025, 37.0205708]}, "type": "Feature", "properties": {"SiteTitle": "New Mount Olive Day Care Ctr.", "DateLastIn": " ", "GlobalID": "d7f6ebeb-2147-42c7-a495-b34a377ee531", "OBJECTID": 865, "OwnerType": "Private", "Owner_Name": "CHURCH NEW MOUNT OLIVE BAPTIST ", "SWMFType": "Detention Basin", "LucityAutoID": "BMP_324_001", "StreetNumb": "919", "ScheduledI": "Apr_Aug", "Inspection": 365, "StreetName": "ABERDEEN ROAD"}},
{"geometry": {"type": "Point", "coordinates": [-76.4022076, 37.0557335]}, "type": "Feature", "properties": {"SiteTitle": "Navy Federal Credit Union", "DateLastIn": " ", "GlobalID": "af4080ed-d2f5-49d3-89e1-be2d8998f29f", "OBJECTID": 866, "OwnerType": "Private", "Owner_Name": "NAVY FEDERAL CREDIT UNION ", "SWMFType": "Retention Basin", "LucityAutoID": "BMP_217_001", "StreetNumb": "50", "ScheduledI": "June_Oct", "Inspection": 365, "StreetName": "HAMPTON CLUB DRIVE"}},
{"geometry": {"type": "Point", "coordinates": [-76.3471902, 37.0310405]}, "type": "Feature", "properties": {"SiteTitle": "City Satellite Parking/PENTRAN", "DateLastIn": " ", "GlobalID": "8cf8920b-7c84-4cca-a8da-b2d963d75a71", "OBJECTID": 867, "OwnerType": "Private", "Owner_Name": "HAMPTON CITY OF ", "SWMFType": "Detention Basin", "LucityAutoID": "BMP_022_001", "StreetNumb": "2", "ScheduledI": "May_Sept", "Inspection": 365, "StreetName": "W PEMBROKE AVE"}},
{"geometry": {"type": "Point", "coordinates": [-76.3501827, 37.024467]}, "type": "Feature", "properties": {"SiteTitle": "Rite Aid Pharmacy", "DateLastIn": " ", "GlobalID": "78e46bab-60e6-40de-98a4-4b365db302ed", "OBJECTID": 868, "OwnerType": "Private", "Owner_Name": "KAMIN DANIEL G CHESAPEAKE LLC ", "SWMFType": "Grassed Swale", "LucityAutoID": "BMP_271_001", "StreetNumb": "30", "ScheduledI": "May_Sept", "Inspection": 365, "StreetName": "S ARMISTEAD AVE"}},
{"geometry": {"type": "Point", "coordinates": [-76.3634211, 37.0254154]}, "type": "Feature", "properties": {"SiteTitle": "McDonald's Restaurant", "DateLastIn": " ", "GlobalID": "68f60289-77cd-4055-8bdd-32b4501c258d", "OBJECTID": 869, "OwnerType": "Private", "Owner_Name": "MCDONALDS USA LLC ", "SWMFType": "Manufactured BMP Systems", "LucityAutoID": "BMP_242_001", "StreetNumb": "1101", "ScheduledI": "May_Sept", "Inspection": 365, "StreetName": "W QUEEN STREET"}},
{"geometry": {"type": "Point", "coordinates": [-76.3955572, 37.0861875]}, "type": "Feature", "properties": {"SiteTitle": "Wendy's Restaurant", "DateLastIn": " ", "GlobalID": "acbd2a24-c38e-4bf5-bc33-ede1788024b2", "OBJECTID": 870, "OwnerType": "Private", "Owner_Name": "WENDYS PROPERTIES LLC ", "SWMFType": "Detention Basin", "LucityAutoID": "BMP_201_001", "StreetNumb": "301", "ScheduledI": "May_Sept", "Inspection": 365, "StreetName": "FLOYD THOMPSON BLVD"}},
{"geometry": {"type": "Point", "coordinates": [-76.3733968, 37.0574986]}, "type": "Feature", "properties": {"SiteTitle": "Cornerstone Assembly of God Church", "DateLastIn": " ", "GlobalID": "f028d128-85db-449d-8933-e7e3e5a01aae", "OBJECTID": 871, "OwnerType": "Private", "Owner_Name": "CORNERSTONE WORSHIP CNTR INTL INC ", "SWMFType": "Retention Basin", "LucityAutoID": "BMP_269_001", "StreetNumb": "55", "ScheduledI": "June_Oct", "Inspection": 365, "StreetName": "TIDE MILL LANE"}},
{"geometry": {"type": "Point", "coordinates": [-76.4039475, 37.038953]}, "type": "Feature", "properties": {"SiteTitle": "Pep Boys", "DateLastIn": " ", "GlobalID": "e43952de-4b5b-41bc-a0ab-601466334768", "OBJECTID": 872, "OwnerType": "Private", "Owner_Name": "SPIRIT MASTER FUNDING VII LLC ", "SWMFType": "Retention Basin", "LucityAutoID": "BMP_126_001", "StreetNumb": "2224", "ScheduledI": "Apr_Aug", "Inspection": 365, "StreetName": "W MERCURY BLVD"}},
{"geometry": {"type": "Point", "coordinates": [-76.3935041, 37.0998178]}, "type": "Feature", "properties": {"SiteTitle": "West Gate Pub", "DateLastIn": " ", "GlobalID": "06d22dad-f4e2-436f-b73c-07f463bfc6c1", "OBJECTID": 873, "OwnerType": "Private", "Owner_Name": "SHAMROCK DISTRIBUTING GROUP INC ", "SWMFType": "Detention Basin", "LucityAutoID": "BMP_023_001", "StreetNumb": "49", "ScheduledI": " ", "Inspection": 365, "StreetName": "WYTHE CREEK ROAD"}},
{"geometry": {"type": "Point", "coordinates": [-76.3957122, 37.01942]}, "type": "Feature", "properties": {"SiteTitle": "Briarfield Place Group Home", "DateLastIn": " ", "GlobalID": "4199c8a8-aaf5-4a6b-8ffc-be47b22e8c55", "OBJECTID": 874, "OwnerType": "Private", "Owner_Name": "SCHOOL BOARD HAMPTON ", "SWMFType": "Grassed Swale", "LucityAutoID": "BMP_065_001", "StreetNumb": "1644", "ScheduledI": "Apr_Aug", "Inspection": 365, "StreetName": "BRIARFIELD ROAD"}},
{"geometry": {"type": "Point", "coordinates": [-76.397072, 37.1013465]}, "type": "Feature", "properties": {"SiteTitle": "Lowe Site Plan", "DateLastIn": " ", "GlobalID": "a205d824-a52f-4707-93fa-8171190ba08a", "OBJECTID": 875, "OwnerType": "Private", "Owner_Name": "LOWE ROBERT M & VONDINE H ", "SWMFType": "General Infiltration Practices", "LucityAutoID": "BMP_082_001", "StreetNumb": "8", "ScheduledI": "May_Sept", "Inspection": 365, "StreetName": "SHUTTLE COURT"}},
{"geometry": {"type": "Point", "coordinates": [-76.3538899, 37.0129406]}, "type": "Feature", "properties": {"SiteTitle": "Kecoughtan Shopping Center", "DateLastIn": " ", "GlobalID": "93930a64-62f9-4846-ac25-b1a548b59a39", "OBJECTID": 876, "OwnerType": "Private", "Owner_Name": "KECOUGHTAN SHOPPING CENTER L P ", "SWMFType": "Constructed Stormwater Wetland", "LucityAutoID": "BMP_203_001", "StreetNumb": "3857", "ScheduledI": "May_Sept", "Inspection": 365, "StreetName": "KECOUGHTAN ROAD"}},
{"geometry": {"type": "Point", "coordinates": [-76.2995326, 37.0597431]}, "type": "Feature", "properties": {"SiteTitle": "First United Methodist Church", "DateLastIn": " ", "GlobalID": "cce97a0c-3e2a-4e84-b9e2-7d6b1e9cfdf6", "OBJECTID": 877, "OwnerType": "Private", "Owner_Name": "FIRST UNITED METH CHURCH OF FOXHILL ", "SWMFType": "Detention Basin", "LucityAutoID": "BMP_262_001", "StreetNumb": "1", "ScheduledI": "July_Nov", "Inspection": 365, "StreetName": "SALT POND ROAD"}},
{"geometry": {"type": "Point", "coordinates": [-76.3203096, 37.0212548]}, "type": "Feature", "properties": {"SiteTitle": "Phoebus Shopping Center", "DateLastIn": " ", "GlobalID": "75b4e04c-82ab-465a-83bc-0f3b91a5f635", "OBJECTID": 878, "OwnerType": "Private", "Owner_Name": "CLUB FOREST BUCKROE LLC ", "SWMFType": "Detention Basin", "LucityAutoID": "BMP_233_001", "StreetNumb": "51", "ScheduledI": "Apr_Aug", "Inspection": 365, "StreetName": "N MALLORY STREET"}},
{"geometry": {"type": "Point", "coordinates": [-76.3547086, 37.0440434]}, "type": "Feature", "properties": {"SiteTitle": "Jiffy Lube", "DateLastIn": " ", "GlobalID": "b9fe7767-8099-4dc2-949e-9e6bc74e09e6", "OBJECTID": 879, "OwnerType": "Private", "Owner_Name": "KALBOUROS PETE & PATRICIA ", "SWMFType": "Manufactured BMP Systems", "LucityAutoID": "BMP_165_001", "StreetNumb": "82", "ScheduledI": "June_Oct", "Inspection": 365, "StreetName": "W MERCURY BLVD"}},
{"geometry": {"type": "Point", "coordinates": [-76.3882376, 37.0511784]}, "type": "Feature", "properties": {"SiteTitle": "Hampton/Newport News Armory", "DateLastIn": " ", "GlobalID": "5d700533-a1f1-4495-ac86-340e4f69be5b", "OBJECTID": 880, "OwnerType": "Private", "Owner_Name": "UNITED STATES OF AMERICA ", "SWMFType": "Retention Basin", "LucityAutoID": "BMP_273_001", "StreetNumb": "208", "ScheduledI": "June_Oct", "Inspection": 365, "StreetName": "MARCELLA ROAD"}},
{"geometry": {"type": "Point", "coordinates": [-76.4079672, 37.0863347]}, "type": "Feature", "properties": {"SiteTitle": "Ebenezer Baptist Church", "DateLastIn": " ", "GlobalID": "29651b22-1f56-42fb-9035-3157c60c9321", "OBJECTID": 881, "OwnerType": "Private", "Owner_Name": "EBENEZER BAPTIST CHURCH ", "SWMFType": "Detention Basin", "LucityAutoID": "BMP_295_001", "StreetNumb": "171", "ScheduledI": "May_Sept", "Inspection": 365, "StreetName": "SEMPLE FARM ROAD"}},
{"geometry": {"type": "Point", "coordinates": [-76.3473287, 37.0369862]}, "type": "Feature", "properties": {"SiteTitle": "King Street Commons", "DateLastIn": " ", "GlobalID": "219fb3fb-ab7d-41ab-8da1-436c39944171", "OBJECTID": 882, "OwnerType": "Private", "Owner_Name": null, "SWMFType": "Manufactured BMP Systems", "LucityAutoID": null, "StreetNumb": "850", "ScheduledI": "Apr_Aug", "Inspection": 365, "StreetName": "N KING STREET"}},
{"geometry": {"type": "Point", "coordinates": [-76.4096963, 37.0067251]}, "type": "Feature", "properties": {"SiteTitle": "Copeland Park L.L.C.", "DateLastIn": " ", "GlobalID": "3f830692-28cf-41a7-bd5a-840468f6dcfb", "OBJECTID": 883, "OwnerType": "Private", "Owner_Name": "COPELAND BUSINESS CENTRE LLC ", "SWMFType": "Detention Basin", "LucityAutoID": "BMP_187_001", "StreetNumb": "2106", "ScheduledI": "May_Sept", "Inspection": 365, "StreetName": "ALUMINUM AVE"}},
{"geometry": {"type": "Point", "coordinates": [-76.4148248, 37.0636483]}, "type": "Feature", "properties": {"SiteTitle": "Peninsula Workforce Development", "DateLastIn": " ", "GlobalID": "403218e8-5783-4ad2-8b83-170dc3943dc2", "OBJECTID": 884, "OwnerType": "Private", "Owner_Name": "ECONOMIC DEVELOPMENT AUTHORITY ", "SWMFType": "Retention Basin", "LucityAutoID": "BMP_024_001", "StreetNumb": "600", "ScheduledI": "May_Sept", "Inspection": 365, "StreetName": "BUTLER FARM ROAD"}},
{"geometry": {"type": "Point", "coordinates": [-76.385375, 37.0152504]}, "type": "Feature", "properties": {"SiteTitle": "Salters Creek commercial Storage", "DateLastIn": " ", "GlobalID": "a6f6561b-42cd-429b-9266-8a126129d125", "OBJECTID": 885, "OwnerType": "Private", "Owner_Name": "PRICE INVESTMENTS LLC ", "SWMFType": "Detention Basin", "LucityAutoID": "BMP_120_001", "StreetNumb": "213", "ScheduledI": "June_Oct", "Inspection": 365, "StreetName": "SALTERS CREEK ROAD"}},
{"geometry": {"type": "Point", "coordinates": [-76.37098, 37.0197081]}, "type": "Feature", "properties": {"SiteTitle": "Atlantech Distribution, Inc.", "DateLastIn": " ", "GlobalID": "55506dc0-3397-490d-9b2f-0d9a941f7e74", "OBJECTID": 886, "OwnerType": "Private", "Owner_Name": "HAMPTON COMMERCE CENTER LP ", "SWMFType": "Detention Basin", "LucityAutoID": "BMP_014_001", "StreetNumb": "10", "ScheduledI": "May_Sept", "Inspection": 365, "StreetName": "LOCKWOOD DRIVE"}},
{"geometry": {"type": "Point", "coordinates": [-76.3996585, 37.0407381]}, "type": "Feature", "properties": {"SiteTitle": "Savannah Suites", "DateLastIn": " ", "GlobalID": "095a4492-f327-4635-af52-75fa29f2a8f2", "OBJECTID": 887, "OwnerType": "Private", "Owner_Name": "IX SS WEST MERCURY BLVD LP ", "SWMFType": "Detention Basin", "LucityAutoID": "BMP_113_001", "StreetNumb": "2134", "ScheduledI": "Apr_Aug", "Inspection": 365, "StreetName": "W MERCURY BLVD"}},
{"geometry": {"type": "Point", "coordinates": [-76.4211421, 37.0382735]}, "type": "Feature", "properties": {"SiteTitle": "Manitou Apartment Addition", "DateLastIn": " ", "GlobalID": "c3a14e9f-72e8-48ff-947e-08bfaa943754", "OBJECTID": 888, "OwnerType": "Private", "Owner_Name": "HAMPTON INVESTMENT PROPERTIES LP ", "SWMFType": "Manufactured BMP Systems", "LucityAutoID": "BMP_118_001", "StreetNumb": "1454", "ScheduledI": "Apr_Aug", "Inspection": 365, "StreetName": "TODDS LANE"}},
{"geometry": {"type": "Point", "coordinates": [-76.3953698, 37.0071551]}, "type": "Feature", "properties": {"SiteTitle": "Peebles Enterprises Contractor Shop", "DateLastIn": " ", "GlobalID": "a93f1185-fe86-4767-8951-06594287121b", "OBJECTID": 889, "OwnerType": "Private", "Owner_Name": "FALLON KAREN & PEEBLES H KENNETH II ", "SWMFType": "Grassed Swale", "LucityAutoID": "BMP_261_001", "StreetNumb": "738", "ScheduledI": "May_Sept", "Inspection": 365, "StreetName": "PLUM AVE"}},
{"geometry": {"type": "Point", "coordinates": [-76.4082052, 37.0253508]}, "type": "Feature", "properties": {"SiteTitle": "Joynes Road Church of God", "DateLastIn": " ", "GlobalID": "c3d8ffb6-26de-4838-af50-1c3707a9f0c7", "OBJECTID": 890, "OwnerType": "Private", "Owner_Name": "CHURCH OF GOD ", "SWMFType": "Grassed Swale", "LucityAutoID": "BMP_045_001", "StreetNumb": "31", "ScheduledI": "Apr_Aug", "Inspection": 365, "StreetName": "JOYNES ROAD"}},
{"geometry": {"type": "Point", "coordinates": [-76.4055267, 37.0402809]}, "type": "Feature", "properties": {"SiteTitle": "Merchants Tire", "DateLastIn": " ", "GlobalID": "1dd9f8d1-9bb7-413d-831d-5f0f3129f028", "OBJECTID": 891, "OwnerType": "Private", "Owner_Name": "TODD SHOPPING CENTER LLC ", "SWMFType": "Manufactured BMP Systems", "LucityAutoID": "BMP_102_001", "StreetNumb": "1822", "ScheduledI": "Apr_Aug", "Inspection": 365, "StreetName": "TODDS LANE"}},
{"geometry": {"type": "Point", "coordinates": [-76.3857993, 37.0652772]}, "type": "Feature", "properties": {"SiteTitle": "Triton Heights Subdivision", "DateLastIn": " ", "GlobalID": "809bf1c6-1a10-412d-b0fd-5710707d9c71", "OBJECTID": 892, "OwnerType": "Private", "Owner_Name": "TRITON HEIGHTS HOMEOWNERS ASSOC INC ", "SWMFType": "Extended Detention Basin", "LucityAutoID": "BMP_160_001", "StreetNumb": "2700", "ScheduledI": "May_Sept", "Inspection": 0, "StreetName": "N ARMISTEAD AVE"}},
{"geometry": {"type": "Point", "coordinates": [-76.3648972, 37.025214]}, "type": "Feature", "properties": {"SiteTitle": "Plazmacare", "DateLastIn": " ", "GlobalID": "f617e90b-b396-4f57-8300-29100394d468", "OBJECTID": 893, "OwnerType": "Private", "Owner_Name": "PRINCE ALBERT INC ", "SWMFType": "Detention Basin", "LucityAutoID": "BMP_287_001", "StreetNumb": "20", "ScheduledI": "May_Sept", "Inspection": 365, "StreetName": "SETTLERS LANDING ROAD"}},
{"geometry": {"type": "Point", "coordinates": [-76.3642219, 37.0249122]}, "type": "Feature", "properties": {"SiteTitle": "Advance Auto Parts", "DateLastIn": " ", "GlobalID": "c5dd6047-bb3b-4dcf-b83d-6e977db19007", "OBJECTID": 894, "OwnerType": "Private", "Owner_Name": "SSTI 815 LASALLE AVE LLC ", "SWMFType": "Detention Basin", "LucityAutoID": "BMP_074_002", "StreetNumb": "817", "ScheduledI": "May_Sept", "Inspection": 365, "StreetName": "LASALLE AVE"}},
{"geometry": {"type": "Point", "coordinates": [-76.4300373, 37.0446717]}, "type": "Feature", "properties": {"SiteTitle": "Commonwealth Assisted Living", "DateLastIn": " ", "GlobalID": "9001c20c-296d-42f1-845f-08e79958ed26", "OBJECTID": 895, "OwnerType": "Private", "Owner_Name": "MAYFAIR-HAMPTON LLC ", "SWMFType": "Retention Basin", "LucityAutoID": "BMP_246_001", "StreetNumb": "1030", "ScheduledI": "Apr_Aug", "Inspection": 365, "StreetName": "TOPPING LANE"}},
{"geometry": {"type": "Point", "coordinates": [-76.3310571, 37.0207823]}, "type": "Feature", "properties": {"SiteTitle": "Hampton University Parking Lot Add.", "DateLastIn": " ", "GlobalID": "e6903cc1-56d8-4db8-baf2-e6625d7a88c4", "OBJECTID": 896, "OwnerType": "HU", "Owner_Name": "HAMPTON INSTITUTE ", "SWMFType": "General Infiltration Practices", "LucityAutoID": "BMP_186_002", "StreetNumb": " ", "ScheduledI": "Apr_Aug", "Inspection": 365, "StreetName": "Hampton University"}},
{"geometry": {"type": "Point", "coordinates": [-76.3251165, 37.0333562]}, "type": "Feature", "properties": {"SiteTitle": "Walgreens", "DateLastIn": " ", "GlobalID": "3beb046d-0a38-448a-ac19-51f39a7d7c68", "OBJECTID": 897, "OwnerType": "Private", "Owner_Name": "HAMPTON EAST MERCURY BLVD ASSOC LLC ", "SWMFType": "Manufactured BMP Systems", "LucityAutoID": "BMP_050_001", "StreetNumb": "235", "ScheduledI": "Apr_Aug", "Inspection": 365, "StreetName": "E MERCURY BLVD"}},
{"geometry": {"type": "Point", "coordinates": [-76.3494496, 37.0403423]}, "type": "Feature", "properties": {"SiteTitle": "Harmons Body Shop", "DateLastIn": " ", "GlobalID": "01d40ddd-4173-4e06-adc1-c9a5de828f01", "OBJECTID": 898, "OwnerType": "Private", "Owner_Name": "WILLIAMSON MARK A ", "SWMFType": "Detention Basin", "LucityAutoID": "BMP_103_001", "StreetNumb": "1003", "ScheduledI": "Apr_Aug", "Inspection": 365, "StreetName": "N KING STREET"}},
{"geometry": {"type": "Point", "coordinates": [-76.3480516, 37.0668882]}, "type": "Feature", "properties": {"SiteTitle": "Sherwood Park", "DateLastIn": " ", "GlobalID": "78ca41cb-698a-4806-ae66-842caff8d4a2", "OBJECTID": 899, "OwnerType": "Private", "Owner_Name": "WHITNEY JAMES J IV ", "SWMFType": "Vegetated Filter Strip", "LucityAutoID": "BMP_110_001", "StreetNumb": " ", "ScheduledI": "June_Oct", "Inspection": 365, "StreetName": "CURTIS LANE"}},
{"geometry": {"type": "Point", "coordinates": [-76.346843, 37.0440547]}, "type": "Feature", "properties": {"SiteTitle": "Auto Zone", "DateLastIn": " ", "GlobalID": "150d304f-0439-4223-abd6-b2b7dea188f0", "OBJECTID": 900, "OwnerType": "Private", "Owner_Name": "AUTOZONE DEVELOPMENT CORP ", "SWMFType": "Detention Basin", "LucityAutoID": "BMP_063_001", "StreetNumb": "2", "ScheduledI": "Apr_Aug", "Inspection": 365, "StreetName": "AUTO ZONE WAY"}},
{"geometry": {"type": "Point", "coordinates": [-76.3907841, 37.0846024]}, "type": "Feature", "properties": {"SiteTitle": "Systems East, Inc.", "DateLastIn": " ", "GlobalID": "9541a9de-382e-4ae6-860c-a69ac683f80d", "OBJECTID": 901, "OwnerType": "Private", "Owner_Name": "SEI GROUP LLC ", "SWMFType": "Grassed Swale", "LucityAutoID": "BMP_029_001", "StreetNumb": "30", "ScheduledI": "May_Sept", "Inspection": 365, "StreetName": "BASIL SAWYER DRIVE"}},
{"geometry": {"type": "Point", "coordinates": [-76.3949423, 37.0995882]}, "type": "Feature", "properties": {"SiteTitle": "Saint George Brewing Co.", "DateLastIn": " ", "GlobalID": "057c4c5d-a09a-441b-8152-77aa36fd888a", "OBJECTID": 902, "OwnerType": "Private", "Owner_Name": "JOTOM INVESTORS LLC ", "SWMFType": "Grassed Swale", "LucityAutoID": "BMP_121_001", "StreetNumb": "204", "ScheduledI": "May_Sept", "Inspection": 365, "StreetName": "CHALLENGER WAY"}},
{"geometry": {"type": "Point", "coordinates": [-76.3637634, 37.0237332]}, "type": "Feature", "properties": {"SiteTitle": "Simply Self Storage", "DateLastIn": " ", "GlobalID": "1737bcfb-fc05-4811-8aca-8115151e68e0", "OBJECTID": 903, "OwnerType": "Private", "Owner_Name": "SSTI 815 LASALLE AVE LLC ", "SWMFType": "Retention Basin", "LucityAutoID": "BMP_074_001", "StreetNumb": "815", "ScheduledI": "May_Sept", "Inspection": 365, "StreetName": "LASALLE AVE"}},
{"geometry": {"type": "Point", "coordinates": [-76.3950805, 37.0178277]}, "type": "Feature", "properties": {"SiteTitle": "Howmet Castings", "DateLastIn": " ", "GlobalID": "fe9a6852-eff5-43e1-9182-9e1ca2ac7764", "OBJECTID": 904, "OwnerType": "Private", "Owner_Name": "HOWMET CASTINGS & SERVICES INC ", "SWMFType": "Retention Basin", "LucityAutoID": "BMP_055_001", "StreetNumb": "1", "ScheduledI": "Apr_Aug", "Inspection": 365, "StreetName": "HOWMET DRIVE"}},
{"geometry": {"type": "Point", "coordinates": [-76.372626, 37.0199128]}, "type": "Feature", "properties": {"SiteTitle": "Eastern Aluminum", "DateLastIn": " ", "GlobalID": "014a7dc3-b706-4723-a82e-a80203928b9b", "OBJECTID": 905, "OwnerType": "Private", "Owner_Name": "DINSMORE HUNTER & BUNDY LLC ", "SWMFType": "Extended Detention Basin", "LucityAutoID": "BMP_034_001", "StreetNumb": "1351", "ScheduledI": "May_Sept", "Inspection": 365, "StreetName": "W PEMBROKE AVE"}},
{"geometry": {"type": "Point", "coordinates": [-76.406185, 37.0634413]}, "type": "Feature", "properties": {"SiteTitle": "Humana Military Healthcare Services", "DateLastIn": " ", "GlobalID": "182776a0-3ce8-4811-8d32-0899eaf78587", "OBJECTID": 906, "OwnerType": "Private", "Owner_Name": "ICON MARS PROP OWNER POOL 4DC/VA LLC", "SWMFType": "Retention Basin", "LucityAutoID": "BMP_163_001", "StreetNumb": "514", "ScheduledI": "May_Sept", "Inspection": 365, "StreetName": "BUTLER FARM ROAD"}},
{"geometry": {"type": "Point", "coordinates": [-76.3088419, 37.0482076]}, "type": "Feature", "properties": {"SiteTitle": "Advance Auto Parts", "DateLastIn": " ", "GlobalID": "0d87a2b4-4d13-4ab4-b19e-186266ebeba6", "OBJECTID": 907, "OwnerType": "Private", "Owner_Name": "VEREITT AA HAMPTON VA LLC ", "SWMFType": "Extended Detention Basin", "LucityAutoID": "BMP_068_001", "StreetNumb": "2201", "ScheduledI": "July_Nov", "Inspection": 365, "StreetName": "ANDREWS BLVD"}},
{"geometry": {"type": "Point", "coordinates": [-76.3951282, 37.1018413]}, "type": "Feature", "properties": {"SiteTitle": "A to Z Warehouse", "DateLastIn": " ", "GlobalID": "9d41bb6b-22ea-42d7-a070-865eeb804240", "OBJECTID": 908, "OwnerType": "Private", "Owner_Name": "CHECK PROPERTIES LLC & ", "SWMFType": "Retention Basin", "LucityAutoID": "BMP_087_001", "StreetNumb": "63", "ScheduledI": "May_Sept", "Inspection": 365, "StreetName": "WYTHE CREEK ROAD"}},
{"geometry": {"type": "Point", "coordinates": [-76.4269271, 37.0441829]}, "type": "Feature", "properties": {"SiteTitle": "American Classic Self Storage Addition", "DateLastIn": " ", "GlobalID": "bde7ba51-c4ee-4c9b-bb75-89c8585abd23", "OBJECTID": 909, "OwnerType": "Private", "Owner_Name": "BETHEL STORAGE ASSOCIATES LLC ", "SWMFType": "General Infiltration Practices", "LucityAutoID": "BMP_143_001", "StreetNumb": "906", "ScheduledI": "Apr_Aug", "Inspection": 365, "StreetName": "BIG BETHEL ROAD"}},
{"geometry": {"type": "Point", "coordinates": [-76.4246739, 37.0883815]}, "type": "Feature", "properties": {"SiteTitle": "Kim's Texaco", "DateLastIn": " ", "GlobalID": "b1008c62-131e-4d86-a4e0-1c5830613f97", "OBJECTID": 910, "OwnerType": "Private", "Owner_Name": "KIM JUNG HYUN & OK KEUM ", "SWMFType": "General Infiltration Practices", "LucityAutoID": "BMP_035_001", "StreetNumb": "1507", "ScheduledI": "May_Sept", "Inspection": 365, "StreetName": "BIG BETHEL ROAD"}},
{"geometry": {"type": "Point", "coordinates": [-76.3969129, 37.0638506]}, "type": "Feature", "properties": {"SiteTitle": "Baylor Doctor Office", "DateLastIn": " ", "GlobalID": "ecdee9dc-05bc-450b-a0a3-96bfea9aa742", "OBJECTID": 911, "OwnerType": "Private", "Owner_Name": "BUTLER FARMS LLC ", "SWMFType": "Detention Basin", "LucityAutoID": "BMP_313_001", "StreetNumb": "23", "ScheduledI": "May_Sept", "Inspection": 365, "StreetName": "MANHATTAN SQUARE"}},
{"geometry": {"type": "Point", "coordinates": [-76.3915359, 37.0268942]}, "type": "Feature", "properties": {"SiteTitle": "Town Park on Briarfield Condominiums", "DateLastIn": " ", "GlobalID": "18a04df5-a692-4769-8e76-b107bc5356b1", "OBJECTID": 912, "OwnerType": "Private", "Owner_Name": "TOWN PARK CONDOMINIUM ASSOC INC ", "SWMFType": "Retention Basin", "LucityAutoID": "BMP_280_001", "StreetNumb": "1697", "ScheduledI": "Apr_Aug", "Inspection": 365, "StreetName": "BRIARFIELD ROAD"}},
{"geometry": {"type": "Point", "coordinates": [-76.3784226, 37.0402498]}, "type": "Feature", "properties": {"SiteTitle": "Wal-Mart Supercenter", "DateLastIn": " ", "GlobalID": "1ed58fbf-3e2a-4acf-b530-e0557cacaf29", "OBJECTID": 913, "OwnerType": "Private", "Owner_Name": "WAL MART STORES INC ", "SWMFType": "Retention Basin", "LucityAutoID": "BMP_100_001", "StreetNumb": "1900", "ScheduledI": "June_Oct", "Inspection": 365, "StreetName": "CUNNINGHAM DRIVE"}},
{"geometry": {"type": "Point", "coordinates": [-76.3220215, 37.0438373]}, "type": "Feature", "properties": {"SiteTitle": "Old Point National Bank", "DateLastIn": " ", "GlobalID": "bd1e9d01-ebe6-4968-a1ff-81d8e900ed26", "OBJECTID": 914, "OwnerType": "Private", "Owner_Name": "OLD POINT NATL BK OF PHOEBUS TH ", "SWMFType": "Grassed Swale", "LucityAutoID": "BMP_109_001", "StreetNumb": "347", "ScheduledI": "Apr_Aug", "Inspection": 365, "StreetName": "WOODLAND ROAD"}},
{"geometry": {"type": "Point", "coordinates": [-76.391123, 37.003235]}, "type": "Feature", "properties": {"SiteTitle": "Performing Arts Center", "DateLastIn": " ", "GlobalID": "30af6d9b-e08a-40a1-a84f-5adcdefded9b", "OBJECTID": 915, "OwnerType": "Private", "Owner_Name": "EDUSTAR ACADEMY PERFRMING ARTS INC ", "SWMFType": "Detention Basin", "LucityAutoID": "BMP_079_001", "StreetNumb": "42", "ScheduledI": "May_Sept", "Inspection": 365, "StreetName": "CATALPA AVE"}},
{"geometry": {"type": "Point", "coordinates": [-76.4323605, 37.0248061]}, "type": "Feature", "properties": {"SiteTitle": "Rite Aid Pharmacy", "DateLastIn": " ", "GlobalID": "e87c0b5e-a729-4f48-aaa0-e288c13cb393", "OBJECTID": 916, "OwnerType": "Private", "Owner_Name": "NORTH KENNETH C TR HARBOR REALTY TR ", "SWMFType": "General Infiltration Practices", "LucityAutoID": "BMP_080_001", "StreetNumb": "4813", "ScheduledI": "Apr_Aug", "Inspection": 365, "StreetName": "W MERCURY BLVD"}},
{"geometry": {"type": "Point", "coordinates": [-76.4337822, 37.0441077]}, "type": "Feature", "properties": {"SiteTitle": "Virginia Health Services Addition", "DateLastIn": " ", "GlobalID": "8a193840-f1b2-408f-ba6a-5a0c7271731c", "OBJECTID": 917, "OwnerType": "Private", "Owner_Name": "VIRGINIA HEALTH SERVICES INC ", "SWMFType": "Detention Basin", "LucityAutoID": "BMP_089_002", "StreetNumb": "1028", "ScheduledI": "July_Nov", "Inspection": 365, "StreetName": "TOPPING LANE"}},
{"geometry": {"type": "Point", "coordinates": [-76.4028112, 37.0564577]}, "type": "Feature", "properties": {"SiteTitle": "Exxon-Mobil Gas Station", "DateLastIn": " ", "GlobalID": "e993cc5e-8831-4345-8dac-a5ae93acbe8e", "OBJECTID": 918, "OwnerType": "Private", "Owner_Name": "DOSWELL VENTURES LLC ", "SWMFType": "General Infiltration Practices", "LucityAutoID": "BMP_266_001", "StreetNumb": "1619", "ScheduledI": "June_Oct", "Inspection": 365, "StreetName": "HARDY CASH DRIVE"}},
{"geometry": {"type": "Point", "coordinates": [-76.3486263, 37.0387767]}, "type": "Feature", "properties": {"SiteTitle": "Bethel United Church of Christ", "DateLastIn": " ", "GlobalID": "01b9415c-049e-4b82-9532-bd889a9a48a6", "OBJECTID": 919, "OwnerType": "Private", "Owner_Name": "BETHEL CHRISTIAN CHURCH ", "SWMFType": "Retention Basin", "LucityAutoID": "BMP_178_001", "StreetNumb": "21", "ScheduledI": "Apr_Aug", "Inspection": 365, "StreetName": "RIP RAP ROAD"}},
{"geometry": {"type": "Point", "coordinates": [-76.4048756, 37.0190689]}, "type": "Feature", "properties": {"SiteTitle": "Scottie's Custom Cuts Addition", "DateLastIn": " ", "GlobalID": "0621bf3a-1fe8-4a3c-833c-54e7c471427a", "OBJECTID": 920, "OwnerType": "Private", "Owner_Name": "SCOTT WILLIAM JR & VICKIE R ", "SWMFType": "Grassed Swale", "LucityAutoID": "BMP_075_002", "StreetNumb": "1593", "ScheduledI": "Apr_Aug", "Inspection": 365, "StreetName": "BRIARFIELD ROAD"}},
{"geometry": {"type": "Point", "coordinates": [-76.3255381, 37.0173409]}, "type": "Feature", "properties": {"SiteTitle": "McDonald's Restaurant", "DateLastIn": " ", "GlobalID": "5a945a7c-95f9-4989-96f4-737ad8e26ad6", "OBJECTID": 921, "OwnerType": "Private", "Owner_Name": "MCDONALDS CORPORATION ", "SWMFType": "General Infiltration Practices", "LucityAutoID": "BMP_291_001", "StreetNumb": "236", "ScheduledI": "Apr_Aug", "Inspection": 365, "StreetName": "S MALLORY STREET"}},
{"geometry": {"type": "Point", "coordinates": [-76.4029448, 37.0053391]}, "type": "Feature", "properties": {"SiteTitle": "Quarles Fuel Network", "DateLastIn": " ", "GlobalID": "afa26d09-1176-46ab-a96a-3e0744b93495", "OBJECTID": 922, "OwnerType": "Private", "Owner_Name": "THIRD GENERATION LP ", "SWMFType": "Detention Basin", "LucityAutoID": "BMP_059_001", "StreetNumb": "220", "ScheduledI": "May_Sept", "Inspection": 365, "StreetName": "OLD ABERDEEN ROAD"}},
{"geometry": {"type": "Point", "coordinates": [-76.3956357, 37.0124679]}, "type": "Feature", "properties": {"SiteTitle": "Newport News Shipbuilding", "DateLastIn": " ", "GlobalID": "8e67fc08-962a-47b6-8886-b2fef34163df", "OBJECTID": 923, "OwnerType": "Private", "Owner_Name": "LAMAR INVESTMENTS ", "SWMFType": "Manufactured BMP Systems", "LucityAutoID": "BMP_146_001", "StreetNumb": "505", "ScheduledI": "Apr_Aug", "Inspection": 365, "StreetName": "HOWMET DRIVE"}},
{"geometry": {"type": "Point", "coordinates": [-76.3827638, 37.0796064]}, "type": "Feature", "properties": {"SiteTitle": "Happy Boxes Self Storage", "DateLastIn": " ", "GlobalID": "38f13b90-7ee2-4ebb-adbc-7a9852d845d9", "OBJECTID": 924, "OwnerType": "Private", "Owner_Name": "HAPPY BOXES FOUR LLC ", "SWMFType": "Manufactured BMP Systems", "LucityAutoID": "BMP_237_001", "StreetNumb": "3036", "ScheduledI": " ", "Inspection": 365, "StreetName": "N ARMISTEAD AVE"}},
{"geometry": {"type": "Point", "coordinates": [-76.3933107, 37.0821508]}, "type": "Feature", "properties": {"SiteTitle": "Lutheran Family Services", "DateLastIn": " ", "GlobalID": "0d039173-5af2-4d26-adb4-8767770483a1", "OBJECTID": 925, "OwnerType": "Private", "Owner_Name": null, "SWMFType": "General Infiltration Practices", "LucityAutoID": null, "StreetNumb": "130", "ScheduledI": "May_Sept", "Inspection": 365, "StreetName": "RESEARCH DRIVE"}},
{"geometry": {"type": "Point", "coordinates": [-76.411211, 37.0126644]}, "type": "Feature", "properties": {"SiteTitle": "Synergy Flow Systems", "DateLastIn": " ", "GlobalID": "5878dee0-2c2a-45ba-89a6-02847237157a", "OBJECTID": 926, "OwnerType": "Private", "Owner_Name": "325 E STREET LLC ", "SWMFType": "Retention Basin", "LucityAutoID": "BMP_099_001", "StreetNumb": "325", "ScheduledI": "May_Sept", "Inspection": 365, "StreetName": "E ST"}},
{"geometry": {"type": "Point", "coordinates": [-76.3883959, 37.0505161]}, "type": "Feature", "properties": {"SiteTitle": "The Heritage at Coliseum Central", "DateLastIn": " ", "GlobalID": "19bf1bb1-6487-433f-9440-42742884f764", "OBJECTID": 927, "OwnerType": "Private", "Owner_Name": "THE IMMACULATE CONCEPTION LIHP INC ", "SWMFType": "Retention Basin", "LucityAutoID": "BMP_164_001", "StreetNumb": "211", "ScheduledI": "June_Oct", "Inspection": 365, "StreetName": "MARCELLA ROAD"}},
{"geometry": {"type": "Point", "coordinates": [-76.3964221, 37.0528886]}, "type": "Feature", "properties": {"SiteTitle": "Sentara Life Care Additions", "DateLastIn": " ", "GlobalID": "2baa9a16-0c89-49b6-95ac-755fd4bc5908", "OBJECTID": 928, "OwnerType": "Private", "Owner_Name": "SENTARA LIFE CARE CORPORATION ", "SWMFType": "Detention Basin", "LucityAutoID": "BMP_144_001", "StreetNumb": "2230", "ScheduledI": "June_Oct", "Inspection": 365, "StreetName": "EXECUTIVE DRIVE"}},
{"geometry": {"type": "Point", "coordinates": [-76.3797166, 37.0424505]}, "type": "Feature", "properties": {"SiteTitle": "Kramer Tire", "DateLastIn": " ", "GlobalID": "30b57df0-7af2-473e-a82c-fbda62201f89", "OBJECTID": 929, "OwnerType": "Private", "Owner_Name": "KRAMER COLISEUM #18 LLC ", "SWMFType": "General Infiltration Practices", "LucityAutoID": "BMP_081_001", "StreetNumb": "1980", "ScheduledI": "June_Oct", "Inspection": 365, "StreetName": "CUNNINGHAM DRIVE"}},
{"geometry": {"type": "Point", "coordinates": [-76.3614572, 37.0333274]}, "type": "Feature", "properties": {"SiteTitle": "Hampton Branch YMCA", "DateLastIn": " ", "GlobalID": "2fffd681-dbe6-43dd-a612-cf74e530a91b", "OBJECTID": 930, "OwnerType": "Private", "Owner_Name": "PENINSULA METRO YMCA THE ", "SWMFType": "Detention Basin", "LucityAutoID": "BMP_088_001", "StreetNumb": "1322", "ScheduledI": "June_Oct", "Inspection": 365, "StreetName": "LASALLE AVE"}},
{"geometry": {"type": "Point", "coordinates": [-76.3859355, 37.0590668]}, "type": "Feature", "properties": {"SiteTitle": "Parklawn-Wood Funeral Home", "DateLastIn": " ", "GlobalID": "7bcd15f1-306f-4fd1-a0af-258ccb730533", "OBJECTID": 931, "OwnerType": "Private", "Owner_Name": "SCI VIRGINIA FUNERAL SERVICES INC ", "SWMFType": "Detention Basin", "LucityAutoID": "BMP_174_001", "StreetNumb": "2551", "ScheduledI": "June_Oct", "Inspection": 365, "StreetName": "N ARMISTEAD AVE"}},
{"geometry": {"type": "Point", "coordinates": [-76.3911795, 37.05305]}, "type": "Feature", "properties": {"SiteTitle": "Office Bldg. for Georglas Corp", "DateLastIn": " ", "GlobalID": "6afb6348-4ebd-4de7-b1b4-ac8185a32db0", "OBJECTID": 932, "OwnerType": "Private", "Owner_Name": "TWENTY 240 COLISEUM DR LLC ", "SWMFType": "Detention Basin", "LucityAutoID": "BMP_062_001", "StreetNumb": "2240", "ScheduledI": "June_Oct", "Inspection": 365, "StreetName": "COLISEUM DRIVE"}},
{"geometry": {"type": "Point", "coordinates": [-76.434502, 37.0473513]}, "type": "Feature", "properties": {"SiteTitle": "Liberty Baptist Church", "DateLastIn": " ", "GlobalID": "be36a34a-ec4a-48bc-9e26-499aac695f14", "OBJECTID": 933, "OwnerType": "Private", "Owner_Name": "LIBERTY BAPTIST CHURCH ", "SWMFType": "Retention Basin", "LucityAutoID": "BMP_243_003", "StreetNumb": "1021", "ScheduledI": "July_Nov", "Inspection": 365, "StreetName": "BIG BETHEL ROAD"}},
{"geometry": {"type": "Point", "coordinates": [-76.4286381, 37.0262071]}, "type": "Feature", "properties": {"SiteTitle": "Mercury Laser Wash", "DateLastIn": " ", "GlobalID": "d32a8ddc-727f-4cec-a166-26edf20f120b", "OBJECTID": 934, "OwnerType": "Private", "Owner_Name": "CEDAR BLIND LLC ", "SWMFType": "Detention Basin", "LucityAutoID": "BMP_137_001", "StreetNumb": "4117", "ScheduledI": "Apr_Aug", "Inspection": 365, "StreetName": "W MERCURY BLVD"}},
{"geometry": {"type": "Point", "coordinates": [-76.4068514, 37.0361373]}, "type": "Feature", "properties": {"SiteTitle": "R. K. Toyota", "DateLastIn": " ", "GlobalID": "56aaad74-5007-4ce2-a499-7b6fa1c67169", "OBJECTID": 935, "OwnerType": "Private", "Owner_Name": "ELLMER PROPERTIES HAMPTON LLC ", "SWMFType": "Retention Basin", "LucityAutoID": "BMP_214_002", "StreetNumb": "2301", "ScheduledI": "Apr_Aug", "Inspection": 365, "StreetName": "W MERCURY BLVD"}},
{"geometry": {"type": "Point", "coordinates": [-76.3304275, 37.0200875]}, "type": "Feature", "properties": {"SiteTitle": "Hampton University Convocation Ctr.", "DateLastIn": " ", "GlobalID": "4da99b1d-3400-45da-9198-2f31240343f8", "OBJECTID": 936, "OwnerType": "VA", "Owner_Name": "HAMPTON INSTITUTE ", "SWMFType": "Retention Basin", "LucityAutoID": "BMP_186_005", "StreetNumb": "700", "ScheduledI": "Apr_Aug", "Inspection": 365, "StreetName": "EMANCIPATION DRIVE"}},
{"geometry": {"type": "Point", "coordinates": [-76.4069403, 37.0088148]}, "type": "Feature", "properties": {"SiteTitle": "VDOT Maintenance Facility", "DateLastIn": " ", "GlobalID": "51e4c78b-3859-4663-9fda-11aa10ea1401", "OBJECTID": 937, "OwnerType": "Public", "Owner_Name": "COMMONWEALTH OF VIRGINIA ", "SWMFType": "Detention Basin", "LucityAutoID": "BMP_090_001", "StreetNumb": "150", "ScheduledI": "May_Sept", "Inspection": 365, "StreetName": "E ST"}},
{"geometry": {"type": "Point", "coordinates": [-76.3920698, 37.0572876]}, "type": "Feature", "properties": {"SiteTitle": "Sentara Hampton General Hospital", "DateLastIn": " ", "GlobalID": "18469814-2245-410d-a270-53b4e99a374b", "OBJECTID": 938, "OwnerType": "Private", "Owner_Name": "HAMPTON TRAINING SCHOOL NURSES ", "SWMFType": "Retention Basin", "LucityAutoID": "BMP_256_001", "StreetNumb": "3000", "ScheduledI": "June_Oct", "Inspection": 365, "StreetName": "COLISEUM DRIVE"}},
{"geometry": {"type": "Point", "coordinates": [-76.3982899, 37.0617695]}, "type": "Feature", "properties": {"SiteTitle": "Tysinger Mercedes Benz Ctr.", "DateLastIn": " ", "GlobalID": "a8f2f1fa-1cb3-4b9f-96ee-c6eb27bcf32a", "OBJECTID": 939, "OwnerType": "Private", "Owner_Name": "TYSINGER REAL ESTATE LLC ETAL ", "SWMFType": "Manufactured BMP Systems", "LucityAutoID": "BMP_285_001", "StreetNumb": "2712", "ScheduledI": "May_Sept", "Inspection": 365, "StreetName": "MAGRUDER BLVD"}},
{"geometry": {"type": "Point", "coordinates": [-76.3983868, 37.0550504]}, "type": "Feature", "properties": {"SiteTitle": "Executive Crossing East", "DateLastIn": " ", "GlobalID": "0351b161-078b-40e2-957d-20583ce1a69c", "OBJECTID": 940, "OwnerType": "Private", "Owner_Name": "EXECUTIVE CROSSING EAST LLC ", "SWMFType": "Detention Basin", "LucityAutoID": "BMP_284_001", "StreetNumb": "2269", "ScheduledI": "June_Oct", "Inspection": 365, "StreetName": "EXECUTIVE DRIVE"}},
{"geometry": {"type": "Point", "coordinates": [-76.399594, 37.0556121]}, "type": "Feature", "properties": {"SiteTitle": "Executive Crossing West", "DateLastIn": " ", "GlobalID": "dfafa49c-43a6-4ba9-b116-6a118175a801", "OBJECTID": 941, "OwnerType": "Private", "Owner_Name": "EXECUTIVE CROSSING WEST LLC ", "SWMFType": "Detention Basin", "LucityAutoID": "BMP_086_001", "StreetNumb": "1519", "ScheduledI": "June_Oct", "Inspection": 365, "StreetName": "HARDY CASH DRIVE"}},
{"geometry": {"type": "Point", "coordinates": [-76.3994174, 37.0118998]}, "type": "Feature", "properties": {"SiteTitle": "Signal Engineering Corp.", "DateLastIn": " ", "GlobalID": "2bb641ce-66cd-412c-a426-4e8f53e59331", "OBJECTID": 942, "OwnerType": "Private", "Owner_Name": "GATELY PROPERTIES LLC ", "SWMFType": "General Infiltration Practices", "LucityAutoID": "BMP_142_001", "StreetNumb": "503", "ScheduledI": "Apr_Aug", "Inspection": 365, "StreetName": "INDUSTRY DRIVE"}},
{"geometry": {"type": "Point", "coordinates": [-76.3982044, 37.0637966]}, "type": "Feature", "properties": {"SiteTitle": "Medical Office Building", "DateLastIn": " ", "GlobalID": "e5fef5d4-9ed4-4dd9-a7bd-4f1010fb6c2c", "OBJECTID": 943, "OwnerType": "Private", "Owner_Name": "HONG TONY TUPYO & KUN CHA ", "SWMFType": "Detention Basin", "LucityAutoID": "BMP_132_002", "StreetNumb": "2", "ScheduledI": "May_Sept", "Inspection": 365, "StreetName": "MANHATTAN SQUARE"}},
{"geometry": {"type": "Point", "coordinates": [-76.3993436, 37.0384764]}, "type": "Feature", "properties": {"SiteTitle": "Johnny Carinos Restaurant", "DateLastIn": " ", "GlobalID": "640be2a4-74a1-4bc9-94d2-3a23f10a0dcc", "OBJECTID": 944, "OwnerType": "Private", "Owner_Name": "BEST LOCATIONS LLC ", "SWMFType": "Manufactured BMP Systems", "LucityAutoID": "BMP_222_001", "StreetNumb": "2100", "ScheduledI": "Apr_Aug", "Inspection": 365, "StreetName": "POWER PLANT PARKWAY"}},
{"geometry": {"type": "Point", "coordinates": [-76.3957235, 37.0075242]}, "type": "Feature", "properties": {"SiteTitle": "L & W Corp/Cary Insulation", "DateLastIn": " ", "GlobalID": "7f6ad8d2-4c33-497a-8d4c-d6b9001d8a04", "OBJECTID": 945, "OwnerType": "Private", "Owner_Name": "SUBURBAN COMMONS LLC ", "SWMFType": "Detention Basin", "LucityAutoID": "BMP_056_001", "StreetNumb": "804", "ScheduledI": "Apr_Aug", "Inspection": 365, "StreetName": "KIWANIS STREET"}},
{"geometry": {"type": "Point", "coordinates": [-76.4277937, 37.044938]}, "type": "Feature", "properties": {"SiteTitle": "Dairy Queen", "DateLastIn": " ", "GlobalID": "a6170397-aec7-4844-a33e-3e79a2c438b6", "OBJECTID": 946, "OwnerType": "Private", "Owner_Name": "GULAB LLC ", "SWMFType": "Detention Basin", "LucityAutoID": "BMP_101_001", "StreetNumb": "924", "ScheduledI": "Apr_Aug", "Inspection": 365, "StreetName": "BIG BETHEL ROAD"}},
{"geometry": {"type": "Point", "coordinates": [-76.3113726, 37.0384166]}, "type": "Feature", "properties": {"SiteTitle": "Becky's Buckroe Florist", "DateLastIn": " ", "GlobalID": "49453fce-7abb-4426-b42a-fed8a726021e", "OBJECTID": 947, "OwnerType": "Private", "Owner_Name": "BECKY'S HOLDING CO LLC ", "SWMFType": "Detention Basin", "LucityAutoID": "BMP_133_001", "StreetNumb": "1810", "ScheduledI": "July_Nov", "Inspection": 365, "StreetName": "E PEMBROKE AVE"}},
{"geometry": {"type": "Point", "coordinates": [-76.3960041, 37.0926323]}, "type": "Feature", "properties": {"SiteTitle": "Emmanuel Lutheran Church", "DateLastIn": " ", "GlobalID": "2aeab82e-f6c1-4afc-9831-9f850183d601", "OBJECTID": 948, "OwnerType": "Private", "Owner_Name": "EMMANUEL LUTHERAN CHURCH ", "SWMFType": "Detention Basin", "LucityAutoID": "BMP_047_001", "StreetNumb": "23", "ScheduledI": "May_Sept", "Inspection": 365, "StreetName": "SEMPLE FARM ROAD"}},
{"geometry": {"type": "Point", "coordinates": [-76.3860022, 37.014133]}, "type": "Feature", "properties": {"SiteTitle": "Woodfin Oil Watchcard", "DateLastIn": " ", "GlobalID": "ca770ea4-8150-479a-8caf-a31fbca88421", "OBJECTID": 949, "OwnerType": "Private", "Owner_Name": "LEL HAMPTON LLC ", "SWMFType": "Retention Basin", "LucityAutoID": "BMP_311_001", "StreetNumb": "1804", "ScheduledI": "Apr_Aug", "Inspection": 365, "StreetName": "W PEMBROKE AVE"}},
{"geometry": {"type": "Point", "coordinates": [-76.3902358, 37.0504498]}, "type": "Feature", "properties": {"SiteTitle": "Metro Petro At Coliseum Marketplace", "DateLastIn": " ", "GlobalID": "e600cb8a-d2fb-4219-ae31-8c465a14ff8f", "OBJECTID": 950, "OwnerType": "Private", "Owner_Name": "COLISEUM FF LLC ", "SWMFType": "Manufactured BMP Systems", "LucityAutoID": "BMP_058_001", "StreetNumb": "2190", "ScheduledI": "June_Oct", "Inspection": 365, "StreetName": "COLISEUM DRIVE"}},
{"geometry": {"type": "Point", "coordinates": [-76.3799398, 37.0550042]}, "type": "Feature", "properties": {"SiteTitle": "Wesley United Methodist Church", "DateLastIn": " ", "GlobalID": "13095d50-2bc6-45a0-ac97-5f340c319451", "OBJECTID": 951, "OwnerType": "Private", "Owner_Name": "WESLEY UNITED METHODIST CHURCH ", "SWMFType": "Detention Basin", "LucityAutoID": "BMP_253_001", "StreetNumb": "2510", "ScheduledI": "June_Oct", "Inspection": 365, "StreetName": "N ARMISTEAD AVE"}},
{"geometry": {"type": "Point", "coordinates": [-76.3943776, 37.1006852]}, "type": "Feature", "properties": {"SiteTitle": "Darnell Landscaping", "DateLastIn": " ", "GlobalID": "fae016b7-a8ff-489d-9240-697f784e912a", "OBJECTID": 952, "OwnerType": "Private", "Owner_Name": "DARNELL PROPERTIES LLC ", "SWMFType": "Retention Basin", "LucityAutoID": "BMP_012_001", "StreetNumb": "50", "ScheduledI": "May_Sept", "Inspection": 365, "StreetName": "VOYAGER DRIVE"}},
{"geometry": {"type": "Point", "coordinates": [-76.3894426, 37.0894412]}, "type": "Feature", "properties": {"SiteTitle": "Harbour Construction", "DateLastIn": " ", "GlobalID": "26dfa9e3-0437-4fc9-882b-c43d0bde8d96", "OBJECTID": 953, "OwnerType": "Private", "Owner_Name": "HARBOUR ENTERPRISES LLC ", "SWMFType": "Detention Basin", "LucityAutoID": "BMP_322_002", "StreetNumb": "24", "ScheduledI": "May_Sept", "Inspection": 365, "StreetName": "RESEARCH DRIVE"}},
{"geometry": {"type": "Point", "coordinates": [-76.3413582, 37.0282641]}, "type": "Feature", "properties": {"SiteTitle": "Sentara Medical Center", "DateLastIn": " ", "GlobalID": "4179e3fd-22e2-40bc-988b-26a0a12196f8", "OBJECTID": 954, "OwnerType": "Private", "Owner_Name": "THOMPSON THOMAS T ", "SWMFType": "General Infiltration Practices", "LucityAutoID": "BMP_179_001", "StreetNumb": "200", "ScheduledI": "May_Sept", "Inspection": 365, "StreetName": "EATON ST"}},
{"geometry": {"type": "Point", "coordinates": [-76.317528, 37.0161093]}, "type": "Feature", "properties": {"SiteTitle": "St. Mary Star of the Sea", "DateLastIn": " ", "GlobalID": "376ecfdd-7a5f-4242-84c7-b7e7ebd73a2a", "OBJECTID": 955, "OwnerType": "Private", "Owner_Name": "ST MARYS SCHOOL ", "SWMFType": "General Infiltration Practices", "LucityAutoID": "BMP_172_001", "StreetNumb": "14", "ScheduledI": "Apr_Aug", "Inspection": 365, "StreetName": "N WILLARD AVE"}},
{"geometry": {"type": "Point", "coordinates": [-76.4086102, 37.041886]}, "type": "Feature", "properties": {"SiteTitle": "Bethel Temple Assembly of God", "DateLastIn": " ", "GlobalID": "4fec6dc1-e0c9-499f-a643-699b2b17933d", "OBJECTID": 956, "OwnerType": "Private", "Owner_Name": "BETHEL TEMPLE CHURCH INC ", "SWMFType": "Retention Basin", "LucityAutoID": "BMP_130_003", "StreetNumb": "1705", "ScheduledI": "Apr_Aug", "Inspection": 365, "StreetName": "TODDS LANE"}},
{"geometry": {"type": "Point", "coordinates": [-76.3960957, 37.0208051]}, "type": "Feature", "properties": {"SiteTitle": "Bethel Baptist Church", "DateLastIn": " ", "GlobalID": "13645efb-dbb5-4b77-90b1-2a5e478ae62e", "OBJECTID": 957, "OwnerType": "Private", "Owner_Name": "BETHEL BAPTIST CHURCH HAMPTON VA INC", "SWMFType": "Detention Basin", "LucityAutoID": "BMP_095_001", "StreetNumb": "1647", "ScheduledI": "Apr_Aug", "Inspection": 365, "StreetName": "BRIARFIELD ROAD"}},
{"geometry": {"type": "Point", "coordinates": [-76.3107699, 37.0538298]}, "type": "Feature", "properties": {"SiteTitle": "Bridgeport Apartments", "DateLastIn": " ", "GlobalID": "52f77bce-ec8f-4227-9143-b6181fcd093a", "OBJECTID": 958, "OwnerType": "Private", "Owner_Name": "BRIDGEPORT LP ", "SWMFType": "Detention Basin", "LucityAutoID": "BMP_071_001", "StreetNumb": "2078", "ScheduledI": "Apr_Aug", "Inspection": 365, "StreetName": "NICKERSON BLVD"}},
{"geometry": {"type": "Point", "coordinates": [-76.3884288, 37.0364265]}, "type": "Feature", "properties": {"SiteTitle": "Colonial Downs, L.P.", "DateLastIn": " ", "GlobalID": "5a64c91f-0cdc-4533-a074-b21df23085cd", "OBJECTID": 959, "OwnerType": "Private", "Owner_Name": "COLONIAL DOWNS L P ", "SWMFType": "Retention Basin", "LucityAutoID": "BMP_128_001", "StreetNumb": "1909", "ScheduledI": "June_Oct", "Inspection": 365, "StreetName": "COMMERCE DRIVE"}},
{"geometry": {"type": "Point", "coordinates": [-76.3987726, 37.0502539]}, "type": "Feature", "properties": {"SiteTitle": "Gastroenterology Specialists, Inc.", "DateLastIn": " ", "GlobalID": "9ff9dc3e-6215-49db-a700-d18d34f65144", "OBJECTID": 960, "OwnerType": "Private", "Owner_Name": "HAMPTON MEDICAL LLC ", "SWMFType": "Detention Basin", "LucityAutoID": "BMP_149_002", "StreetNumb": "410", "ScheduledI": "June_Oct", "Inspection": 365, "StreetName": "MARCELLA ROAD"}},
{"geometry": {"type": "Point", "coordinates": [-76.3869212, 37.046337]}, "type": "Feature", "properties": {"SiteTitle": "Cinema Cafe", "DateLastIn": " ", "GlobalID": "c4d04612-c16e-451f-aeb3-be2f200ba76f", "OBJECTID": 961, "OwnerType": "Private", "Owner_Name": "HAMPTON CITY OF ", "SWMFType": "Retention Basin", "LucityAutoID": "BMP_138_001", "StreetNumb": "1044", "ScheduledI": "June_Oct", "Inspection": 365, "StreetName": "VON SCHILLING DRIVE"}},
{"geometry": {"type": "Point", "coordinates": [-76.3343022, 37.06689]}, "type": "Feature", "properties": {"SiteTitle": "Gosnold Hope Townhouses", "DateLastIn": " ", "GlobalID": "591e1b4c-ea27-4c45-b84c-cd7c5a8d0440", "OBJECTID": 962, "OwnerType": "Private", "Owner_Name": "GOSNOLD HOPE PROP OWNERS ASSOC INC ", "SWMFType": "Detention Basin", "LucityAutoID": "BMP_193_001", "StreetNumb": "24", "ScheduledI": "June_Oct", "Inspection": 365, "StreetName": "CANNONBALL CIRCLE"}},
{"geometry": {"type": "Point", "coordinates": [-76.3856669, 37.0896653]}, "type": "Feature", "properties": {"SiteTitle": "North Armistead Ave Basin", "DateLastIn": " ", "GlobalID": "7e970d3f-fe39-4cdb-ba0e-a6690930bdef", "OBJECTID": 963, "OwnerType": "ST", "Owner_Name": "COMMONWEALTH OF VIRGINIA ", "SWMFType": "Retention Basin", "LucityAutoID": "BMP_038_001", "StreetNumb": "3199", "ScheduledI": " ", "Inspection": 365, "StreetName": "COMMANDER SHEPARD BLVD"}},
{"geometry": {"type": "Point", "coordinates": [-76.4056226, 37.0612463]}, "type": "Feature", "properties": {"SiteTitle": "Billy Wood Canal Lakes", "DateLastIn": " ", "GlobalID": "ebc7a3c5-4de1-4f5e-942c-45d0a7d4f909", "OBJECTID": 964, "OwnerType": "Public", "Owner_Name": "HPT CW PROPERTIES TRUST ", "SWMFType": "Retention Basin", "LucityAutoID": "BMP_028_001", "StreetNumb": " ", "ScheduledI": "May_Sept", "Inspection": 365, "StreetName": "Hampton Rds. Ctr."}},
{"geometry": {"type": "Point", "coordinates": [-76.4039489, 37.0566058]}, "type": "Feature", "properties": {"SiteTitle": "Hampton Roads Center South Campus Ponds", "DateLastIn": " ", "GlobalID": "df7bb5c3-73aa-4730-8c6d-13c42deb3739", "OBJECTID": 965, "OwnerType": "Public", "Owner_Name": "HAMPTON RDS CNTR OWNERS ASSOC ", "SWMFType": "Retention Basin", "LucityAutoID": "BMP_207_001", "StreetNumb": " ", "ScheduledI": "June_Oct", "Inspection": 365, "StreetName": "ENTERPRISE PKWY"}},
{"geometry": {"type": "Point", "coordinates": [-76.3593598, 37.0432993]}, "type": "Feature", "properties": {"SiteTitle": "W. Mercury Blvd. Basin/ Seldendale", "DateLastIn": " ", "GlobalID": "c67d8643-a755-4f04-8e85-88b5a1e53cd3", "OBJECTID": 966, "OwnerType": "Public", "Owner_Name": "HAMPTON CITY OF ", "SWMFType": "Retention Basin", "LucityAutoID": "BMP_236_001", "StreetNumb": " ", "ScheduledI": "June_Oct", "Inspection": 365, "StreetName": "W MERCURY BLVD"}},
{"geometry": {"type": "Point", "coordinates": [-76.3019728, 37.0446925]}, "type": "Feature", "properties": {"SiteTitle": "Old Buckroe Rd Basin", "DateLastIn": " ", "GlobalID": "2f48e50e-4240-4f6a-b120-ea2fcd802c3a", "OBJECTID": 967, "OwnerType": "Public", "Owner_Name": null, "SWMFType": "Retention Basin", "LucityAutoID": "BMP_348_001", "StreetNumb": null, "ScheduledI": "July_Nov", "Inspection": 365, "StreetName": null}},
{"geometry": {"type": "Point", "coordinates": [-76.4086122, 37.0901955]}, "type": "Feature", "properties": {"SiteTitle": "Baker Farms Subdivision", "DateLastIn": " ", "GlobalID": "3691e1bb-7b28-414a-9a64-9484d1f8ad80", "OBJECTID": 968, "OwnerType": "Private", "Owner_Name": "SMITH CHRISTOPHER L & LAURIE Y ", "SWMFType": "Detention Basin", "LucityAutoID": "BMP_060_001", "StreetNumb": "140", "ScheduledI": "May_Sept", "Inspection": 365, "StreetName": "SEMPLE FARM ROAD"}},
{"geometry": {"type": "Point", "coordinates": [-76.4135112, 37.037479]}, "type": "Feature", "properties": {"SiteTitle": "Wellington Walk Subdivision", "DateLastIn": " ", "GlobalID": "f8f4a21a-9f4c-4776-af9c-6ea5fe7f7932", "OBJECTID": 969, "OwnerType": "Private", "Owner_Name": "THOMAS ANTHONY A SR & SHANNA V ", "SWMFType": "Detention Basin", "LucityAutoID": "BMP_105_001", "StreetNumb": "2783", "ScheduledI": "Apr_Aug", "Inspection": 365, "StreetName": "BUTTERNUT DRIVE"}},
{"geometry": {"type": "Point", "coordinates": [-76.4383455, 37.0465191]}, "type": "Feature", "properties": {"SiteTitle": "Forrest Ridge Subdivision", "DateLastIn": " ", "GlobalID": "6b249288-ca5a-43ab-8591-ab7742caa6bb", "OBJECTID": 971, "OwnerType": "Private", "Owner_Name": "HAMPTON CHURCH OF THE NAZARENE INC ", "SWMFType": "Retention Basin", "LucityAutoID": "BMP_321_001", "StreetNumb": "7", "ScheduledI": "July_Nov", "Inspection": 365, "StreetName": "RIDGE LAKE DRIVE"}},
{"geometry": {"type": "Point", "coordinates": [-76.3051785, 37.0672989]}, "type": "Feature", "properties": {"SiteTitle": "Fox Hill Meadows Subdivision", "DateLastIn": " ", "GlobalID": "c1afc445-29c3-46c4-b2d3-d10776d1609b", "OBJECTID": 972, "OwnerType": "Private", "Owner_Name": "BOONE WALTER E SR& ELIZABETH A ", "SWMFType": "Retention Basin", "LucityAutoID": "BMP_119_001", "StreetNumb": "829", "ScheduledI": "July_Nov", "Inspection": 365, "StreetName": "ESSEX PARK DRIVE"}},
{"geometry": {"type": "Point", "coordinates": [-76.4238834, 37.0763682]}, "type": "Feature", "properties": {"SiteTitle": "Reeds Landing Subdivision", "DateLastIn": " ", "GlobalID": "a7f7e770-e1ed-4f98-8350-422c794f52af", "OBJECTID": 973, "OwnerType": "Private", "Owner_Name": "REEDS LANDING PROP OWNERS ASSOC INC ", "SWMFType": "Detention Basin", "LucityAutoID": "BMP_159_001", "StreetNumb": "3", "ScheduledI": "May_Sept", "Inspection": 365, "StreetName": "KENAN COURT"}},
{"geometry": {"type": "Point", "coordinates": [-76.4167055, 37.0381695]}, "type": "Feature", "properties": {"SiteTitle": "Rossers Run Subdivision", "DateLastIn": " ", "GlobalID": "0580e43a-4bdf-4090-87d2-ee9b1650f406", "OBJECTID": 975, "OwnerType": "Private", "Owner_Name": "SUELO GENARO S & GRACE S ", "SWMFType": "Detention Basin", "LucityAutoID": "BMP_052_001", "StreetNumb": " ", "ScheduledI": "Apr_Aug", "Inspection": 365, "StreetName": "BLACK OAK COURT"}},
{"geometry": {"type": "Point", "coordinates": [-76.4224115, 37.0900488]}, "type": "Feature", "properties": {"SiteTitle": "Samantha Lakes Subdivision", "DateLastIn": " ", "GlobalID": "656a7446-39ca-45c7-85bb-e672c639de30", "OBJECTID": 976, "OwnerType": "Private", "Owner_Name": "SPENCER LEON A & REGINA M ", "SWMFType": "Retention Basin", "LucityAutoID": "BMP_257_001", "StreetNumb": "3", "ScheduledI": "May_Sept", "Inspection": 365, "StreetName": "OLD POND COURT"}},
{"geometry": {"type": "Point", "coordinates": [-76.3789127, 37.0397711]}, "type": "Feature", "properties": {"SiteTitle": "Wal-Mart Supercenter", "DateLastIn": " ", "GlobalID": "997f00d8-bf7b-4f17-b54e-4b9d8b82d75d", "OBJECTID": 977, "OwnerType": "Private", "Owner_Name": "WAL-MART REAL ESTATE BUSINESS TRUST ", "SWMFType": "Detention Basin", "LucityAutoID": "BMP_049_001", "StreetNumb": "1900", "ScheduledI": "June_Oct", "Inspection": 365, "StreetName": "CUNNINGHAM DRIVE"}},
{"geometry": {"type": "Point", "coordinates": [-76.3798716, 37.0275823]}, "type": "Feature", "properties": {"SiteTitle": "Tidewater Senior Apartments", "DateLastIn": " ", "GlobalID": "02afd77a-7175-492a-9ce1-1e74ceb9a479", "OBJECTID": 978, "OwnerType": "Private", "Owner_Name": "TIDEWATER SENIORS APARTMENTS LLC ", "SWMFType": "Detention Basin", "LucityAutoID": "BMP_135_002", "StreetNumb": "1446", "ScheduledI": "Apr_Aug", "Inspection": 365, "StreetName": "W QUEEN STREET"}},
{"geometry": {"type": "Point", "coordinates": [-76.3805152, 37.0254795]}, "type": "Feature", "properties": {"SiteTitle": "Tidewater Senior Apartments", "DateLastIn": " ", "GlobalID": "7435f361-5957-473f-81eb-e964ec5701ce", "OBJECTID": 979, "OwnerType": "Private", "Owner_Name": "TIDEWATER SENIORS APARTMENTS LLC ", "SWMFType": "Detention Basin", "LucityAutoID": "BMP_135_003", "StreetNumb": "1446", "ScheduledI": "Apr_Aug", "Inspection": 365, "StreetName": "W QUEEN STREET"}},
{"geometry": {"type": "Point", "coordinates": [-76.3814107, 37.0411068]}, "type": "Feature", "properties": {"SiteTitle": "Wal-Mart Supercenter", "DateLastIn": " ", "GlobalID": "55b2ee04-fbf5-43ce-b08e-ea69733d2f7f", "OBJECTID": 980, "OwnerType": "Private", "Owner_Name": "WAL-MART REAL ESTATE BUSINESS TRUST ", "SWMFType": "Detention Basin", "LucityAutoID": "BMP_049_002", "StreetNumb": "1900", "ScheduledI": "June_Oct", "Inspection": 365, "StreetName": "CUNNINGHAM DRIVE"}},
{"geometry": {"type": "Point", "coordinates": [-76.4033202, 37.0557414]}, "type": "Feature", "properties": {"SiteTitle": "Navy Federal Credit Union", "DateLastIn": " ", "GlobalID": "d90ab35f-8139-4543-8b57-7ebb3b0bac55", "OBJECTID": 981, "OwnerType": "Private", "Owner_Name": "NAVY FEDERAL CREDIT UNION ", "SWMFType": "Retention Basin", "LucityAutoID": "BMP_217_002", "StreetNumb": "50", "ScheduledI": "June_Oct", "Inspection": 365, "StreetName": "HAMPTON CLUB DRIVE"}},
{"geometry": {"type": "Point", "coordinates": [-76.4208192, 37.0902662]}, "type": "Feature", "properties": {"SiteTitle": "Samantha Lakes Subdivision", "DateLastIn": " ", "GlobalID": "2f969a13-b2cd-44db-a87a-cb6f49b3b97f", "OBJECTID": 982, "OwnerType": "Private", "Owner_Name": "SUGDEN PAUL C ", "SWMFType": "Retention Basin", "LucityAutoID": "BMP_255_001", "StreetNumb": "9", "ScheduledI": "May_Sept", "Inspection": 365, "StreetName": "RESERVIOR LANE"}},
{"geometry": {"type": "Point", "coordinates": [-76.3537407, 37.0513481]}, "type": "Feature", "properties": {"SiteTitle": "Sinclair Commons", "DateLastIn": " ", "GlobalID": "301d325c-d2db-4923-ae2c-b8e7cd3ffacb", "OBJECTID": 983, "OwnerType": "Private", "Owner_Name": "SINCLAIR COMMONS LP ", "SWMFType": "Retention Basin", "LucityAutoID": "BMP_293_002", "StreetNumb": "201", "ScheduledI": "June_Oct", "Inspection": 365, "StreetName": "W GILBERT STREET"}},
{"geometry": {"type": "Point", "coordinates": [-76.430381, 37.0478639]}, "type": "Feature", "properties": {"SiteTitle": "Liberty Baptist Church", "DateLastIn": " ", "GlobalID": "fd35a390-bed3-47d6-ac31-80d59d7169c7", "OBJECTID": 984, "OwnerType": "Private", "Owner_Name": "LIBERTY BAPTIST CHURCH ", "SWMFType": "Retention Basin", "LucityAutoID": "BMP_243_004", "StreetNumb": "1021", "ScheduledI": "July_Nov", "Inspection": 365, "StreetName": "BIG BETHEL ROAD"}},
{"geometry": {"type": "Point", "coordinates": [-76.3873569, 37.026817]}, "type": "Feature", "properties": {"SiteTitle": "Pine Chapel Baptist Church", "DateLastIn": " ", "GlobalID": "c2804891-3d43-4834-aeb6-261bce6c3f6e", "OBJECTID": 985, "OwnerType": "Private", "Owner_Name": "PINE CHAPEL BAPTIST CHURCH ", "SWMFType": "General Infiltration Practices", "LucityAutoID": "BMP_213_001", "StreetNumb": "1544", "ScheduledI": "Apr_Aug", "Inspection": 365, "StreetName": "W QUEEN STREET"}},
{"geometry": {"type": "Point", "coordinates": [-76.3839019, 37.016566]}, "type": "Feature", "properties": {"SiteTitle": "Spivey Rentals Expansion", "DateLastIn": " ", "GlobalID": "1cdc3cdb-14e1-4fdd-9560-46e28a69058f", "OBJECTID": 986, "OwnerType": "Private", "Owner_Name": "SPIVEY CREEK LLC ", "SWMFType": "Extended Detention Basin", "LucityAutoID": "BMP_136_001", "StreetNumb": "250", "ScheduledI": "June_Oct", "Inspection": 365, "StreetName": "SALTERS CREEK ROAD"}},
{"geometry": {"type": "Point", "coordinates": [-76.4003133, 37.0489655]}, "type": "Feature", "properties": {"SiteTitle": "Monticello at Town Center", "DateLastIn": " ", "GlobalID": "0c86041d-9eb8-440e-80f1-a2ce6b5fc373", "OBJECTID": 987, "OwnerType": "Private", "Owner_Name": "GINKGO LAKE RIDGE LLC ", "SWMFType": "Retention Basin", "LucityAutoID": "BMP_278_001", "StreetNumb": " ", "ScheduledI": "June_Oct", "Inspection": 365, "StreetName": "MONTICELLO MEWS"}},
{"geometry": {"type": "Point", "coordinates": [-76.3467825, 37.0468359]}, "type": "Feature", "properties": {"SiteTitle": "Wilsondale Apartments", "DateLastIn": " ", "GlobalID": "dddb2c5c-f889-4049-a979-ab4c4ecb6b99", "OBJECTID": 988, "OwnerType": "Private", "Owner_Name": "WILSONDALE L P ", "SWMFType": "Retention Basin", "LucityAutoID": "BMP_249_001", "StreetNumb": "1100", "ScheduledI": "Apr_Aug", "Inspection": 365, "StreetName": "JONQUIL LANE"}},
{"geometry": {"type": "Point", "coordinates": [-76.3884221, 37.0825079]}, "type": "Feature", "properties": {"SiteTitle": "Cooks Moving and Storage", "DateLastIn": " ", "GlobalID": "2b3aee00-439a-4211-a570-252117f461e1", "OBJECTID": 989, "OwnerType": "Private", "Owner_Name": "EAGLE LEASING INC ", "SWMFType": "Extended Detention Basin", "LucityAutoID": "BMP_009_001", "StreetNumb": "61", "ScheduledI": "May_Sept", "Inspection": 365, "StreetName": "BASIL SAWYER DRIVE"}},
{"geometry": {"type": "Point", "coordinates": [-76.4049017, 37.0198466]}, "type": "Feature", "properties": {"SiteTitle": "Disabled American Veterans Expansion", "DateLastIn": " ", "GlobalID": "754fd5f5-a71d-41a0-a478-7b6a407d572f", "OBJECTID": 990, "OwnerType": "Private", "Owner_Name": "DISABLED AMERICAN VETERANS ", "SWMFType": "Manufactured BMP Systems", "LucityAutoID": "BMP_033_001", "StreetNumb": "913", "ScheduledI": "Apr_Aug", "Inspection": 365, "StreetName": "ABERDEEN ROAD"}},
{"geometry": {"type": "Point", "coordinates": [-76.4034553, 37.0575305]}, "type": "Feature", "properties": {"SiteTitle": "Hampton Roads Center South Campus Ponds", "DateLastIn": " ", "GlobalID": "bad47e0d-c129-4e01-947b-72f5bc5ef389", "OBJECTID": 991, "OwnerType": "Public", "Owner_Name": "HAMPTON RDS CNTR OWNERS ASSOC ", "SWMFType": "Retention Basin", "LucityAutoID": "BMP_309_001", "StreetNumb": " ", "ScheduledI": "June_Oct", "Inspection": 365, "StreetName": "ENTERPRISE PKWY"}},
{"geometry": {"type": "Point", "coordinates": [-76.4064594, 37.0573251]}, "type": "Feature", "properties": {"SiteTitle": "Hampton Roads Center South Campus Ponds", "DateLastIn": " ", "GlobalID": "34546cfb-b2c4-4f40-a87d-8a4cfe7510cd", "OBJECTID": 992, "OwnerType": "Public", "Owner_Name": "HAMPTON RDS CNTR OWNERS ASSOC ", "SWMFType": "Retention Basin", "LucityAutoID": "BMP_211_001", "StreetNumb": " ", "ScheduledI": "June_Oct", "Inspection": 365, "StreetName": "ENTERPRISE PKWY"}},
{"geometry": {"type": "Point", "coordinates": [-76.3919805, 37.0557709]}, "type": "Feature", "properties": {"SiteTitle": "Sentara Hampton General Hospital", "DateLastIn": " ", "GlobalID": "6d51cd42-57b6-4f00-bd19-c7f9d0fb3fcf", "OBJECTID": 993, "OwnerType": "Private", "Owner_Name": "HAMPTON TRAINING SCHOOL NURSES ", "SWMFType": "Retention Basin", "LucityAutoID": "BMP_256_002", "StreetNumb": "3000", "ScheduledI": "June_Oct", "Inspection": 365, "StreetName": "COLISEUM DRIVE"}},
{"geometry": {"type": "Point", "coordinates": [-76.3886909, 37.0558312]}, "type": "Feature", "properties": {"SiteTitle": "Sentara Hampton General Hospital", "DateLastIn": " ", "GlobalID": "253829ab-cf19-4679-9901-bbee7ead9a16", "OBJECTID": 994, "OwnerType": "Private", "Owner_Name": "HAMPTON TRAINING SCHOOL NURSES ", "SWMFType": "Retention Basin", "LucityAutoID": "BMP_256_003", "StreetNumb": "3000", "ScheduledI": "June_Oct", "Inspection": 365, "StreetName": "COLISEUM DRIVE"}},
{"geometry": {"type": "Point", "coordinates": [-76.3921287, 37.0590081]},