{"type":"FeatureCollection","features":[
{"geometry": {"type": "Point", "coordinates": [-77.4290496, 37.5319084]}, "type": "Feature", "properties": {"City": "Richmond", "Name": "Bottoms Up Pizza", "Zip": 23223, "Image": null, "GlobalID": "4642a274-898a-4793-91d4-665a6c1b1686", "OBJECTID": 2, "Address": "1700 Dock St.", "IconType": null, "Description": "At Dock & 17th Sts, across from the Virginia Capital Trail"}},
{"geometry": {"type": "Point", "coordinates": [-77.4161535, 37.518175]}, "type": "Feature", "properties": {"City": "Richmond, Virginia", "Name": "The Boathouse", "Zip": 23231, "Image": null, "GlobalID": "9df78b5a-ff34-4145-a98a-fb1fa9143047", "OBJECTID": 3, "Address": "4708 Old Main St.", "IconType": null, "Description": null}},
{"geometry": {"type": "Point", "coordinates": [-77.4160623, 37.5176134]}, "type": "Feature", "properties": {"City": "Richmond", "Name": "Conch Republic", "Zip": 23231, "Image": null, "GlobalID": "87d005d0-80fe-49a0-bf8f-c12844042d8f", "OBJECTID": 4, "Address": "11 Orleans St.", "IconType": null, "Description": null}},
{"geometry": {"type": "Point", "coordinates": [-77.3301324, 37.4338007]}, "type": "Feature", "properties": {"City": "Henrico", "Name": "Dairy Queen", "Zip": 23231, "Image": null, "GlobalID": "5a6c7826-c5fe-4e17-b1aa-294e90eea4da", "OBJECTID": 5, "Address": "3275 New Market Rd.", "IconType": null, "Description": null}},
{"geometry": {"type": "Point", "coordinates": [-77.0732518, 37.3420001]}, "type": "Feature", "properties": {"City": "Charles City", "Name": "Cul's Courthouse Grille", "Zip": 23030, "Image": null, "GlobalID": "60630882-db63-49cb-a5be-2d99aa2c49fa", "OBJECTID": 6, "Address": "10801 Courthouse Rd.", "IconType": null, "Description": "Delicious!"}},
{"geometry": {"type": "Point", "coordinates": [-76.7835465, 37.2255004]}, "type": "Feature", "properties": {"City": "Williamsburg", "Name": "Jamestown Settlement Cafe", "Zip": 23185, "Image": null, "GlobalID": "19875223-2af4-49a8-9aa7-d4f06f92d15a", "OBJECTID": 7, "Address": "1760 Jamestown Rd.", "IconType": null, "Description": "No reservations needed.  Located inside the Settlement building."}},
{"geometry": {"type": "Point", "coordinates": [-77.4150592, 37.5170305]}, "type": "Feature", "properties": {"City": "Richmond", "Name": "MBargo", "Zip": 23231, "Image": null, "GlobalID": "79ce767d-3f87-4a67-b83d-55f57fceebac", "OBJECTID": 8, "Address": "4821 Old Main St.", "IconType": null, "Description": null}},
{"geometry": {"type": "Point", "coordinates": [-77.371205, 37.4541377]}, "type": "Feature", "properties": {"City": "Henrico", "Name": "Ronnie's BBQ", "Zip": 23231, "Image": null, "GlobalID": "ef69380c-9870-4992-8618-64a775bd4452", "OBJECTID": 9, "Address": "2097 New Market Rd.", "IconType": null, "Description": null}},
{"geometry": {"type": "Point", "coordinates": [-77.3533159, 37.4463065]}, "type": "Feature", "properties": {"City": "Varina", "Name": "Valero Restaurant", "Zip": 23231, "Image": null, "GlobalID": "a970e68e-5528-4639-b5c8-cbab51ddc980", "OBJECTID": 10, "Address": "2650 New Market Rd.", "IconType": null, "Description": null}}
]}