{"type":"FeatureCollection","features":[
{"geometry": {"type": "Point", "coordinates": [-77.3374185, 37.4654338]}, "type": "Feature", "properties": {"City": "Henrico", "Name": "Dorey Park Restrooms", "Zip": 23231, "Image": null, "GlobalID": "ba39a3d9-db66-42db-95b0-56a13cf10920", "OBJECTID": 1, "Address": "2999 Darbytown Rd.", "IconType": 1, "Type": null, "Description": null}},
{"geometry": {"type": "Point", "coordinates": [-77.1863351, 37.3307648]}, "type": "Feature", "properties": {"City": "Charles City", "Name": "Edgewood Plantation", "Zip": 23030, "Image": null, "GlobalID": "7f661e26-f422-4f9b-9cf0-fa30127b7679", "OBJECTID": 2, "Address": "4800 John Tyler Memorial Hwy", "IconType": 0, "Type": "Indoor/Private", "Description": null}},
{"geometry": {"type": "Point", "coordinates": [-76.8714759, 37.2654486]}, "type": "Feature", "properties": {"City": "Williamsburg", "Name": "Chickahominy Riverfront Park", "Zip": 23185, "Image": null, "GlobalID": "2c757e09-da22-481e-b0a9-9683e1f09e75", "OBJECTID": 3, "Address": "1350 John Tyler Memorial Hwy", "IconType": 1, "Type": "Indoor/Public", "Description": null}},
{"geometry": {"type": "Point", "coordinates": [-76.7835156, 37.2257259]}, "type": "Feature", "properties": {"City": "Williamsburg", "Name": "Jamestown Settlement", "Zip": 23185, "Image": null, "GlobalID": "b446b529-62a4-46e4-9cdd-6e93abee8911", "OBJECTID": 4, "Address": "2110 Jamestown Rd", "IconType": 0, "Type": "Public indoors", "Description": "Inside the visitors center"}},
{"geometry": {"type": "Point", "coordinates": [-77.4213677, 37.5267013]}, "type": "Feature", "properties": {"City": "Richmond", "Name": "Shiplock Park", "Zip": 23223, "Image": null, "GlobalID": "143a06c2-8ff8-43a4-b3b0-cf65fdcb3f3c", "OBJECTID": 5, "Address": "2803 Dock St.", "IconType": null, "Type": "", "Description": "1 porta potty"}},
{"geometry": {"type": "Point", "coordinates": [-77.4035015, 37.4894025]}, "type": "Feature", "properties": {"City": "Richmond", "Name": "7-Eleven", "Zip": 23231, "Image": null, "GlobalID": "a55aaf70-f2b7-4c1b-9a0e-d933407654ea", "OBJECTID": 6, "Address": "1125 New Market Rd.", "IconType": null, "Type": null, "Description": "Try to buy something so the owner will continue letting trail users use the bathrooms."}},
{"geometry": {"type": "Point", "coordinates": [-77.3802789, 37.4599078]}, "type": "Feature", "properties": {"City": "Varina", "Name": "Varina Library", "Zip": 23231, "Image": null, "GlobalID": "c6059a17-58e9-4478-8968-f4f138d58858", "OBJECTID": 7, "Address": "1875 New Market Rd.", "IconType": null, "Type": "Indoors private", "Description": "Opening March 2016"}},
{"geometry": {"type": "Point", "coordinates": [-77.3303362, 37.4340989]}, "type": "Feature", "properties": {"City": "Henrico", "Name": "Exxon Station / Dairy Queen", "Zip": 23231, "Image": null, "GlobalID": "a04d9071-7b1b-47a4-86b3-24e32efff7e4", "OBJECTID": 8, "Address": "3275 New Market Rd.", "IconType": null, "Type": null, "Description": null}},
{"geometry": {"type": "Point", "coordinates": [-77.0987972, 37.3184117]}, "type": "Feature", "properties": {"City": "Charles City", "Name": "Lawrence Lewis Jr. Park", "Zip": 23030, "Image": null, "GlobalID": "b137642e-6707-4cc6-aa45-8b39acda72db", "OBJECTID": 9, "Address": "12400 Wilcox Warf Rd.", "IconType": null, "Type": null, "Description": null}},
{"geometry": {"type": "Point", "coordinates": [-77.0722433, 37.3417954]}, "type": "Feature", "properties": {"City": "Charles City", "Name": "Charles City Courthouse Visitors Center", "Zip": 23030, "Image": null, "GlobalID": "4eec45d5-023b-45dd-9875-e169f2e35f0c", "OBJECTID": 10, "Address": "10760 Courthouse Rd.", "IconType": null, "Type": "Public restrooms", "Description": "Should remain unlocked at all times"}},
{"geometry": {"type": "Point", "coordinates": [-77.3542601, 37.4472605]}, "type": "Feature", "properties": {"City": "Varina", "Name": "Valero", "Zip": 23231, "Image": null, "GlobalID": "1446dc7d-afe9-4644-a069-7789724d53b4", "OBJECTID": 11, "Address": "2650 New Market Rd.", "IconType": null, "Type": "private, indoors", "Description": null}},
{"geometry": {"type": "Point", "coordinates": [-77.3542601, 37.4472605]}, "type": "Feature", "properties": {"City": null, "Name": null, "Zip": null, "Image": null, "GlobalID": "9133e5f7-edfd-4a35-a123-4b95087b3a16", "OBJECTID": 12, "Address": null, "IconType": null, "Type": null, "Description": null}}
]}