{"type":"FeatureCollection","features":[
{"geometry": {"type": "Point", "coordinates": [-77.3410663, 37.4624703]}, "type": "Feature", "properties": {"City": "Henrico", "Name": "Dorey Park Picnic Area", "Zip": 23231, "Image": "", "GlobalID": "99c8c140-6d68-4748-bfa3-0a04000c2ac1", "OBJECTID": 2, "Address": "2999 Darbytown Rd.", "IconType": null, "Description": null}},
{"geometry": {"type": "Point", "coordinates": [-76.8721411, 37.2653974]}, "type": "Feature", "properties": {"City": "Williamsburg", "Name": "Chickahominy Riverfront Park", "Zip": 23185, "Image": null, "GlobalID": "f3a09514-a0ca-4ab0-9c87-64a09fd157ff", "OBJECTID": 4, "Address": "1350 John Tyler Memorial Hwy", "IconType": null, "Description": null}},
{"geometry": {"type": "Point", "coordinates": [-77.3300573, 37.4341755]}, "type": "Feature", "properties": {"City": "Henrico", "Name": "Exxon Station / Dairy Queen", "Zip": 23231, "Image": null, "GlobalID": "f70fdc3b-775b-4518-9912-3c1ebcaa5fab", "OBJECTID": 5, "Address": "3275 New Market Rd.", "IconType": null, "Description": null}},
{"geometry": {"type": "Point", "coordinates": [-77.1821388, 37.3303689]}, "type": "Feature", "properties": {"City": "Charles City", "Name": "Herring Creek Trailhead", "Zip": 23030, "Image": null, "GlobalID": "e3f212ae-3524-4d07-bd59-e3691e38e966", "OBJECTID": 6, "Address": "5100 Herring Creek Road", "IconType": null, "Description": "Two picnic tables"}},
{"geometry": {"type": "Point", "coordinates": [-77.0988723, 37.3181557]}, "type": "Feature", "properties": {"City": "Charles City", "Name": "Lawrence Lewis Jr. Park", "Zip": 23030, "Image": null, "GlobalID": "0eb027b5-9fb8-4b2d-aa90-c517d40cb35a", "OBJECTID": 7, "Address": "12400 Wilcox Warf Rd.", "IconType": null, "Description": "Picnic Tables and grills available"}},
{"geometry": {"type": "Point", "coordinates": [-76.7830529, 37.2255431]}, "type": "Feature", "properties": {"City": "Williamsburg", "Name": "Jamestown Settlement", "Zip": 23185, "Image": null, "GlobalID": "f41e406a-2b66-46d9-b94f-52e098a9a346", "OBJECTID": 8, "Address": "2110 Jamestown Rd", "IconType": null, "Description": null}}
]}