{"type":"FeatureCollection","features":[
{"geometry": {"type": "Point", "coordinates": [-77.4035001, 37.4895549]}, "type": "Feature", "properties": {"City": "Richmond", "Name": "7-Eleven", "OBJECTID": 1, "Image": null, "Zip": 23231, "GlobalID": "412a6e50-e6a8-4421-9fde-6119abb89110", "Address": "1125 New Market Road", "IconType": 1, "Description": "No parking for trail use allowed."}},
{"geometry": {"type": "Point", "coordinates": [-77.4023414, 37.4896571]}, "type": "Feature", "properties": {"City": "Richmond", "Name": "BP", "OBJECTID": 2, "Image": null, "Zip": 23231, "GlobalID": "0ac44a4d-a903-4b22-b19b-84647ee62ebf", "Address": "1130 New Market Road", "IconType": 1, "Description": ""}},
{"geometry": {"type": "Point", "coordinates": [-77.0623795, 37.3412615]}, "type": "Feature", "properties": {"City": "Charles City", "Name": "Haupt's Country Store", "OBJECTID": 4, "Image": null, "Zip": 23030, "GlobalID": "1254927e-3f89-41fe-af6b-a4ce6ede9f29", "Address": "11911 John Tyler Memorial Hwy", "IconType": 1, "Description": null}},
{"geometry": {"type": "Point", "coordinates": [-76.9641892, 37.3101639]}, "type": "Feature", "properties": {"City": "Charles City", "Name": "Sandy Point Superette", "OBJECTID": 5, "Image": null, "Zip": 23030, "GlobalID": "6bcf1e81-8926-47f6-9921-292d7c4187b8", "Address": "17701 John Tyler Memorial Hwy", "IconType": 1, "Description": ""}},
{"geometry": {"type": "Point", "coordinates": [-77.329789, 37.4339796]}, "type": "Feature", "properties": {"City": "Henrico", "Name": "Exxon Station / Dairy Queen", "OBJECTID": 6, "Image": null, "Zip": 23231, "GlobalID": "3192c880-14ed-4959-ba54-3f962ef75e0e", "Address": "3275 New Market Rd.", "IconType": null, "Description": null}},
{"geometry": {"type": "Point", "coordinates": [-76.8726548, 37.2665338]}, "type": "Feature", "properties": {"City": "Willamsburg", "Name": "Chickahominy Riverfront Camp Store", "OBJECTID": 7, "Image": "23185", "Zip": null, "GlobalID": "c2064a86-3679-4571-beca-4412a1657bb4", "Address": "1350 John Tyler Memorial Hwy", "IconType": null, "Description": null}},
{"geometry": {"type": "Point", "coordinates": [-77.3532772, 37.443035]}, "type": "Feature", "properties": {"City": "Richmond", "Name": "Food Lion", "OBJECTID": 8, "Image": null, "Zip": 23231, "GlobalID": "34188ebf-25a0-4672-99b6-604270b13dbb", "Address": "2599 New Market Rd.", "IconType": null, "Description": null}},
{"geometry": {"type": "Point", "coordinates": [-77.3501402, 37.4454206]}, "type": "Feature", "properties": {"City": "Varina", "Name": "Rite Aid", "OBJECTID": 10, "Image": null, "Zip": 23231, "GlobalID": "49704f87-3860-489e-ac5a-2dec45e07516", "Address": "2664 New Market Rd.", "IconType": null, "Description": null}}
]}