{"type":"FeatureCollection","features":[
{"geometry": {"type": "Point", "coordinates": [-79.1493041, 37.4115163]}, "type": "Feature", "properties": {"CenterType": "Neighborhood Center", "Name": "College Hill Neighborhood Center", "OBJECTID": 1, "Phone": "847-1418", "Link": "http://www.lynchburgparksandrec.com/community-centers/college-hill-center/", "Address": "811 JACKSON ST"}},
{"geometry": {"type": "Point", "coordinates": [-79.1451268, 37.4228398]}, "type": "Feature", "properties": {"CenterType": "Neighborhood Center", "Name": "Daniel's Hill Neighborhood Center", "OBJECTID": 2, "Phone": "847-1396", "Link": "http://www.lynchburgparksandrec.com/community-centers/daniels-hill-center/", "Address": "317 NORWOOD ST"}},
{"geometry": {"type": "Point", "coordinates": [-79.1446901, 37.4043499]}, "type": "Feature", "properties": {"CenterType": "Neighborhood Center", "Name": "Diamond Hill Neighborhood Center", "OBJECTID": 3, "Phone": "847-1409", "Link": "http://www.lynchburgparksandrec.com/community-centers/diamond-hill-center/", "Address": "1005 17TH ST"}},
{"geometry": {"type": "Point", "coordinates": [-79.1388551, 37.3817596]}, "type": "Feature", "properties": {"CenterType": "Neighborhood Center", "Name": "Fairview Heights Neighborhood Center", "OBJECTID": 4, "Phone": "847-1751", "Link": "http://www.lynchburgparksandrec.com/community-centers/fairview-center/", "Address": "3621 CAMPBELL AVE"}},
{"geometry": {"type": "Point", "coordinates": [-79.1276132, 37.3867417]}, "type": "Feature", "properties": {"CenterType": "City-Wide Community Center", "Name": "Art Studio at Jackson Heights", "OBJECTID": 5, "Phone": "455-4001", "Link": "http://www.lynchburgparksandrec.com/community-centers/the-art-studio-at-jackson-heights/", "Address": "720 WINSTON RIDGE RD"}},
{"geometry": {"type": "Point", "coordinates": [-79.1639576, 37.416415]}, "type": "Feature", "properties": {"CenterType": "Neighborhood Center", "Name": "Jefferson Park Neighborhood Center", "OBJECTID": 6, "Phone": "847-1405", "Link": "http://www.lynchburgparksandrec.com/community-centers/jefferson-park-center/", "Address": "405 YORK ST"}},
{"geometry": {"type": "Point", "coordinates": [-79.2238748, 37.4087038]}, "type": "Feature", "properties": {"CenterType": "City-Wide Community Center", "Name": "Templeton Senior Center", "OBJECTID": 7, "Phone": "455-4115", "Link": "http://www.lynchburgparksandrec.com/community-centers/templeton-senior-center/", "Address": "225 WIGGINGTON RD"}},
{"geometry": {"type": "Point", "coordinates": [-79.1542227, 37.4169431]}, "type": "Feature", "properties": {"CenterType": "Neighborhood Center", "Name": "Yoder Neighborhood Center", "OBJECTID": 8, "Phone": "847-1645", "Link": "http://www.lynchburgparksandrec.com/community-centers/yoder-center/", "Address": "109 JACKSON ST"}},
{"geometry": {"type": "Point", "coordinates": [-79.1647696, 37.402769]}, "type": "Feature", "properties": {"CenterType": "City-Wide Community Center", "Name": "Miller Center", "OBJECTID": 9, "Phone": "455-5858", "Link": "http://www.lynchburgparksandrec.com/community-centers/miller-center/", "Address": "301 GROVE ST"}}
]}