{"type":"FeatureCollection","features":[
{"geometry": {"type": "Point", "coordinates": [-92.490007, 40.0300073]}, "type": "Feature", "properties": {"Time_": 1205, "OBJECTID": 1, "Size_": 100, "Lon": -92.49, "Comments": "(EAX)", "County": "MACON", "State": "MO", "Location": "LA PLATA", "Lat": 40.03}},
{"geometry": {"type": "Point", "coordinates": [-90.4000063, 39.7700073]}, "type": "Feature", "properties": {"Time_": 1355, "OBJECTID": 2, "Size_": 100, "Lon": -90.4, "Comments": "(ILX)", "County": "MORGAN", "State": "IL", "Location": "CHAPIN", "Lat": 39.77}},
{"geometry": {"type": "Point", "coordinates": [-90.9900065, 39.7900073]}, "type": "Feature", "properties": {"Time_": 1358, "OBJECTID": 3, "Size_": 100, "Lon": -90.99, "Comments": "(LSX)", "County": "ADAMS", "State": "IL", "Location": "BEVERLY", "Lat": 39.79}},
{"geometry": {"type": "Point", "coordinates": [-92.4100068, 38.620007]}, "type": "Feature", "properties": {"Time_": 1402, "OBJECTID": 4, "Size_": 100, "Lon": -92.41, "Comments": "(LSX)", "County": "COLE", "State": "MO", "Location": "CENTERTOWN", "Lat": 38.62}},
{"geometry": {"type": "Point", "coordinates": [-91.5300066, 39.5100072]}, "type": "Feature", "properties": {"Time_": 1402, "OBJECTID": 5, "Size_": 100, "Lon": -91.53, "Comments": "(LSX)", "County": "RALLS", "State": "MO", "Location": "CENTER", "Lat": 39.51}},
{"geometry": {"type": "Point", "coordinates": [-92.4100068, 38.620007]}, "type": "Feature", "properties": {"Time_": 1409, "OBJECTID": 6, "Size_": 175, "Lon": -92.41, "Comments": "MEDIA RELAYED A REPORT FROM THE PUBLIC (LSX)", "County": "COLE", "State": "MO", "Location": "CENTERTOWN", "Lat": 38.62}},
{"geometry": {"type": "Point", "coordinates": [-92.1900067, 38.570007]}, "type": "Feature", "properties": {"Time_": 1425, "OBJECTID": 7, "Size_": 100, "Lon": -92.19, "Comments": "EAST SIDE OF JEFFERSON CITY. LASTED 3 TO 4 MINUTES. (LSX)", "County": "COLE", "State": "MO", "Location": "JEFFERSON CITY", "Lat": 38.57}},
{"geometry": {"type": "Point", "coordinates": [-92.0900067, 38.7200071]}, "type": "Feature", "properties": {"Time_": 1425, "OBJECTID": 8, "Size_": 100, "Lon": -92.09, "Comments": "HAIL LASTED 2 MINUTES...RANGED FROM NICKEL SIZE TO QUARTER SIZE (LSX)", "County": "CALLAWAY", "State": "MO", "Location": "NEW BLOOMFIELD", "Lat": 38.72}},
{"geometry": {"type": "Point", "coordinates": [-91.7000066, 38.9200071]}, "type": "Feature", "properties": {"Time_": 1425, "OBJECTID": 9, "Size_": 100, "Lon": -91.7, "Comments": "HAIL LASTED ABOUT ONE MINUTE (LSX)", "County": "CALLAWAY", "State": "MO", "Location": "WILLIAMSBURG", "Lat": 38.92}},
{"geometry": {"type": "Point", "coordinates": [-91.7000066, 38.480007]}, "type": "Feature", "properties": {"Time_": 1455, "OBJECTID": 10, "Size_": 125, "Lon": -91.7, "Comments": "(LSX)", "County": "OSAGE", "State": "MO", "Location": "8 E LINN", "Lat": 38.48}},
{"geometry": {"type": "Point", "coordinates": [-91.5000065, 38.350007]}, "type": "Feature", "properties": {"Time_": 1510, "OBJECTID": 11, "Size_": 100, "Lon": -91.5, "Comments": "(LSX)", "County": "GASCONADE", "State": "MO", "Location": "OWENSVILLE", "Lat": 38.35}},
{"geometry": {"type": "Point", "coordinates": [-91.6100066, 38.5800071]}, "type": "Feature", "properties": {"Time_": 1511, "OBJECTID": 12, "Size_": 100, "Lon": -91.61, "Comments": "(LSX)", "County": "GASCONADE", "State": "MO", "Location": "PERSHING", "Lat": 38.58}},
{"geometry": {"type": "Point", "coordinates": [-91.5000065, 38.350007]}, "type": "Feature", "properties": {"Time_": 1515, "OBJECTID": 13, "Size_": 100, "Lon": -91.5, "Comments": "(LSX)", "County": "GASCONADE", "State": "MO", "Location": "OWENSVILLE", "Lat": 38.35}},
{"geometry": {"type": "Point", "coordinates": [-91.4000065, 38.390007]}, "type": "Feature", "properties": {"Time_": 1524, "OBJECTID": 14, "Size_": 100, "Lon": -91.4, "Comments": "HAIL JUST STARTED. REPORT JUST EAST OF ROSEBUD ON GASCONADE AND FRANKLIN COUNTY LINES. (LSX)", "County": "GASCONADE", "State": "MO", "Location": "ROSEBUD", "Lat": 38.39}},
{"geometry": {"type": "Point", "coordinates": [-91.5000065, 38.350007]}, "type": "Feature", "properties": {"Time_": 1530, "OBJECTID": 15, "Size_": 100, "Lon": -91.5, "Comments": "(LSX)", "County": "GASCONADE", "State": "MO", "Location": "OWENSVILLE", "Lat": 38.35}},
{"geometry": {"type": "Point", "coordinates": [-91.2200065, 38.6100071]}, "type": "Feature", "properties": {"Time_": 1539, "OBJECTID": 16, "Size_": 100, "Lon": -91.22, "Comments": "(LSX)", "County": "FRANKLIN", "State": "MO", "Location": "NEW HAVEN", "Lat": 38.61}},
{"geometry": {"type": "Point", "coordinates": [-91.0600064, 38.4900071]}, "type": "Feature", "properties": {"Time_": 1547, "OBJECTID": 17, "Size_": 100, "Lon": -91.06, "Comments": "(LSX)", "County": "FRANKLIN", "State": "MO", "Location": "4 NW UNION", "Lat": 38.49}},
{"geometry": {"type": "Point", "coordinates": [-90.4400063, 38.6600071]}, "type": "Feature", "properties": {"Time_": 1552, "OBJECTID": 18, "Size_": 100, "Lon": -90.44, "Comments": "(LSX)", "County": "ST. LOUIS", "State": "MO", "Location": "CREVE COEUR", "Lat": 38.66}},
{"geometry": {"type": "Point", "coordinates": [-90.4800063, 38.7200071]}, "type": "Feature", "properties": {"Time_": 1555, "OBJECTID": 19, "Size_": 100, "Lon": -90.48, "Comments": "(LSX)", "County": "ST. LOUIS", "State": "MO", "Location": "MARYLAND HEIGHTS", "Lat": 38.72}},
{"geometry": {"type": "Point", "coordinates": [-91.0500064, 38.300007]}, "type": "Feature", "properties": {"Time_": 1602, "OBJECTID": 20, "Size_": 175, "Lon": -91.05, "Comments": "HAIL OBSERVED IN THE TOWN OF ANACONDA (LSX)", "County": "FRANKLIN", "State": "MO", "Location": "5 SW ST. CLAIR", "Lat": 38.3}},
{"geometry": {"type": "Point", "coordinates": [-90.9400064, 38.3800071]}, "type": "Feature", "properties": {"Time_": 1608, "OBJECTID": 21, "Size_": 100, "Lon": -90.94, "Comments": "MAINLY NICKEL SIZED...A FEW QUARTER SIZED HAIL STONES (LSX)", "County": "FRANKLIN", "State": "MO", "Location": "3 NE ST. CLAIR", "Lat": 38.38}},
{"geometry": {"type": "Point", "coordinates": [-90.1100062, 38.7100072]}, "type": "Feature", "properties": {"Time_": 1611, "OBJECTID": 22, "Size_": 100, "Lon": -90.11, "Comments": "(LSX)", "County": "MADISON", "State": "IL", "Location": "1 E GRANITE CITY", "Lat": 38.71}},
{"geometry": {"type": "Point", "coordinates": [-90.7800063, 38.4100071]}, "type": "Feature", "properties": {"Time_": 1613, "OBJECTID": 23, "Size_": 100, "Lon": -90.78, "Comments": "(LSX)", "County": "FRANKLIN", "State": "MO", "Location": "2 E ROBERTSVILLE", "Lat": 38.41}},
{"geometry": {"type": "Point", "coordinates": [-90.1300062, 38.7100072]}, "type": "Feature", "properties": {"Time_": 1615, "OBJECTID": 24, "Size_": 100, "Lon": -90.13, "Comments": "QUARTER SIZE AND SLIGHTLY LARGER (LSX)", "County": "MADISON", "State": "IL", "Location": "GRANITE CITY", "Lat": 38.71}},
{"geometry": {"type": "Point", "coordinates": [-89.9700061, 38.8000072]}, "type": "Feature", "properties": {"Time_": 1615, "OBJECTID": 25, "Size_": 150, "Lon": -89.97, "Comments": "HAIL OBSERVED AT SIU (LSX)", "County": "MADISON", "State": "IL", "Location": "EDWARDSVILLE", "Lat": 38.8}},
{"geometry": {"type": "Point", "coordinates": [-89.6600061, 39.1800073]}, "type": "Feature", "properties": {"Time_": 1622, "OBJECTID": 26, "Size_": 100, "Lon": -89.66, "Comments": "(LSX)", "County": "MONTGOMERY", "State": "IL", "Location": "LITCHFIELD", "Lat": 39.18}},
{"geometry": {"type": "Point", "coordinates": [-90.3200062, 38.5000071]}, "type": "Feature", "properties": {"Time_": 1632, "OBJECTID": 27, "Size_": 100, "Lon": -90.32, "Comments": "HAIL LASTED ABOUT TWO MINUTES AT 270 AND TESSON FERRY (LSX)", "County": "ST. LOUIS", "State": "MO", "Location": "MEHLVILLE", "Lat": 38.5}},
{"geometry": {"type": "Point", "coordinates": [-90.4600063, 38.5300071]}, "type": "Feature", "properties": {"Time_": 1640, "OBJECTID": 28, "Size_": 125, "Lon": -90.46, "Comments": "1.25 INCH HAIL...ADDITIONALLY SOME SIDING BLOWN OFF MOBILE HOME. ALTHOUGH WIND ESTIMATED TO BE LESS THAN 60 MPH. (LSX)", "County": "ST. LOUIS", "State": "MO", "Location": "1 SW FENTON", "Lat": 38.53}},
{"geometry": {"type": "Point", "coordinates": [-90.4600063, 38.5300071]}, "type": "Feature", "properties": {"Time_": 1645, "OBJECTID": 29, "Size_": 125, "Lon": -90.46, "Comments": "(LSX)", "County": "ST. LOUIS", "State": "MO", "Location": "1 SW FENTON", "Lat": 38.53}},
{"geometry": {"type": "Point", "coordinates": [-87.8400055, 38.1700072]}, "type": "Feature", "properties": {"Time_": 1743, "OBJECTID": 30, "Size_": 100, "Lon": -87.84, "Comments": "(PAH)", "County": "POSEY", "State": "IN", "Location": "3 W POSEYVILLE", "Lat": 38.17}},
{"geometry": {"type": "Point", "coordinates": [-87.6900055, 38.7400073]}, "type": "Feature", "properties": {"Time_": 1805, "OBJECTID": 31, "Size_": 100, "Lon": -87.69, "Comments": "(ILX)", "County": "LAWRENCE", "State": "IL", "Location": "1 N LAWRENCEVILLE", "Lat": 38.74}},
{"geometry": {"type": "Point", "coordinates": [-88.1600056, 38.9200073]}, "type": "Feature", "properties": {"Time_": 1810, "OBJECTID": 32, "Size_": 100, "Lon": -88.16, "Comments": "NICKEL TO QUARTER SIZED HAIL. (ILX)", "County": "JASPER", "State": "IL", "Location": "5 S NEWTON", "Lat": 38.92}},
{"geometry": {"type": "Point", "coordinates": [-88.1600056, 38.9900073]}, "type": "Feature", "properties": {"Time_": 1810, "OBJECTID": 33, "Size_": 100, "Lon": -88.16, "Comments": "(ILX)", "County": "JASPER", "State": "IL", "Location": "NEWTON", "Lat": 38.99}},
{"geometry": {"type": "Point", "coordinates": [-87.8600055, 38.8400073]}, "type": "Feature", "properties": {"Time_": 1827, "OBJECTID": 34, "Size_": 100, "Lon": -87.86, "Comments": "(ILX)", "County": "LAWRENCE", "State": "IL", "Location": "10 W BIRDS", "Lat": 38.84}},
{"geometry": {"type": "Point", "coordinates": [-88.3500057, 38.6900072]}, "type": "Feature", "properties": {"Time_": 1830, "OBJECTID": 35, "Size_": 175, "Lon": -88.35, "Comments": "(ILX)", "County": "CLAY", "State": "IL", "Location": "CLAY CITY", "Lat": 38.69}},
{"geometry": {"type": "Point", "coordinates": [-87.6300055, 38.8400073]}, "type": "Feature", "properties": {"Time_": 1839, "OBJECTID": 36, "Size_": 100, "Lon": -87.63, "Comments": "DELAYED REPORT VIA COCORAHS (ILX)", "County": "LAWRENCE", "State": "IL", "Location": "2 E BIRDS", "Lat": 38.84}},
{"geometry": {"type": "Point", "coordinates": [-87.6900055, 38.7400073]}, "type": "Feature", "properties": {"Time_": 1840, "OBJECTID": 37, "Size_": 100, "Lon": -87.69, "Comments": "(ILX)", "County": "LAWRENCE", "State": "IL", "Location": "1 N LAWRENCEVILLE", "Lat": 38.74}},
{"geometry": {"type": "Point", "coordinates": [-94.4300072, 37.2400067]}, "type": "Feature", "properties": {"Time_": 2050, "OBJECTID": 38, "Size_": 100, "Lon": -94.43, "Comments": "ONE INCH HAIL REPORTED IN PURCELL. (SGF)", "County": "JASPER", "State": "MO", "Location": "PURCELL", "Lat": 37.24}},
{"geometry": {"type": "Point", "coordinates": [-95.8000075, 36.1700064]}, "type": "Feature", "properties": {"Time_": 2055, "OBJECTID": 39, "Size_": 125, "Lon": -95.8, "Comments": "(TSA)", "County": "ROGERS", "State": "OK", "Location": "3 WSW CATOOSA", "Lat": 36.17}},
{"geometry": {"type": "Point", "coordinates": [-91.2800067, 40.6200074]}, "type": "Feature", "properties": {"Time_": 2115, "OBJECTID": 40, "Size_": 100, "Lon": -91.28, "Comments": "(DVN)", "County": "HANCOCK", "State": "IL", "Location": "NIOTA", "Lat": 40.62}},
{"geometry": {"type": "Point", "coordinates": [-95.5600074, 36.2600064]}, "type": "Feature", "properties": {"Time_": 2125, "OBJECTID": 41, "Size_": 175, "Lon": -95.56, "Comments": "THUNDERSTORM WIND GUSTS TO 60 MPH ALSO REPORTED (TSA)", "County": "ROGERS", "State": "OK", "Location": "TIAWAH", "Lat": 36.26}},
{"geometry": {"type": "Point", "coordinates": [-81.3600032, 32.2700062]}, "type": "Feature", "properties": {"Time_": 2131, "OBJECTID": 42, "Size_": 100, "Lon": -81.36, "Comments": "QUARTER SIZE HAIL WAS REPORTED ON COURTHOUSE ROAD NEAR MIDLAND ROAD. (CHS)", "County": "EFFINGHAM", "State": "GA", "Location": "2 E MARLOW", "Lat": 32.27}},
{"geometry": {"type": "Point", "coordinates": [-94.7200073, 36.6800066]}, "type": "Feature", "properties": {"Time_": 2145, "OBJECTID": 43, "Size_": 175, "Lon": -94.72, "Comments": "(TSA)", "County": "OTTAWA", "State": "OK", "Location": "8 S WYANDOTTE", "Lat": 36.68}},
{"geometry": {"type": "Point", "coordinates": [-94.3700072, 36.8300066]}, "type": "Feature", "properties": {"Time_": 2145, "OBJECTID": 44, "Size_": 250, "Lon": -94.37, "Comments": "FIRE CHIEF COLLECTED TENNIS BALL HAIL (SGF)", "County": "NEWTON", "State": "MO", "Location": "3 S NEOSHO", "Lat": 36.83}},
{"geometry": {"type": "Point", "coordinates": [-96.4300076, 35.8000063]}, "type": "Feature", "properties": {"Time_": 2147, "OBJECTID": 45, "Size_": 100, "Lon": -96.43, "Comments": "(TSA)", "County": "CREEK", "State": "OK", "Location": "3 SW BRISTOW", "Lat": 35.8}},
{"geometry": {"type": "Point", "coordinates": [-96.0100075, 35.9600064]}, "type": "Feature", "properties": {"Time_": 2147, "OBJECTID": 46, "Size_": 175, "Lon": -96.01, "Comments": "(TSA)", "County": "TULSA", "State": "OK", "Location": "GLENPOOL", "Lat": 35.96}},
{"geometry": {"type": "Point", "coordinates": [-95.8800075, 35.9400064]}, "type": "Feature", "properties": {"Time_": 2150, "OBJECTID": 47, "Size_": 175, "Lon": -95.88, "Comments": "(TSA)", "County": "TULSA", "State": "OK", "Location": "BIXBY", "Lat": 35.94}},
{"geometry": {"type": "Point", "coordinates": [-95.3200074, 36.3100065]}, "type": "Feature", "properties": {"Time_": 2150, "OBJECTID": 48, "Size_": 100, "Lon": -95.32, "Comments": "(TSA)", "County": "MAYES", "State": "OK", "Location": "PRYOR", "Lat": 36.31}},
{"geometry": {"type": "Point", "coordinates": [-95.8800075, 35.9400064]}, "type": "Feature", "properties": {"Time_": 2200, "OBJECTID": 49, "Size_": 175, "Lon": -95.88, "Comments": "111TH AND MINGO (TSA)", "County": "TULSA", "State": "OK", "Location": "BIXBY", "Lat": 35.94}},
{"geometry": {"type": "Point", "coordinates": [-95.9700075, 36.0200064]}, "type": "Feature", "properties": {"Time_": 2200, "OBJECTID": 50, "Size_": 100, "Lon": -95.97, "Comments": "121ST AND PEORIA (TSA)", "County": "TULSA", "State": "OK", "Location": "JENKS", "Lat": 36.02}},
{"geometry": {"type": "Point", "coordinates": [-92.5700069, 38.750007]}, "type": "Feature", "properties": {"Time_": 2200, "OBJECTID": 51, "Size_": 200, "Lon": -92.57, "Comments": "(LSX)", "County": "MONITEAU", "State": "MO", "Location": "8 N CALIFORNIA", "Lat": 38.75}},
{"geometry": {"type": "Point", "coordinates": [-92.5700069, 38.750007]}, "type": "Feature", "properties": {"Time_": 2204, "OBJECTID": 52, "Size_": 250, "Lon": -92.57, "Comments": "(LSX)", "County": "MONITEAU", "State": "MO", "Location": "8 N CALIFORNIA", "Lat": 38.75}},
{"geometry": {"type": "Point", "coordinates": [-81.3300032, 32.1800062]}, "type": "Feature", "properties": {"Time_": 2205, "OBJECTID": 53, "Size_": 100, "Lon": -81.33, "Comments": "(CHS)", "County": "EFFINGHAM", "State": "GA", "Location": "4 E EDEN", "Lat": 32.18}},
{"geometry": {"type": "Point", "coordinates": [-95.7900075, 36.0500064]}, "type": "Feature", "properties": {"Time_": 2205, "OBJECTID": 54, "Size_": 150, "Lon": -95.79, "Comments": "101ST AND 145TH (TSA)", "County": "TULSA", "State": "OK", "Location": "BROKEN ARROW", "Lat": 36.05}},
{"geometry": {"type": "Point", "coordinates": [-95.8800075, 35.9400064]}, "type": "Feature", "properties": {"Time_": 2206, "OBJECTID": 55, "Size_": 175, "Lon": -95.88, "Comments": "(TSA)", "County": "TULSA", "State": "OK", "Location": "BIXBY", "Lat": 35.94}},
{"geometry": {"type": "Point", "coordinates": [-95.7900075, 36.0100064]}, "type": "Feature", "properties": {"Time_": 2206, "OBJECTID": 56, "Size_": 150, "Lon": -95.79, "Comments": "(TSA)", "County": "TULSA", "State": "OK", "Location": "3 S BROKEN ARROW", "Lat": 36.01}},
{"geometry": {"type": "Point", "coordinates": [-95.9300075, 36.0200064]}, "type": "Feature", "properties": {"Time_": 2209, "OBJECTID": 57, "Size_": 100, "Lon": -95.93, "Comments": "CREEK TURNPIKE AND HARVARD (TSA)", "County": "TULSA", "State": "OK", "Location": "2 E JENKS", "Lat": 36.02}},
{"geometry": {"type": "Point", "coordinates": [-95.8800075, 35.9400064]}, "type": "Feature", "properties": {"Time_": 2210, "OBJECTID": 58, "Size_": 250, "Lon": -95.88, "Comments": "(TSA)", "County": "TULSA", "State": "OK", "Location": "BIXBY", "Lat": 35.94}},
{"geometry": {"type": "Point", "coordinates": [-95.9700075, 36.0200064]}, "type": "Feature", "properties": {"Time_": 2210, "OBJECTID": 59, "Size_": 100, "Lon": -95.97, "Comments": "121ST AND PEORIA (TSA)", "County": "TULSA", "State": "OK", "Location": "JENKS", "Lat": 36.02}},
{"geometry": {"type": "Point", "coordinates": [-95.8800075, 35.9400064]}, "type": "Feature", "properties": {"Time_": 2213, "OBJECTID": 60, "Size_": 175, "Lon": -95.88, "Comments": "(TSA)", "County": "TULSA", "State": "OK", "Location": "BIXBY", "Lat": 35.94}},
{"geometry": {"type": "Point", "coordinates": [-92.3700068, 38.690007]}, "type": "Feature", "properties": {"Time_": 2221, "OBJECTID": 61, "Size_": 175, "Lon": -92.37, "Comments": "REPORT RELAYED THROUGH MO TROOP F (LSX)", "County": "COLE", "State": "MO", "Location": "MARION", "Lat": 38.69}},
{"geometry": {"type": "Point", "coordinates": [-95.2100074, 36.2900065]}, "type": "Feature", "properties": {"Time_": 2222, "OBJECTID": 62, "Size_": 175, "Lon": -95.21, "Comments": "(TSA)", "County": "MAYES", "State": "OK", "Location": "3 W SALINA", "Lat": 36.29}},
{"geometry": {"type": "Point", "coordinates": [-95.7100075, 36.0200064]}, "type": "Feature", "properties": {"Time_": 2223, "OBJECTID": 63, "Size_": 100, "Lon": -95.71, "Comments": "(TSA)", "County": "WAGONER", "State": "OK", "Location": "ONETA", "Lat": 36.02}},
{"geometry": {"type": "Point", "coordinates": [-85.2300047, 38.1000073]}, "type": "Feature", "properties": {"Time_": 2223, "OBJECTID": 64, "Size_": 100, "Lon": -85.23, "Comments": "(LMK)", "County": "SHELBY", "State": "KY", "Location": "8 S SHELBYVILLE", "Lat": 38.1}},
{"geometry": {"type": "Point", "coordinates": [-95.6500074, 35.9500064]}, "type": "Feature", "properties": {"Time_": 2224, "OBJECTID": 65, "Size_": 100, "Lon": -95.65, "Comments": "(TSA)", "County": "WAGONER", "State": "OK", "Location": "COWETA", "Lat": 35.95}},
{"geometry": {"type": "Point", "coordinates": [-95.7400075, 36.0100064]}, "type": "Feature", "properties": {"Time_": 2225, "OBJECTID": 66, "Size_": 200, "Lon": -95.74, "Comments": "E 115TH ST S AND 193RD E AVE (TSA)", "County": "WAGONER", "State": "OK", "Location": "4 SE BROKEN ARROW", "Lat": 36.01}},
{"geometry": {"type": "Point", "coordinates": [-93.9000071, 37.2700067]}, "type": "Feature", "properties": {"Time_": 2231, "OBJECTID": 67, "Size_": 150, "Lon": -93.9, "Comments": "REPORTED AT INTERSECTION OF COUNTY ROAD 1087 AND COUNTY ROAD 2010. (SGF)", "County": "LAWRENCE", "State": "MO", "Location": "5 NW MILLER", "Lat": 37.27}},
{"geometry": {"type": "Point", "coordinates": [-92.2600068, 38.7700071]}, "type": "Feature", "properties": {"Time_": 2232, "OBJECTID": 68, "Size_": 175, "Lon": -92.26, "Comments": "REPORT FROM ASHLAND PD...RELAYED BY COLUMBIA EOC (LSX)", "County": "BOONE", "State": "MO", "Location": "ASHLAND", "Lat": 38.77}},
{"geometry": {"type": "Point", "coordinates": [-92.2800068, 38.720007]}, "type": "Feature", "properties": {"Time_": 2235, "OBJECTID": 69, "Size_": 200, "Lon": -92.28, "Comments": "(LSX)", "County": "BOONE", "State": "MO", "Location": "2 NE HARTSBURG", "Lat": 38.72}},
{"geometry": {"type": "Point", "coordinates": [-96.4600076, 35.6200063]}, "type": "Feature", "properties": {"Time_": 2240, "OBJECTID": 70, "Size_": 100, "Lon": -96.46, "Comments": "(TSA)", "County": "OKFUSKEE", "State": "OK", "Location": "3 W WELTY", "Lat": 35.62}},
{"geometry": {"type": "Point", "coordinates": [-94.3700072, 36.8700066]}, "type": "Feature", "properties": {"Time_": 2244, "OBJECTID": 71, "Size_": 175, "Lon": -94.37, "Comments": "REPORTED AT CORNER OF NORWAY STREET AND MONARCH STREET. (SGF)", "County": "NEWTON", "State": "MO", "Location": "NEOSHO", "Lat": 36.87}},
{"geometry": {"type": "Point", "coordinates": [-92.8200069, 38.1000069]}, "type": "Feature", "properties": {"Time_": 2245, "OBJECTID": 72, "Size_": 100, "Lon": -92.82, "Comments": "REPORT FROM LAW ENFOREMENT RELAYED THROUGH EMERGENCY MANAGEMENT (SGF)", "County": "CAMDEN", "State": "MO", "Location": "3 SW HURRICANE DECK", "Lat": 38.1}},
{"geometry": {"type": "Point", "coordinates": [-92.0300067, 38.7200071]}, "type": "Feature", "properties": {"Time_": 2247, "OBJECTID": 73, "Size_": 150, "Lon": -92.03, "Comments": "(LSX)", "County": "CALLAWAY", "State": "MO", "Location": "3 E NEW BLOOMFIELD", "Lat": 38.72}},
{"geometry": {"type": "Point", "coordinates": [-96.0600075, 35.8300063]}, "type": "Feature", "properties": {"Time_": 2249, "OBJECTID": 74, "Size_": 175, "Lon": -96.06, "Comments": "(TSA)", "County": "OKMULGEE", "State": "OK", "Location": "3 S MOUNDS", "Lat": 35.83}},
{"geometry": {"type": "Point", "coordinates": [-91.9500067, 38.8200071]}, "type": "Feature", "properties": {"Time_": 2251, "OBJECTID": 75, "Size_": 100, "Lon": -91.95, "Comments": "HAIL OBSERVED ON HIGHWAY 54 (LSX)", "County": "CALLAWAY", "State": "MO", "Location": "2 S FULTON", "Lat": 38.82}},
{"geometry": {"type": "Point", "coordinates": [-94.1100071, 36.8800066]}, "type": "Feature", "properties": {"Time_": 2252, "OBJECTID": 76, "Size_": 100, "Lon": -94.11, "Comments": "(SGF)", "County": "NEWTON", "State": "MO", "Location": "4 E NEWTONIA", "Lat": 36.88}},
{"geometry": {"type": "Point", "coordinates": [-96.3500076, 35.6100063]}, "type": "Feature", "properties": {"Time_": 2255, "OBJECTID": 77, "Size_": 100, "Lon": -96.35, "Comments": "(TSA)", "County": "OKFUSKEE", "State": "OK", "Location": "3 N MASON", "Lat": 35.61}},
{"geometry": {"type": "Point", "coordinates": [-93.8600071, 36.9900067]}, "type": "Feature", "properties": {"Time_": 2300, "OBJECTID": 78, "Size_": 100, "Lon": -93.86, "Comments": "(SGF)", "County": "LAWRENCE", "State": "MO", "Location": "4 WNW VERONA", "Lat": 36.99}},
{"geometry": {"type": "Point", "coordinates": [-97.4100078, 34.7700061]}, "type": "Feature", "properties": {"Time_": 2306, "OBJECTID": 79, "Size_": 100, "Lon": -97.41, "Comments": "(OUN)", "County": "GARVIN", "State": "OK", "Location": "3 S MAYSVILLE", "Lat": 34.77}},
{"geometry": {"type": "Point", "coordinates": [-93.2700069, 37.2100067]}, "type": "Feature", "properties": {"Time_": 2307, "OBJECTID": 80, "Size_": 100, "Lon": -93.27, "Comments": "I44 AT 79 MILE MARKER. (SGF)", "County": "GREENE", "State": "MO", "Location": "1 NE SPRINGFIELD", "Lat": 37.21}},
{"geometry": {"type": "Point", "coordinates": [-93.9800071, 36.8800066]}, "type": "Feature", "properties": {"Time_": 2310, "OBJECTID": 81, "Size_": 175, "Lon": -93.98, "Comments": "(SGF)", "County": "BARRY", "State": "MO", "Location": "4 SW MONETT", "Lat": 36.88}},
{"geometry": {"type": "Point", "coordinates": [-91.7200066, 38.7100071]}, "type": "Feature", "properties": {"Time_": 2314, "OBJECTID": 82, "Size_": 100, "Lon": -91.72, "Comments": "(LSX)", "County": "CALLAWAY", "State": "MO", "Location": "PORTLAND", "Lat": 38.71}},
{"geometry": {"type": "Point", "coordinates": [-97.0000077, 35.2600062]}, "type": "Feature", "properties": {"Time_": 2315, "OBJECTID": 83, "Size_": 125, "Lon": -97, "Comments": "(OUN)", "County": "POTTAWATOMIE", "State": "OK", "Location": "4 W TECUMSEH", "Lat": 35.26}},
{"geometry": {"type": "Point", "coordinates": [-94.8000072, 36.2600065]}, "type": "Feature", "properties": {"Time_": 2315, "OBJECTID": 84, "Size_": 150, "Lon": -94.8, "Comments": "(TSA)", "County": "DELAWARE", "State": "OK", "Location": "4 N KANSAS", "Lat": 36.26}},
{"geometry": {"type": "Point", "coordinates": [-91.5600066, 38.8000071]}, "type": "Feature", "properties": {"Time_": 2315, "OBJECTID": 85, "Size_": 175, "Lon": -91.56, "Comments": "MEASURED NEAR THE INTERSECTION OF HWY HH AND K (LSX)", "County": "MONTGOMERY", "State": "MO", "Location": "4 W BIG SPRING", "Lat": 38.8}},
{"geometry": {"type": "Point", "coordinates": [-93.1400069, 37.2700067]}, "type": "Feature", "properties": {"Time_": 2316, "OBJECTID": 86, "Size_": 100, "Lon": -93.14, "Comments": "(SGF)", "County": "GREENE", "State": "MO", "Location": "1 W STRAFFORD", "Lat": 37.27}},
{"geometry": {"type": "Point", "coordinates": [-97.3700078, 34.9700061]}, "type": "Feature", "properties": {"Time_": 2318, "OBJECTID": 87, "Size_": 175, "Lon": -97.37, "Comments": "GOLFBALL HAIL ON HWY 74. (OUN)", "County": "MCCLAIN", "State": "OK", "Location": "3 S PURCELL", "Lat": 34.97}},
{"geometry": {"type": "Point", "coordinates": [-93.8700071, 36.9200066]}, "type": "Feature", "properties": {"Time_": 2318, "OBJECTID": 88, "Size_": 125, "Lon": -93.87, "Comments": "(SGF)", "County": "BARRY", "State": "MO", "Location": "3 E MONETT", "Lat": 36.92}},
{"geometry": {"type": "Point", "coordinates": [-91.6400066, 38.7800071]}, "type": "Feature", "properties": {"Time_": 2318, "OBJECTID": 89, "Size_": 250, "Lon": -91.64, "Comments": "ON HWY K ALONG THE CALLAWAY AND MONTGOMERY COUNTY LINE (LSX)", "County": "MONTGOMERY", "State": "MO", "Location": "4 W AMERICUS", "Lat": 38.78}},
{"geometry": {"type": "Point", "coordinates": [-97.3200078, 34.8300061]}, "type": "Feature", "properties": {"Time_": 2321, "OBJECTID": 90, "Size_": 150, "Lon": -97.32, "Comments": "(OUN)", "County": "GARVIN", "State": "OK", "Location": "3 W PAOLI", "Lat": 34.83}},
{"geometry": {"type": "Point", "coordinates": [-97.6300079, 34.8400061]}, "type": "Feature", "properties": {"Time_": 2325, "OBJECTID": 91, "Size_": 275, "Lon": -97.63, "Comments": "(OUN)", "County": "GARVIN", "State": "OK", "Location": "1 W LINDSAY", "Lat": 34.84}},
{"geometry": {"type": "Point", "coordinates": [-93.0400069, 37.2700067]}, "type": "Feature", "properties": {"Time_": 2326, "OBJECTID": 92, "Size_": 175, "Lon": -93.04, "Comments": "(SGF)", "County": "WEBSTER", "State": "MO", "Location": "4 E STRAFFORD", "Lat": 37.27}},
{"geometry": {"type": "Point", "coordinates": [-93.0600069, 37.2700067]}, "type": "Feature", "properties": {"Time_": 2326, "OBJECTID": 93, "Size_": 100, "Lon": -93.06, "Comments": "(SGF)", "County": "WEBSTER", "State": "MO", "Location": "3 E STRAFFORD", "Lat": 37.27}},
{"geometry": {"type": "Point", "coordinates": [-97.6300079, 34.8400061]}, "type": "Feature", "properties": {"Time_": 2330, "OBJECTID": 94, "Size_": 275, "Lon": -97.63, "Comments": "(OUN)", "County": "GARVIN", "State": "OK", "Location": "1 W LINDSAY", "Lat": 34.84}},
{"geometry": {"type": "Point", "coordinates": [-94.6900072, 36.2600065]}, "type": "Feature", "properties": {"Time_": 2330, "OBJECTID": 95, "Size_": 125, "Lon": -94.69, "Comments": "(TSA)", "County": "DELAWARE", "State": "OK", "Location": "COLCORD", "Lat": 36.26}},
{"geometry": {"type": "Point", "coordinates": [-91.8400066, 38.340007]}, "type": "Feature", "properties": {"Time_": 2330, "OBJECTID": 96, "Size_": 175, "Lon": -91.84, "Comments": "(LSX)", "County": "OSAGE", "State": "MO", "Location": "10 S LINN", "Lat": 38.34}},
{"geometry": {"type": "Point", "coordinates": [-91.4300065, 38.7600071]}, "type": "Feature", "properties": {"Time_": 2330, "OBJECTID": 97, "Size_": 275, "Lon": -91.43, "Comments": "(LSX)", "County": "MONTGOMERY", "State": "MO", "Location": "4 N HERMANN", "Lat": 38.76}},
{"geometry": {"type": "Point", "coordinates": [-98.500008, 33.9100059]}, "type": "Feature", "properties": {"Time_": 2332, "OBJECTID": 98, "Size_": 125, "Lon": -98.5, "Comments": "PUBLIC REPORT OF 1.25 INCH HAIL IN WICHITA FALLS. (OUN)", "County": "WICHITA", "State": "TX", "Location": "WICHITA FALLS", "Lat": 33.91}},
{"geometry": {"type": "Point", "coordinates": [-91.4800066, 38.8000071]}, "type": "Feature", "properties": {"Time_": 2332, "OBJECTID": 99, "Size_": 275, "Lon": -91.48, "Comments": "(LSX)", "County": "MONTGOMERY", "State": "MO", "Location": "BIG SPRING", "Lat": 38.8}},
{"geometry": {"type": "Point", "coordinates": [-91.7800066, 38.430007]}, "type": "Feature", "properties": {"Time_": 2333, "OBJECTID": 100, "Size_": 100, "Lon": -91.78, "Comments": "(LSX)", "County": "OSAGE", "State": "MO", "Location": "5 SE LINN", "Lat": 38.43}},
{"geometry": {"type": "Point", "coordinates": [-92.9100068, 37.3400068]}, "type": "Feature", "properties": {"Time_": 2335, "OBJECTID": 101, "Size_": 100, "Lon": -92.91, "Comments": "(SGF)", "County": "WEBSTER", "State": "MO", "Location": "MARSHFIELD", "Lat": 37.34}},
{"geometry": {"type": "Point", "coordinates": [-91.7100066, 38.380007]}, "type": "Feature", "properties": {"Time_": 2335, "OBJECTID": 102, "Size_": 175, "Lon": -91.71, "Comments": "OBSERVED 6 MILES NORTH OF BELLE (LSX)", "County": "OSAGE", "State": "MO", "Location": "10 SE LINN", "Lat": 38.38}},
{"geometry": {"type": "Point", "coordinates": [-91.5000066, 38.7300071]}, "type": "Feature", "properties": {"Time_": 2335, "OBJECTID": 103, "Size_": 250, "Lon": -91.5, "Comments": "(LSX)", "County": "MONTGOMERY", "State": "MO", "Location": "1 NE RHINELAND", "Lat": 38.73}},
{"geometry": {"type": "Point", "coordinates": [-91.4800066, 38.8000071]}, "type": "Feature", "properties": {"Time_": 2335, "OBJECTID": 104, "Size_": 400, "Lon": -91.48, "Comments": "NUMEROUS BASEBALL TO GRAGEFRUIT SIZE HAILSTONES (LSX)", "County": "MONTGOMERY", "State": "MO", "Location": "BIG SPRING", "Lat": 38.8}},
{"geometry": {"type": "Point", "coordinates": [-92.9100068, 37.3400068]}, "type": "Feature", "properties": {"Time_": 2336, "OBJECTID": 105, "Size_": 100, "Lon": -92.91, "Comments": "(SGF)", "County": "WEBSTER", "State": "MO", "Location": "MARSHFIELD", "Lat": 37.34}},
{"geometry": {"type": "Point", "coordinates": [-92.9100068, 37.3400068]}, "type": "Feature", "properties": {"Time_": 2337, "OBJECTID": 106, "Size_": 100, "Lon": -92.91, "Comments": "(SGF)", "County": "WEBSTER", "State": "MO", "Location": "MARSHFIELD", "Lat": 37.34}},
{"geometry": {"type": "Point", "coordinates": [-91.8400066, 38.480007]}, "type": "Feature", "properties": {"Time_": 2337, "OBJECTID": 107, "Size_": 175, "Lon": -91.84, "Comments": "(LSX)", "County": "OSAGE", "State": "MO", "Location": "LINN", "Lat": 38.48}},
{"geometry": {"type": "Point", "coordinates": [-97.0400078, 35.3100062]}, "type": "Feature", "properties": {"Time_": 2338, "OBJECTID": 108, "Size_": 125, "Lon": -97.04, "Comments": "(OUN)", "County": "POTTAWATOMIE", "State": "OK", "Location": "BETHEL ACRES", "Lat": 35.31}},
{"geometry": {"type": "Point", "coordinates": [-91.4300065, 38.7400071]}, "type": "Feature", "properties": {"Time_": 2338, "OBJECTID": 109, "Size_": 400, "Lon": -91.43, "Comments": "3 TO 4 INCH HAIL AT HERMANN COUNTRY CLUB GOLF COURSE (LSX)", "County": "MONTGOMERY", "State": "MO", "Location": "3 N HERMANN", "Lat": 38.74}},
{"geometry": {"type": "Point", "coordinates": [-96.9300077, 35.2300062]}, "type": "Feature", "properties": {"Time_": 2340, "OBJECTID": 110, "Size_": 275, "Lon": -96.93, "Comments": "AMATEUR RADIO REPORT OF BASEBALL SIZED HAIL 2 MILES SOUTH OF STATE HIGHWAY 9 AND 2 MILES EAST OF HIGHWAY 102. (OUN)", "County": "POTTAWATOMIE", "State": "OK", "Location": "2 S TECUMSEH", "Lat": 35.23}},
{"geometry": {"type": "Point", "coordinates": [-96.9500077, 35.2600062]}, "type": "Feature", "properties": {"Time_": 2340, "OBJECTID": 111, "Size_": 175, "Lon": -96.95, "Comments": "DELAYED REPORT FROM POTTAWATOMIE NATION (OUN)", "County": "POTTAWATOMIE", "State": "OK", "Location": "1 W TECUMSEH", "Lat": 35.26}},
{"geometry": {"type": "Point", "coordinates": [-92.9100068, 37.3400068]}, "type": "Feature", "properties": {"Time_": 2340, "OBJECTID": 112, "Size_": 175, "Lon": -92.91, "Comments": "(SGF)", "County": "WEBSTER", "State": "MO", "Location": "MARSHFIELD", "Lat": 37.34}},
{"geometry": {"type": "Point", "coordinates": [-97.0700078, 35.2600062]}, "type": "Feature", "properties": {"Time_": 2342, "OBJECTID": 113, "Size_": 175, "Lon": -97.07, "Comments": "(OUN)", "County": "POTTAWATOMIE", "State": "OK", "Location": "3 E PINK", "Lat": 35.26}},
{"geometry": {"type": "Point", "coordinates": [-92.8300068, 37.3900068]}, "type": "Feature", "properties": {"Time_": 2342, "OBJECTID": 114, "Size_": 125, "Lon": -92.83, "Comments": "(SGF)", "County": "WEBSTER", "State": "MO", "Location": "NIANGUA", "Lat": 37.39}},
{"geometry": {"type": "Point", "coordinates": [-93.8200071, 37.3900067]}, "type": "Feature", "properties": {"Time_": 2342, "OBJECTID": 115, "Size_": 100, "Lon": -93.82, "Comments": "(SGF)", "County": "DADE", "State": "MO", "Location": "2 SE GREENFIELD", "Lat": 37.39}},
{"geometry": {"type": "Point", "coordinates": [-91.1400065, 38.8200071]}, "type": "Feature", "properties": {"Time_": 2344, "OBJECTID": 116, "Size_": 125, "Lon": -91.14, "Comments": "(LSX)", "County": "WARREN", "State": "MO", "Location": "WARRENTON", "Lat": 38.82}},
{"geometry": {"type": "Point", "coordinates": [-97.1200077, 34.8500061]}, "type": "Feature", "properties": {"Time_": 2346, "OBJECTID": 117, "Size_": 100, "Lon": -97.12, "Comments": "(OUN)", "County": "GARVIN", "State": "OK", "Location": "4 WSW BYARS", "Lat": 34.85}},
{"geometry": {"type": "Point", "coordinates": [-91.3100065, 38.8500071]}, "type": "Feature", "properties": {"Time_": 2346, "OBJECTID": 118, "Size_": 100, "Lon": -91.31, "Comments": "(LSX)", "County": "MONTGOMERY", "State": "MO", "Location": "JONESBURG", "Lat": 38.85}},
{"geometry": {"type": "Point", "coordinates": [-91.1400065, 38.8200071]}, "type": "Feature", "properties": {"Time_": 2348, "OBJECTID": 119, "Size_": 100, "Lon": -91.14, "Comments": "(LSX)", "County": "WARREN", "State": "MO", "Location": "WARRENTON", "Lat": 38.82}},
{"geometry": {"type": "Point", "coordinates": [-97.1200078, 35.1900062]}, "type": "Feature", "properties": {"Time_": 2350, "OBJECTID": 120, "Size_": 200, "Lon": -97.12, "Comments": "GOLF BALL TO HEN EGG SIZED HAIL. (OUN)", "County": "POTTAWATOMIE", "State": "OK", "Location": "5 S PINK", "Lat": 35.19}},
{"geometry": {"type": "Point", "coordinates": [-91.1400065, 38.7800071]}, "type": "Feature", "properties": {"Time_": 2350, "OBJECTID": 121, "Size_": 175, "Lon": -91.14, "Comments": "(LSX)", "County": "WARREN", "State": "MO", "Location": "3 S WARRENTON", "Lat": 38.78}},
{"geometry": {"type": "Point", "coordinates": [-91.3100065, 38.8500071]}, "type": "Feature", "properties": {"Time_": 2350, "OBJECTID": 122, "Size_": 100, "Lon": -91.31, "Comments": "(LSX)", "County": "MONTGOMERY", "State": "MO", "Location": "JONESBURG", "Lat": 38.85}},
{"geometry": {"type": "Point", "coordinates": [-98.500008, 33.9100059]}, "type": "Feature", "properties": {"Time_": 2351, "OBJECTID": 123, "Size_": 100, "Lon": -98.5, "Comments": "(OUN)", "County": "WICHITA", "State": "TX", "Location": "WICHITA FALLS", "Lat": 33.91}},
{"geometry": {"type": "Point", "coordinates": [-91.1400065, 38.8200071]}, "type": "Feature", "properties": {"Time_": 2352, "OBJECTID": 124, "Size_": 450, "Lon": -91.14, "Comments": "(LSX)", "County": "WARREN", "State": "MO", "Location": "WARRENTON", "Lat": 38.82}},
{"geometry": {"type": "Point", "coordinates": [-91.1400065, 38.8200071]}, "type": "Feature", "properties": {"Time_": 2355, "OBJECTID": 125, "Size_": 175, "Lon": -91.14, "Comments": "(LSX)", "County": "WARREN", "State": "MO", "Location": "WARRENTON", "Lat": 38.82}},
{"geometry": {"type": "Point", "coordinates": [-93.550007, 37.4100067]}, "type": "Feature", "properties": {"Time_": 2356, "OBJECTID": 126, "Size_": 175, "Lon": -93.55, "Comments": "(SGF)", "County": "GREENE", "State": "MO", "Location": "WALNUT GROVE", "Lat": 37.41}},
{"geometry": {"type": "Point", "coordinates": [-91.3100065, 38.8200071]}, "type": "Feature", "properties": {"Time_": 2356, "OBJECTID": 127, "Size_": 100, "Lon": -91.31, "Comments": "PENNY TO QUARTER SIZED HAIL. (LSX)", "County": "WARREN", "State": "MO", "Location": "9 W WARRENTON", "Lat": 38.82}},
{"geometry": {"type": "Point", "coordinates": [-91.1400065, 38.8200071]}, "type": "Feature", "properties": {"Time_": 2358, "OBJECTID": 128, "Size_": 275, "Lon": -91.14, "Comments": "(LSX)", "County": "WARREN", "State": "MO", "Location": "WARRENTON", "Lat": 38.82}},
{"geometry": {"type": "Point", "coordinates": [-91.1400065, 38.8200071]}, "type": "Feature", "properties": {"Time_": 0, "OBJECTID": 129, "Size_": 450, "Lon": -91.14, "Comments": "(LSX)", "County": "WARREN", "State": "MO", "Location": "WARRENTON", "Lat": 38.82}},
{"geometry": {"type": "Point", "coordinates": [-91.0200064, 38.8300071]}, "type": "Feature", "properties": {"Time_": 0, "OBJECTID": 130, "Size_": 175, "Lon": -91.02, "Comments": "(LSX)", "County": "WARREN", "State": "MO", "Location": "WRIGHT CITY", "Lat": 38.83}},
{"geometry": {"type": "Point", "coordinates": [-96.9300077, 35.2600062]}, "type": "Feature", "properties": {"Time_": 4, "OBJECTID": 131, "Size_": 100, "Lon": -96.93, "Comments": "(OUN)", "County": "POTTAWATOMIE", "State": "OK", "Location": "TECUMSEH", "Lat": 35.26}},
{"geometry": {"type": "Point", "coordinates": [-93.3200069, 37.0200067]}, "type": "Feature", "properties": {"Time_": 5, "OBJECTID": 132, "Size_": 175, "Lon": -93.32, "Comments": "(SGF)", "County": "CHRISTIAN", "State": "MO", "Location": "2 SW NIXA", "Lat": 37.02}},
{"geometry": {"type": "Point", "coordinates": [-91.1400065, 38.8200071]}, "type": "Feature", "properties": {"Time_": 6, "OBJECTID": 133, "Size_": 300, "Lon": -91.14, "Comments": "HIGHWAY U AND TALL OAKS ROAD (LSX)", "County": "WARREN", "State": "MO", "Location": "WARRENTON", "Lat": 38.82}},
{"geometry": {"type": "Point", "coordinates": [-90.4200062, 38.5400071]}, "type": "Feature", "properties": {"Time_": 7, "OBJECTID": 134, "Size_": 100, "Lon": -90.42, "Comments": "(LSX)", "County": "ST. LOUIS", "State": "MO", "Location": "SUNSET HILLS", "Lat": 38.54}},
{"geometry": {"type": "Point", "coordinates": [-84.1100044, 38.0800073]}, "type": "Feature", "properties": {"Time_": 8, "OBJECTID": 135, "Size_": 175, "Lon": -84.11, "Comments": "GOLF BALL SIZED HAIL REPORTED ON THE BORDER BETWEEN CLARK... BOURBON... AND MONTGOMERY COUNTIES. (LMK)", "County": "CLARK", "State": "KY", "Location": "4 S NORTH MIDDLETOWN", "Lat": 38.08}},
{"geometry": {"type": "Point", "coordinates": [-98.1100079, 34.1500059]}, "type": "Feature", "properties": {"Time_": 10, "OBJECTID": 136, "Size_": 175, "Lon": -98.11, "Comments": "DAMAGE TO SUN ROOF OF RESIDENTIAL STRUCTURE. (OUN)", "County": "JEFFERSON", "State": "OK", "Location": "5 S HASTINGS", "Lat": 34.15}},
{"geometry": {"type": "Point", "coordinates": [-94.2900071, 36.3600065]}, "type": "Feature", "properties": {"Time_": 10, "OBJECTID": 137, "Size_": 200, "Lon": -94.29, "Comments": "LARGE HAIL FELL FOR 3 MIN...MOSTLY 1.5 INCH HAIL WITH LARGEST BEING 2 INCHES (TSA)", "County": "BENTON", "State": "AR", "Location": "CENTERTON", "Lat": 36.36}},
{"geometry": {"type": "Point", "coordinates": [-98.350008, 33.9800059]}, "type": "Feature", "properties": {"Time_": 13, "OBJECTID": 138, "Size_": 100, "Lon": -98.35, "Comments": "(OUN)", "County": "CLAY", "State": "TX", "Location": "7 N JOLLY", "Lat": 33.98}},
{"geometry": {"type": "Point", "coordinates": [-84.0500044, 38.1100073]}, "type": "Feature", "properties": {"Time_": 13, "OBJECTID": 139, "Size_": 175, "Lon": -84.05, "Comments": "(JKL)", "County": "MONTGOMERY", "State": "KY", "Location": "1 WSW SIDEVIEW", "Lat": 38.11}},
{"geometry": {"type": "Point", "coordinates": [-93.2100069, 37.0200067]}, "type": "Feature", "properties": {"Time_": 14, "OBJECTID": 140, "Size_": 100, "Lon": -93.21, "Comments": "(SGF)", "County": "CHRISTIAN", "State": "MO", "Location": "OZARK", "Lat": 37.02}},
{"geometry": {"type": "Point", "coordinates": [-91.0200064, 38.8300071]}, "type": "Feature", "properties": {"Time_": 14, "OBJECTID": 141, "Size_": 175, "Lon": -91.02, "Comments": "(LSX)", "County": "WARREN", "State": "MO", "Location": "WRIGHT CITY", "Lat": 38.83}},
{"geometry": {"type": "Point", "coordinates": [-98.1100079, 34.2300059]}, "type": "Feature", "properties": {"Time_": 15, "OBJECTID": 142, "Size_": 175, "Lon": -98.11, "Comments": "DELAYED PUBLIC REPORT OF QUARTER AND GOLF BALL SIZED HAIL IN AND AROUND HASTINGS. (OUN)", "County": "JEFFERSON", "State": "OK", "Location": "S HASTINGS", "Lat": 34.23}},
{"geometry": {"type": "Point", "coordinates": [-94.2100071, 36.3300065]}, "type": "Feature", "properties": {"Time_": 15, "OBJECTID": 143, "Size_": 200, "Lon": -94.21, "Comments": "(TSA)", "County": "BENTON", "State": "AR", "Location": "3 S BENTONVILLE", "Lat": 36.33}},
{"geometry": {"type": "Point", "coordinates": [-90.8900064, 38.8200071]}, "type": "Feature", "properties": {"Time_": 23, "OBJECTID": 144, "Size_": 125, "Lon": -90.89, "Comments": "(LSX)", "County": "ST. CHARLES", "State": "MO", "Location": "4 E FORISTELL", "Lat": 38.82}},
{"geometry": {"type": "Point", "coordinates": [-91.9500066, 38.190007]}, "type": "Feature", "properties": {"Time_": 25, "OBJECTID": 145, "Size_": 100, "Lon": -91.95, "Comments": "DIME TO QUARTER SIZE HAIL REPORTED BY SHERIFFS OFFICE (SGF)", "County": "MARIES", "State": "MO", "Location": "VIENNA", "Lat": 38.19}},
{"geometry": {"type": "Point", "coordinates": [-98.340008, 33.9600059]}, "type": "Feature", "properties": {"Time_": 26, "OBJECTID": 146, "Size_": 150, "Lon": -98.34, "Comments": "(OUN)", "County": "CLAY", "State": "TX", "Location": "1 NE DEAN", "Lat": 33.96}},
{"geometry": {"type": "Point", "coordinates": [-90.8600064, 38.8100071]}, "type": "Feature", "properties": {"Time_": 26, "OBJECTID": 147, "Size_": 100, "Lon": -90.86, "Comments": "(LSX)", "County": "ST. CHARLES", "State": "MO", "Location": "WENTZVILLE", "Lat": 38.81}},
{"geometry": {"type": "Point", "coordinates": [-90.7800064, 38.7900071]}, "type": "Feature", "properties": {"Time_": 27, "OBJECTID": 148, "Size_": 175, "Lon": -90.78, "Comments": "(LSX)", "County": "ST. CHARLES", "State": "MO", "Location": "LAKE ST. LOUIS", "Lat": 38.79}},
{"geometry": {"type": "Point", "coordinates": [-98.330008, 33.9600059]}, "type": "Feature", "properties": {"Time_": 30, "OBJECTID": 149, "Size_": 200, "Lon": -98.33, "Comments": "(OUN)", "County": "CLAY", "State": "TX", "Location": "3 NE DEAN", "Lat": 33.96}},
{"geometry": {"type": "Point", "coordinates": [-97.6300079, 34.8400061]}, "type": "Feature", "properties": {"Time_": 30, "OBJECTID": 150, "Size_": 275, "Lon": -97.63, "Comments": "(OUN)", "County": "GARVIN", "State": "OK", "Location": "1 W LINDSAY", "Lat": 34.84}},
{"geometry": {"type": "Point", "coordinates": [-93.1400069, 37.0700067]}, "type": "Feature", "properties": {"Time_": 33, "OBJECTID": 151, "Size_": 100, "Lon": -93.14, "Comments": "(SGF)", "County": "CHRISTIAN", "State": "MO", "Location": "5 NE OZARK", "Lat": 37.07}},
{"geometry": {"type": "Point", "coordinates": [-90.7800064, 38.7900071]}, "type": "Feature", "properties": {"Time_": 33, "OBJECTID": 152, "Size_": 150, "Lon": -90.78, "Comments": "(LSX)", "County": "ST. CHARLES", "State": "MO", "Location": "LAKE ST. LOUIS", "Lat": 38.79}},
{"geometry": {"type": "Point", "coordinates": [-83.7600043, 38.1400074]}, "type": "Feature", "properties": {"Time_": 37, "OBJECTID": 153, "Size_": 100, "Lon": -83.76, "Comments": "QUARTER SIZE HAIL WAS REPORTED ON HWY 36 JUST SOUTH OF OWINGSVILLE. (JKL)", "County": "BATH", "State": "KY", "Location": "OWINGSVILLE", "Lat": 38.14}},
{"geometry": {"type": "Point", "coordinates": [-97.6400079, 34.8400061]}, "type": "Feature", "properties": {"Time_": 39, "OBJECTID": 154, "Size_": 275, "Lon": -97.64, "Comments": "DELAYED PUBLIC REPORT...HAIL FOR 15 MINUTES WITH GOLFBALL TO BASEBALL SIZED HAIL. (OUN)", "County": "GARVIN", "State": "OK", "Location": "2 W LINDSAY", "Lat": 34.84}},
{"geometry": {"type": "Point", "coordinates": [-98.380008, 33.9200059]}, "type": "Feature", "properties": {"Time_": 40, "OBJECTID": 155, "Size_": 225, "Lon": -98.38, "Comments": "(OUN)", "County": "CLAY", "State": "TX", "Location": "1 SW DEAN", "Lat": 33.92}},
{"geometry": {"type": "Point", "coordinates": [-90.7200063, 38.7600071]}, "type": "Feature", "properties": {"Time_": 40, "OBJECTID": 156, "Size_": 150, "Lon": -90.72, "Comments": "(LSX)", "County": "ST. CHARLES", "State": "MO", "Location": "2 SSW O'FALLON", "Lat": 38.76}},
{"geometry": {"type": "Point", "coordinates": [-90.6100063, 38.7800071]}, "type": "Feature", "properties": {"Time_": 41, "OBJECTID": 157, "Size_": 175, "Lon": -90.61, "Comments": "GOLF BALL SIZE HAIL AT HIGHWAY K AND MEXICO ROAD (LSX)", "County": "ST. CHARLES", "State": "MO", "Location": "ST. PETERS", "Lat": 38.78}},
{"geometry": {"type": "Point", "coordinates": [-92.0900066, 37.4400068]}, "type": "Feature", "properties": {"Time_": 42, "OBJECTID": 158, "Size_": 100, "Lon": -92.09, "Comments": "(SGF)", "County": "TEXAS", "State": "MO", "Location": "SUCCESS", "Lat": 37.44}},
{"geometry": {"type": "Point", "coordinates": [-90.6100063, 38.7800071]}, "type": "Feature", "properties": {"Time_": 42, "OBJECTID": 159, "Size_": 100, "Lon": -90.61, "Comments": "QUARTER SIZE HAIL AND STREET FLOODING (LSX)", "County": "ST. CHARLES", "State": "MO", "Location": "ST. PETERS", "Lat": 38.78}},
{"geometry": {"type": "Point", "coordinates": [-90.6100063, 38.7800071]}, "type": "Feature", "properties": {"Time_": 43, "OBJECTID": 160, "Size_": 150, "Lon": -90.61, "Comments": "NEAR SALT LICK AND I70 (LSX)", "County": "ST. CHARLES", "State": "MO", "Location": "ST. PETERS", "Lat": 38.78}},
{"geometry": {"type": "Point", "coordinates": [-90.7100063, 38.7800071]}, "type": "Feature", "properties": {"Time_": 44, "OBJECTID": 161, "Size_": 200, "Lon": -90.71, "Comments": "APPROXIMATELY 1 MILE WEST OF K AND N (LSX)", "County": "ST. CHARLES", "State": "MO", "Location": "O'FALLON", "Lat": 38.78}},
{"geometry": {"type": "Point", "coordinates": [-94.9500073, 35.9200064]}, "type": "Feature", "properties": {"Time_": 45, "OBJECTID": 162, "Size_": 100, "Lon": -94.95, "Comments": "MOSTLY PEA TO NICKEL SIZED HAIL WITH A FEW STONES TO THE SIZE OF QUARTERS. (TSA)", "County": "CHEROKEE", "State": "OK", "Location": "1 E TAHLEQUAH", "Lat": 35.92}},
{"geometry": {"type": "Point", "coordinates": [-83.6200042, 38.1200074]}, "type": "Feature", "properties": {"Time_": 45, "OBJECTID": 163, "Size_": 175, "Lon": -83.62, "Comments": "(JKL)", "County": "BATH", "State": "KY", "Location": "SALT LICK", "Lat": 38.12}},
{"geometry": {"type": "Point", "coordinates": [-90.9800064, 38.3500071]}, "type": "Feature", "properties": {"Time_": 46, "OBJECTID": 164, "Size_": 175, "Lon": -90.98, "Comments": "(LSX)", "County": "FRANKLIN", "State": "MO", "Location": "ST. CLAIR", "Lat": 38.35}},
{"geometry": {"type": "Point", "coordinates": [-90.7100063, 38.7800071]}, "type": "Feature", "properties": {"Time_": 46, "OBJECTID": 165, "Size_": 150, "Lon": -90.71, "Comments": "AT EXIT 217 ON I70 (LSX)", "County": "ST. CHARLES", "State": "MO", "Location": "O'FALLON", "Lat": 38.78}},
{"geometry": {"type": "Point", "coordinates": [-90.8800064, 38.4700071]}, "type": "Feature", "properties": {"Time_": 51, "OBJECTID": 166, "Size_": 175, "Lon": -90.88, "Comments": "(LSX)", "County": "FRANKLIN", "State": "MO", "Location": "VILLA RIDGE", "Lat": 38.47}},
{"geometry": {"type": "Point", "coordinates": [-97.6100079, 34.8100061]}, "type": "Feature", "properties": {"Time_": 55, "OBJECTID": 167, "Size_": 175, "Lon": -97.61, "Comments": "(OUN)", "County": "GARVIN", "State": "OK", "Location": "2 S LINDSAY", "Lat": 34.81}},
{"geometry": {"type": "Point", "coordinates": [-98.1900079, 33.8900059]}, "type": "Feature", "properties": {"Time_": 59, "OBJECTID": 168, "Size_": 100, "Lon": -98.19, "Comments": "(OUN)", "County": "CLAY", "State": "TX", "Location": "5 N HENRIETTA", "Lat": 33.89}},
{"geometry": {"type": "Point", "coordinates": [-97.8200079, 34.640006]}, "type": "Feature", "properties": {"Time_": 111, "OBJECTID": 169, "Size_": 175, "Lon": -97.82, "Comments": "REPORT RELAYED THROUGH MEDIA. (OUN)", "County": "STEPHENS", "State": "OK", "Location": "BRAY", "Lat": 34.64}},
{"geometry": {"type": "Point", "coordinates": [-95.5600074, 35.4700063]}, "type": "Feature", "properties": {"Time_": 115, "OBJECTID": 170, "Size_": 150, "Lon": -95.56, "Comments": "(TSA)", "County": "MCINTOSH", "State": "OK", "Location": "2 W CHECOTAH", "Lat": 35.47}},
{"geometry": {"type": "Point", "coordinates": [-90.0400063, 40.5600075]}, "type": "Feature", "properties": {"Time_": 116, "OBJECTID": 171, "Size_": 100, "Lon": -90.04, "Comments": "HAIL LASTED TWO MINUTES AT LYNN AND 5TH STREET IN CANTON. (ILX)", "County": "FULTON", "State": "IL", "Location": "CANTON", "Lat": 40.56}},
{"geometry": {"type": "Point", "coordinates": [-90.0400063, 40.5600075]}, "type": "Feature", "properties": {"Time_": 118, "OBJECTID": 172, "Size_": 100, "Lon": -90.04, "Comments": "QUARTER HAIL IN DOWNTOWN CANTON. (ILX)", "County": "FULTON", "State": "IL", "Location": "CANTON", "Lat": 40.56}},
{"geometry": {"type": "Point", "coordinates": [-97.7700079, 34.650006]}, "type": "Feature", "properties": {"Time_": 123, "OBJECTID": 173, "Size_": 250, "Lon": -97.77, "Comments": "(OUN)", "County": "STEPHENS", "State": "OK", "Location": "4 NE BRAY", "Lat": 34.65}},
{"geometry": {"type": "Point", "coordinates": [-94.5700072, 35.9900064]}, "type": "Feature", "properties": {"Time_": 125, "OBJECTID": 174, "Size_": 100, "Lon": -94.57, "Comments": "(TSA)", "County": "ADAIR", "State": "OK", "Location": "WESTVILLE", "Lat": 35.99}},
{"geometry": {"type": "Point", "coordinates": [-90.080006, 37.1400069]}, "type": "Feature", "properties": {"Time_": 125, "OBJECTID": 175, "Size_": 125, "Lon": -90.08, "Comments": "FALLING WEST AND SOUTHWEST OF CITY LIMITS (PAH)", "County": "BOLLINGER", "State": "MO", "Location": "ZALMA", "Lat": 37.14}},
{"geometry": {"type": "Point", "coordinates": [-94.5700072, 35.9900064]}, "type": "Feature", "properties": {"Time_": 126, "OBJECTID": 176, "Size_": 100, "Lon": -94.57, "Comments": "(TSA)", "County": "ADAIR", "State": "OK", "Location": "WESTVILLE", "Lat": 35.99}},
{"geometry": {"type": "Point", "coordinates": [-93.2200069, 37.2500067]}, "type": "Feature", "properties": {"Time_": 137, "OBJECTID": 177, "Size_": 100, "Lon": -93.22, "Comments": "(SGF)", "County": "GREENE", "State": "MO", "Location": "5 NE SPRINGFIELD", "Lat": 37.25}},
{"geometry": {"type": "Point", "coordinates": [-97.9500079, 34.0200059]}, "type": "Feature", "properties": {"Time_": 145, "OBJECTID": 178, "Size_": 100, "Lon": -97.95, "Comments": "DELAYED REPORT OF QUARTER SIZED HAIL IN RYAN RELAYED BY RYAN FIRE DEPARTMENT. (OUN)", "County": "JEFFERSON", "State": "OK", "Location": "RYAN", "Lat": 34.02}},
{"geometry": {"type": "Point", "coordinates": [-90.8200062, 36.8300068]}, "type": "Feature", "properties": {"Time_": 200, "OBJECTID": 179, "Size_": 100, "Lon": -90.82, "Comments": "(PAH)", "County": "CARTER", "State": "MO", "Location": "GRANDIN", "Lat": 36.83}},
{"geometry": {"type": "Point", "coordinates": [-89.7800059, 37.0900069]}, "type": "Feature", "properties": {"Time_": 204, "OBJECTID": 180, "Size_": 100, "Lon": -89.78, "Comments": "50 MPH WINDS ALSO REPORTED (PAH)", "County": "SCOTT", "State": "MO", "Location": "PERKINS", "Lat": 37.09}},
{"geometry": {"type": "Point", "coordinates": [-98.350008, 34.390006]}, "type": "Feature", "properties": {"Time_": 205, "OBJECTID": 181, "Size_": 100, "Lon": -98.35, "Comments": "(OUN)", "County": "COTTON", "State": "OK", "Location": "3 NW WALTERS", "Lat": 34.39}},
{"geometry": {"type": "Point", "coordinates": [-98.450008, 34.2800059]}, "type": "Feature", "properties": {"Time_": 207, "OBJECTID": 182, "Size_": 175, "Lon": -98.45, "Comments": "(OUN)", "County": "COTTON", "State": "OK", "Location": "1 N COOKIETOWN", "Lat": 34.28}},
{"geometry": {"type": "Point", "coordinates": [-97.7700079, 34.650006]}, "type": "Feature", "properties": {"Time_": 209, "OBJECTID": 183, "Size_": 175, "Lon": -97.77, "Comments": "(OUN)", "County": "STEPHENS", "State": "OK", "Location": "4 NE BRAY", "Lat": 34.65}},
{"geometry": {"type": "Point", "coordinates": [-97.6100079, 34.8000061]}, "type": "Feature", "properties": {"Time_": 209, "OBJECTID": 184, "Size_": 175, "Lon": -97.61, "Comments": "(OUN)", "County": "GARVIN", "State": "OK", "Location": "3 S LINDSAY", "Lat": 34.8}},
{"geometry": {"type": "Point", "coordinates": [-97.9900079, 34.500006]}, "type": "Feature", "properties": {"Time_": 213, "OBJECTID": 185, "Size_": 125, "Lon": -97.99, "Comments": "DELAYED REPORT VIA AMATEUR RADIO. (OUN)", "County": "STEPHENS", "State": "OK", "Location": "2 W DUNCAN", "Lat": 34.5}},
{"geometry": {"type": "Point", "coordinates": [-89.6500059, 37.0800069]}, "type": "Feature", "properties": {"Time_": 217, "OBJECTID": 186, "Size_": 100, "Lon": -89.65, "Comments": "NUMEROUS TREES DOWN. ALSO POWER LINES DOWN IN ORAN AND CHAFFEE (PAH)", "County": "SCOTT", "State": "MO", "Location": "ORAN", "Lat": 37.08}},
{"geometry": {"type": "Point", "coordinates": [-97.9600079, 34.500006]}, "type": "Feature", "properties": {"Time_": 220, "OBJECTID": 187, "Size_": 175, "Lon": -97.96, "Comments": "DELAYED REPORT VIA DUNCAN PD OF GOLF BALL SIZED HAIL ON WESTERN CITY LIMIT OF DUNCAN. (OUN)", "County": "STEPHENS", "State": "OK", "Location": "W DUNCAN", "Lat": 34.5}},
{"geometry": {"type": "Point", "coordinates": [-96.9800077, 34.6200061]}, "type": "Feature", "properties": {"Time_": 220, "OBJECTID": 188, "Size_": 175, "Lon": -96.98, "Comments": "(OUN)", "County": "MURRAY", "State": "OK", "Location": "8 N SULPHUR", "Lat": 34.62}},
{"geometry": {"type": "Point", "coordinates": [-86.1800054, 42.7700081]}, "type": "Feature", "properties": {"Time_": 220, "OBJECTID": 189, "Size_": 100, "Lon": -86.18, "Comments": "(GRR)", "County": "ALLEGAN", "State": "MI", "Location": "4 WSW HOLLAND", "Lat": 42.77}},
{"geometry": {"type": "Point", "coordinates": [-98.310008, 34.360006]}, "type": "Feature", "properties": {"Time_": 222, "OBJECTID": 190, "Size_": 150, "Lon": -98.31, "Comments": "QUARTER TO PING PONG BALL SIZED HAIL REPORTED. (OUN)", "County": "COTTON", "State": "OK", "Location": "WALTERS", "Lat": 34.36}},
{"geometry": {"type": "Point", "coordinates": [-98.380008, 34.360006]}, "type": "Feature", "properties": {"Time_": 226, "OBJECTID": 191, "Size_": 175, "Lon": -98.38, "Comments": "(OUN)", "County": "COTTON", "State": "OK", "Location": "4 W WALTERS", "Lat": 34.36}},
{"geometry": {"type": "Point", "coordinates": [-98.400008, 34.360006]}, "type": "Feature", "properties": {"Time_": 230, "OBJECTID": 192, "Size_": 275, "Lon": -98.4, "Comments": "(OUN)", "County": "COTTON", "State": "OK", "Location": "5 W WALTERS", "Lat": 34.36}},
{"geometry": {"type": "Point", "coordinates": [-91.4300065, 38.7400071]}, "type": "Feature", "properties": {"Time_": 235, "OBJECTID": 193, "Size_": 400, "Lon": -91.43, "Comments": "3 TO 4 INCH HAIL AT HERMANN COUNTRY CLUB GOLF COARSE (LSX)", "County": "MONTGOMERY", "State": "MO", "Location": "3 N HERMANN", "Lat": 38.74}},
{"geometry": {"type": "Point", "coordinates": [-98.100008, 34.370006]}, "type": "Feature", "properties": {"Time_": 236, "OBJECTID": 194, "Size_": 175, "Lon": -98.1, "Comments": "(OUN)", "County": "STEPHENS", "State": "OK", "Location": "CORUM", "Lat": 34.37}},
{"geometry": {"type": "Point", "coordinates": [-97.5500078, 34.620006]}, "type": "Feature", "properties": {"Time_": 236, "OBJECTID": 195, "Size_": 100, "Lon": -97.55, "Comments": "MULTIPLE REPORTS OF QUARTER SIZED HAIL. (OUN)", "County": "GARVIN", "State": "OK", "Location": "9 W ELMORE CITY", "Lat": 34.62}},
{"geometry": {"type": "Point", "coordinates": [-98.140008, 34.370006]}, "type": "Feature", "properties": {"Time_": 313, "OBJECTID": 196, "Size_": 100, "Lon": -98.14, "Comments": "(OUN)", "County": "STEPHENS", "State": "OK", "Location": "2 W CORUM", "Lat": 34.37}},
{"geometry": {"type": "Point", "coordinates": [-97.1600077, 34.6400061]}, "type": "Feature", "properties": {"Time_": 315, "OBJECTID": 197, "Size_": 100, "Lon": -97.16, "Comments": "DELAYED REPORT OF QUARTER SIZED HAIL IN WYNNEWOOD. (OUN)", "County": "GARVIN", "State": "OK", "Location": "WYNNEWOOD", "Lat": 34.64}},
{"geometry": {"type": "Point", "coordinates": [-92.4500067, 37.1000067]}, "type": "Feature", "properties": {"Time_": 315, "OBJECTID": 198, "Size_": 275, "Lon": -92.45, "Comments": "FIRE DEPT REPORTS BASEBALL SIZED HAIL IN MACCOMB. (SGF)", "County": "WRIGHT", "State": "MO", "Location": "2 WSW NORWOOD", "Lat": 37.1}},
{"geometry": {"type": "Point", "coordinates": [-92.4100067, 37.0900067]}, "type": "Feature", "properties": {"Time_": 323, "OBJECTID": 199, "Size_": 100, "Lon": -92.41, "Comments": "(SGF)", "County": "WRIGHT", "State": "MO", "Location": "1 S NORWOOD", "Lat": 37.09}},
{"geometry": {"type": "Point", "coordinates": [-92.4100067, 37.1100068]}, "type": "Feature", "properties": {"Time_": 325, "OBJECTID": 200, "Size_": 200, "Lon": -92.41, "Comments": "HAIL 1.75 TO 2.00 INCHES IN DIAMETER WITH TREES REPORTED DOWN. (SGF)", "County": "WRIGHT", "State": "MO", "Location": "NORWOOD", "Lat": 37.11}},
{"geometry": {"type": "Point", "coordinates": [-93.0600069, 37.1200067]}, "type": "Feature", "properties": {"Time_": 331, "OBJECTID": 201, "Size_": 100, "Lon": -93.06, "Comments": "(SGF)", "County": "WEBSTER", "State": "MO", "Location": "ROGERSVILLE", "Lat": 37.12}},
{"geometry": {"type": "Point", "coordinates": [-98.0800079, 34.290006]}, "type": "Feature", "properties": {"Time_": 340, "OBJECTID": 202, "Size_": 100, "Lon": -98.08, "Comments": "QUARTER SIZED HAIL REPORTED AT WAURKIA LAKE. (OUN)", "County": "JEFFERSON", "State": "OK", "Location": "WAURIKA LAKE", "Lat": 34.29}},
{"geometry": {"type": "Point", "coordinates": [-93.4500069, 36.6200066]}, "type": "Feature", "properties": {"Time_": 348, "OBJECTID": 203, "Size_": 175, "Lon": -93.45, "Comments": "GOLF BALL SIZED HAIL REPORTED ON JOE BALD RD. (SGF)", "County": "STONE", "State": "MO", "Location": "2 WSW KIMBERLING CITY", "Lat": 36.62}},
{"geometry": {"type": "Point", "coordinates": [-98.330008, 34.380006]}, "type": "Feature", "properties": {"Time_": 401, "OBJECTID": 204, "Size_": 125, "Lon": -98.33, "Comments": "REPORT OF QUARTER TO HALF DOLLAR SIZED HAIL NEAR WALTERS. (OUN)", "County": "COTTON", "State": "OK", "Location": "2 NW WALTERS", "Lat": 34.38}},
{"geometry": {"type": "Point", "coordinates": [-85.640005, 40.3400077]}, "type": "Feature", "properties": {"Time_": 413, "OBJECTID": 205, "Size_": 125, "Lon": -85.64, "Comments": "(IND)", "County": "MADISON", "State": "IN", "Location": "SUMMITVILLE", "Lat": 40.34}},
{"geometry": {"type": "Point", "coordinates": [-96.8700077, 34.7700061]}, "type": "Feature", "properties": {"Time_": 415, "OBJECTID": 206, "Size_": 125, "Lon": -96.87, "Comments": "HALF DOLLAR SIZED HAIL AND ESTIMATED 60 MPH WINDS IN VANOSS. (OUN)", "County": "PONTOTOC", "State": "OK", "Location": "VANOSS", "Lat": 34.77}},
{"geometry": {"type": "Point", "coordinates": [-85.3700049, 40.4500077]}, "type": "Feature", "properties": {"Time_": 420, "OBJECTID": 207, "Size_": 200, "Lon": -85.37, "Comments": "(IWX)", "County": "BLACKFORD", "State": "IN", "Location": "HARTFORD CITY", "Lat": 40.45}},
{"geometry": {"type": "Point", "coordinates": [-85.3700049, 40.4500077]}, "type": "Feature", "properties": {"Time_": 421, "OBJECTID": 208, "Size_": 100, "Lon": -85.37, "Comments": "(IWX)", "County": "BLACKFORD", "State": "IN", "Location": "HARTFORD CITY", "Lat": 40.45}},
{"geometry": {"type": "Point", "coordinates": [-98.380008, 34.480006]}, "type": "Feature", "properties": {"Time_": 430, "OBJECTID": 209, "Size_": 200, "Lon": -98.38, "Comments": "2 INCH HAIL REPORTED IN GERONIMO. (OUN)", "County": "COMANCHE", "State": "OK", "Location": "GERONIMO", "Lat": 34.48}},
{"geometry": {"type": "Point", "coordinates": [-97.2400078, 34.8300061]}, "type": "Feature", "properties": {"Time_": 430, "OBJECTID": 210, "Size_": 100, "Lon": -97.24, "Comments": "ONE INCH HAIL REPORTED NEAR PAOLI. (OUN)", "County": "GARVIN", "State": "OK", "Location": "1 E PAOLI", "Lat": 34.83}},
{"geometry": {"type": "Point", "coordinates": [-85.1500049, 40.4900077]}, "type": "Feature", "properties": {"Time_": 430, "OBJECTID": 211, "Size_": 175, "Lon": -85.15, "Comments": "(IWX)", "County": "JAY", "State": "IN", "Location": "PENNVILLE", "Lat": 40.49}},
{"geometry": {"type": "Point", "coordinates": [-84.7100048, 40.6300078]}, "type": "Feature", "properties": {"Time_": 455, "OBJECTID": 212, "Size_": 100, "Lon": -84.71, "Comments": "(ILN)", "County": "MERCER", "State": "OH", "Location": "5 SW ROCKFORD", "Lat": 40.63}},
{"geometry": {"type": "Point", "coordinates": [-84.5200047, 40.6700078]}, "type": "Feature", "properties": {"Time_": 510, "OBJECTID": 213, "Size_": 175, "Lon": -84.52, "Comments": "(ILN)", "County": "MERCER", "State": "OH", "Location": "N MENDON", "Lat": 40.67}},
{"geometry": {"type": "Point", "coordinates": [-97.0900077, 34.8800061]}, "type": "Feature", "properties": {"Time_": 523, "OBJECTID": 214, "Size_": 200, "Lon": -97.09, "Comments": "STORM SPOTTER REPORTS HEN EGG SIZED HAIL NEAR BYARS. (OUN)", "County": "MCCLAIN", "State": "OK", "Location": "2 WNW BYARS", "Lat": 34.88}},
{"geometry": {"type": "Point", "coordinates": [-84.1100046, 40.7600078]}, "type": "Feature", "properties": {"Time_": 525, "OBJECTID": 215, "Size_": 100, "Lon": -84.11, "Comments": "REPORTED ON STATE ROAD 65. (IWX)", "County": "ALLEN", "State": "OH", "Location": "1 N LIMA", "Lat": 40.76}},
{"geometry": {"type": "Point", "coordinates": [-98.090008, 34.610006]}, "type": "Feature", "properties": {"Time_": 540, "OBJECTID": 216, "Size_": 175, "Lon": -98.09, "Comments": "QUARTER TO GOLF BALL SIZED HAIL REPORTED AT 8-MILE ROAD IN CENTRAL HIGH. (OUN)", "County": "STEPHENS", "State": "OK", "Location": "CENTRAL HIGH", "Lat": 34.61}},
{"geometry": {"type": "Point", "coordinates": [-87.8400055, 38.1700072]}, "type": "Feature", "properties": {"Time_": 543, "OBJECTID": 217, "Size_": 100, "Lon": -87.84, "Comments": "(PAH)", "County": "POSEY", "State": "IN", "Location": "3 W POSEYVILLE", "Lat": 38.17}},
{"geometry": {"type": "Point", "coordinates": [-93.710007, 36.3800066]}, "type": "Feature", "properties": {"Time_": 603, "OBJECTID": 218, "Size_": 100, "Lon": -93.71, "Comments": "(TSA)", "County": "CARROLL", "State": "AR", "Location": "2 SE EUREKA SPRINGS", "Lat": 36.38}},
{"geometry": {"type": "Point", "coordinates": [-93.740007, 36.4000066]}, "type": "Feature", "properties": {"Time_": 605, "OBJECTID": 219, "Size_": 125, "Lon": -93.74, "Comments": "LOTS OF LEAVES OFF THE TREES FROM THE HAIL (TSA)", "County": "CARROLL", "State": "AR", "Location": "EUREKA SPRINGS", "Lat": 36.4}},
{"geometry": {"type": "Point", "coordinates": [-85.9800049, 37.3700071]}, "type": "Feature", "properties": {"Time_": 615, "OBJECTID": 220, "Size_": 125, "Lon": -85.98, "Comments": "TRAINED SPOTTER REPORTS 1 TO 1.5 INCH HAIL (LMK)", "County": "HART", "State": "KY", "Location": "PRICEVILLE", "Lat": 37.37}},
{"geometry": {"type": "Point", "coordinates": [-83.2500044, 41.540008]}, "type": "Feature", "properties": {"Time_": 640, "OBJECTID": 221, "Size_": 100, "Lon": -83.25, "Comments": "(CLE)", "County": "OTTAWA", "State": "OH", "Location": "2 WNW ROCKY RIDGE", "Lat": 41.54}},
{"geometry": {"type": "Point", "coordinates": [-93.3700069, 36.6800066]}, "type": "Feature", "properties": {"Time_": 655, "OBJECTID": 222, "Size_": 100, "Lon": -93.37, "Comments": "(SGF)", "County": "STONE", "State": "MO", "Location": "1 S BRANSON WEST", "Lat": 36.68}},
{"geometry": {"type": "Point", "coordinates": [-92.6100068, 37.4000068]}, "type": "Feature", "properties": {"Time_": 916, "OBJECTID": 223, "Size_": 100, "Lon": -92.61, "Comments": "PUBLIC REPORTS QUARTER SIZED HAIL (SGF)", "County": "WRIGHT", "State": "MO", "Location": "GROVESPRING", "Lat": 37.4}},
{"geometry": {"type": "Point", "coordinates": [-84.8700046, 38.1900073]}, "type": "Feature", "properties": {"Time_": 939, "OBJECTID": 224, "Size_": 100, "Lon": -84.87, "Comments": "(LMK)", "County": "FRANKLIN", "State": "KY", "Location": "FRANKFORT", "Lat": 38.19}},
{"geometry": {"type": "Point", "coordinates": [-84.5300045, 38.1800073]}, "type": "Feature", "properties": {"Time_": 1000, "OBJECTID": 225, "Size_": 100, "Lon": -84.53, "Comments": "HWY 525 SOUTH. (LMK)", "County": "SCOTT", "State": "KY", "Location": "2 SE GEORGETOWN", "Lat": 38.18}},
{"geometry": {"type": "Point", "coordinates": [-94.8500073, 36.1700065]}, "type": "Feature", "properties": {"Time_": 1015, "OBJECTID": 226, "Size_": 100, "Lon": -94.85, "Comments": "VERY GUSTY WINDS. NO ESTIMATE. (TSA)", "County": "CHEROKEE", "State": "OK", "Location": "OAKS", "Lat": 36.17}},
{"geometry": {"type": "Point", "coordinates": [-84.3000045, 38.3100074]}, "type": "Feature", "properties": {"Time_": 1019, "OBJECTID": 227, "Size_": 100, "Lon": -84.3, "Comments": "(LMK)", "County": "HARRISON", "State": "KY", "Location": "5 S CYNTHIANA", "Lat": 38.31}},
{"geometry": {"type": "Point", "coordinates": [-94.6000072, 36.4000065]}, "type": "Feature", "properties": {"Time_": 1050, "OBJECTID": 228, "Size_": 100, "Lon": -94.6, "Comments": "STARTED SMALL THEN REACHED QUARTER SIZE. (TSA)", "County": "DELAWARE", "State": "AR", "Location": "MAYSVILLE", "Lat": 36.4}}
]}