{"type":"FeatureCollection","features":[
{"geometry": {"type": "Point", "coordinates": [-83.0510986, 36.7769106]}, "type": "Feature", "properties": {"HUC12": "060102060202", "Comment": null, "Name": "Reeds Creek-North Fork Powell River", "OBJECTID": 1, "GlobalID": "{FC3A66CF-4A57-4898-BF61-D060FD8ED038}", "Final_Location": "No"}},
{"geometry": {"type": "Point", "coordinates": [-82.7445212, 36.6750534]}, "type": "Feature", "properties": {"HUC12": "060102050605", "Comment": null, "Name": "Stock Creek", "OBJECTID": 2, "GlobalID": "{54508FCF-FB2D-4B0D-BFBA-4D7F19C00557}", "Final_Location": "No"}},
{"geometry": {"type": "Point", "coordinates": [-82.2705376, 37.1760274]}, "type": "Feature", "properties": {"HUC12": "050702020405", "Comment": null, "Name": "Left Fork-Lick Creek", "OBJECTID": 3, "GlobalID": "{9A3E3E71-20F2-4148-A294-186FB4CB6F2F}", "Final_Location": "No"}},
{"geometry": {"type": "Point", "coordinates": [-82.0435867, 37.2332771]}, "type": "Feature", "properties": {"HUC12": "050702020102", "Comment": null, "Name": "Grassy Creek-Levisa Fork", "OBJECTID": 4, "GlobalID": "{2C553783-6641-44BD-9F76-0018287ACBAD}", "Final_Location": "No"}},
{"geometry": {"type": "Point", "coordinates": [-82.0436196, 37.2334906]}, "type": "Feature", "properties": {"HUC12": "050702020104", "Comment": null, "Name": "Lower Dismal Creek", "OBJECTID": 5, "GlobalID": "{B70B97DC-21E2-472D-9163-4DE6DA2C7EC2}", "Final_Location": "No"}},
{"geometry": {"type": "Point", "coordinates": [-82.5979986, 36.9416164]}, "type": "Feature", "properties": {"HUC12": "060102050502", "Comment": null, "Name": "Bear Creek", "OBJECTID": 6, "GlobalID": "{C97513F6-FA28-422E-BF68-6D21AD2C882B}", "Final_Location": "No"}},
{"geometry": {"type": "Point", "coordinates": [-82.3825857, 37.2155489]}, "type": "Feature", "properties": {"HUC12": "050702020503", "Comment": null, "Name": "Cane Creek-John W Flannagan Reservoir", "OBJECTID": 7, "GlobalID": "{E58B0EBC-52FB-4678-8A5A-44D38FD415B6}", "Final_Location": "No"}},
{"geometry": {"type": "Point", "coordinates": [-82.3773172, 37.2116666]}, "type": "Feature", "properties": {"HUC12": "050702020506", "Comment": null, "Name": "Lick Fork-John W Flannagan Reservoir", "OBJECTID": 8, "GlobalID": "{063571EB-E24D-4B8F-A9A6-D9C1FD8CBBFC}", "Final_Location": "No"}},
{"geometry": {"type": "Point", "coordinates": [-82.0063307, 37.2125051]}, "type": "Feature", "properties": {"HUC12": "050702020101", "Comment": null, "Name": "Garden Creek", "OBJECTID": 9, "GlobalID": "{AF3C641D-3197-490A-8B32-2C1C274B452D}", "Final_Location": "No"}},
{"geometry": {"type": "Point", "coordinates": [-82.1008825, 37.2785251]}, "type": "Feature", "properties": {"HUC12": "050702020105", "Comment": null, "Name": "Prater Creek-Levisa Fork", "OBJECTID": 10, "GlobalID": "{C3F0A7AE-3629-4B2B-95BE-1CA7832400E8}", "Final_Location": "No"}},
{"geometry": {"type": "Point", "coordinates": [-82.3463855, 37.0695028]}, "type": "Feature", "properties": {"HUC12": "050702020302", "Comment": null, "Name": "Roaring Fork-McClure Creek", "OBJECTID": 11, "GlobalID": "{7AA9EA1E-9A06-4099-98ED-BE59B3B249D3}", "Final_Location": "No"}},
{"geometry": {"type": "Point", "coordinates": [-82.2067524, 37.1648309]}, "type": "Feature", "properties": {"HUC12": "050702020403", "Comment": null, "Name": "Fox Creek-Russell Fork", "OBJECTID": 12, "GlobalID": "{25FA623F-CA99-4ADE-8AAD-D59CFBE4F94F}", "Final_Location": "No"}},
{"geometry": {"type": "Point", "coordinates": [-82.6132571, 37.1231577]}, "type": "Feature", "properties": {"HUC12": "050702020501", "Comment": null, "Name": "South Fork Pound River-North Fork Pound River", "OBJECTID": 13, "GlobalID": "{AB42E8BD-D59D-4AE0-BFD3-05ADED31296B}", "Final_Location": "No"}},
{"geometry": {"type": "Point", "coordinates": [-82.346362, 37.0692675]}, "type": "Feature", "properties": {"HUC12": "050702020301", "Comment": null, "Name": "Open Fork", "OBJECTID": 14, "GlobalID": "{643DEABF-E4DF-4184-BD5E-A49E3BA93B9F}", "Final_Location": "No"}},
{"geometry": {"type": "Point", "coordinates": [-82.2916862, 37.2044717]}, "type": "Feature", "properties": {"HUC12": "050702020407", "Comment": null, "Name": "Russell Prater Creek", "OBJECTID": 15, "GlobalID": "{C5CE82BB-864A-4A72-8887-EA59483CA1FE}", "Final_Location": "No"}},
{"geometry": {"type": "Point", "coordinates": [-81.9264873, 37.0017597]}, "type": "Feature", "properties": {"HUC12": "060102050105", "Comment": null, "Name": "Swords Creek-Clinch River", "OBJECTID": 16, "GlobalID": "{33E1E04F-B130-4CE9-8F73-5A2966A739F7}", "Final_Location": "No"}},
{"geometry": {"type": "Point", "coordinates": [-81.9995794, 37.3849149]}, "type": "Feature", "properties": {"HUC12": "050702010304", "Comment": null, "Name": "Right Fork-Knox Creek", "OBJECTID": 17, "GlobalID": "{9FAE5A33-DACB-479F-8DC1-1ECCAC1881ED}", "Final_Location": "No"}},
{"geometry": {"type": "Point", "coordinates": [-83.0513982, 36.7767284]}, "type": "Feature", "properties": {"HUC12": "060102060203", "Comment": null, "Name": "Straight Creek", "OBJECTID": 18, "GlobalID": "{98EAB9B7-BD39-4BF2-95FC-D5D144B89FBF}", "Final_Location": "No"}},
{"geometry": {"type": "Point", "coordinates": [-82.781044, 36.9052918]}, "type": "Feature", "properties": {"HUC12": "060102060102", "Comment": null, "Name": "Black Creek-Powell River", "OBJECTID": 19, "GlobalID": "{3D370C2C-3960-44BB-82B2-34FAAF806EBB}", "Final_Location": "No"}},
{"geometry": {"type": "Point", "coordinates": [-82.6030095, 37.1287021]}, "type": "Feature", "properties": {"HUC12": "050702020502", "Comment": null, "Name": "Indian Creek-Pound River", "OBJECTID": 20, "GlobalID": "{62B84D24-1227-472C-9611-8A1E87B1DC74}", "Final_Location": "No"}},
{"geometry": {"type": "Point", "coordinates": [-82.1007455, 37.2786011]}, "type": "Feature", "properties": {"HUC12": "050702020106", "Comment": null, "Name": "Slate Creek", "OBJECTID": 21, "GlobalID": "{E3EBBEA8-32CC-457B-B8E4-87639875DE1D}", "Final_Location": "No"}},
{"geometry": {"type": "Point", "coordinates": [-82.0597116, 37.5361939]}, "type": "Feature", "properties": {"HUC12": "050702010303", "Comment": null, "Name": "Long Branch-Tug Fork", "OBJECTID": 22, "GlobalID": "{1AA872E4-7964-4A2E-8D5A-C667CEFD1A03}", "Final_Location": "No"}},
{"geometry": {"type": "Point", "coordinates": [-82.7810308, 36.9053987]}, "type": "Feature", "properties": {"HUC12": "060102060103", "Comment": null, "Name": "Callahan Creek", "OBJECTID": 23, "GlobalID": "{221D8C7E-8384-4DCD-9DA8-F056833975F1}", "Final_Location": "No"}},
{"geometry": {"type": "Point", "coordinates": [-82.7306355, 36.9202988]}, "type": "Feature", "properties": {"HUC12": "060102060101", "Comment": null, "Name": "Roaring Fork", "OBJECTID": 24, "GlobalID": "{6E36437D-9E1E-4B0E-B88C-6CBA45EB7604}", "Final_Location": "No"}},
{"geometry": {"type": "Point", "coordinates": [-82.1578639, 37.1102282]}, "type": "Feature", "properties": {"HUC12": "050702020401", "Comment": null, "Name": "Hurricane Creek-Russell Fork", "OBJECTID": 25, "GlobalID": "{48DCDA91-2F2A-45E0-9B52-DC24E5CF7678}", "Final_Location": "No"}},
{"geometry": {"type": "Point", "coordinates": [-81.8815618, 37.2459241]}, "type": "Feature", "properties": {"HUC12": "050702020103", "Comment": null, "Name": "Upper Dismal Creek", "OBJECTID": 26, "GlobalID": "{75086DB1-8961-4791-A021-154A9FAB01DF}", "Final_Location": "No"}},
{"geometry": {"type": "Point", "coordinates": [-82.5977098, 36.9414457]}, "type": "Feature", "properties": {"HUC12": "060102050501", "Comment": null, "Name": "Rocky Fork-Guest River", "OBJECTID": 27, "GlobalID": "{4148B8BA-D558-4FC0-A823-907D03F5E6AA}", "Final_Location": "No"}},
{"geometry": {"type": "Point", "coordinates": [-82.4966802, 37.063391]}, "type": "Feature", "properties": {"HUC12": "050702020504", "Comment": null, "Name": "Trace Fork-Cranesnest River", "OBJECTID": 28, "GlobalID": "{0B83A39B-5E67-4731-9407-71C2A4BA78D1}", "Final_Location": "No"}},
{"geometry": {"type": "Point", "coordinates": [-82.4066117, 36.8765152]}, "type": "Feature", "properties": {"HUC12": "060102050405", "Comment": null, "Name": "Bull Run-Clinch River", "OBJECTID": 29, "GlobalID": "{B1DEDDCC-B9B9-4342-960C-BD628FCACFC0}", "Final_Location": "No"}},
{"geometry": {"type": "Point", "coordinates": [-82.2917457, 37.2040733]}, "type": "Feature", "properties": {"HUC12": "050702020406", "Comment": null, "Name": "Pawpaw Creek-Russell Fork", "OBJECTID": 30, "GlobalID": "{66B10988-19E6-4F3E-A02A-FD943F80627F}", "Final_Location": "No"}},
{"geometry": {"type": "Point", "coordinates": [-81.6756848, 37.3052272]}, "type": "Feature", "properties": {"HUC12": "050702010103", "Comment": null, "Name": "Upper Dry Fork", "OBJECTID": 31, "GlobalID": "{336431EF-B4B3-4D0D-AF8C-91F3E1377B38}", "Final_Location": "No"}},
{"geometry": {"type": "Point", "coordinates": [-82.7885369, 36.8617238]}, "type": "Feature", "properties": {"HUC12": "060102060104", "Comment": null, "Name": "Pigeon Creek-Powell River", "OBJECTID": 32, "GlobalID": "{9A90E8CE-6272-4DD8-997F-7CDFF4F2DCCC}", "Final_Location": "No"}},
{"geometry": {"type": "Point", "coordinates": [-82.4965571, 37.0634963]}, "type": "Feature", "properties": {"HUC12": "050702020505", "Comment": null, "Name": "Birchfield Creek", "OBJECTID": 33, "GlobalID": "{5522636B-180D-4B70-9BDB-E4D07CD82C20}", "Final_Location": "No"}},
{"geometry": {"type": "Point", "coordinates": [-81.7659075, 37.0887306]}, "type": "Feature", "properties": {"HUC12": "060102050103", "Comment": null, "Name": "Greasy Creek-Indian Creek", "OBJECTID": 34, "GlobalID": "{BC893122-16B5-463E-81E5-1979693774ED}", "Final_Location": "No"}},
{"geometry": {"type": "Point", "coordinates": [-81.2535587, 37.3535985]}, "type": "Feature", "properties": {"HUC12": "050500020903", "Comment": null, "Name": "Laurel Fork-Bluestone River", "OBJECTID": 35, "GlobalID": "{8D192C3B-F554-4B96-821A-2FB4C0C1D306}", "Final_Location": "No"}}
]}