{"type":"FeatureCollection","features":[
{"geometry": {"type": "Point", "coordinates": [-77.4670924, 37.5936575]}, "type": "Feature", "properties": {"RecWater_No": 144, "Station_Desc": "Upham Brook- At Acca Temple", "OBJECTID": 1, "County": "RICHMOND CITY", "Notes": null, "WShed_Grp": "Lower James-Chickahominy/MS4", "WShed_No": 32, "Alternate_ID": "1657", "VPDES": null, "Station_No": 1, "Type_": "River/Stream", "Station_ID": "1", "Latitude": 37.59365, "Loc_Type": "Stream", "Longitude": -77.46709}},
{"geometry": {"type": "Point", "coordinates": [-77.4684824, 37.5979175]}, "type": "Feature", "properties": {"RecWater_No": 144, "Station_Desc": "Upham Brook- Joseph Bryan Park at dam", "OBJECTID": 2, "County": "RICHMOND CITY", "Notes": null, "WShed_Grp": "Lower James-Chickahominy/MS4", "WShed_No": 32, "Alternate_ID": "1658", "VPDES": null, "Station_No": 2, "Type_": "River/Stream", "Station_ID": "2", "Latitude": 37.59791, "Loc_Type": "Stream", "Longitude": -77.46848}},
{"geometry": {"type": "Point", "coordinates": [-77.4718424, 37.5976075]}, "type": "Feature", "properties": {"RecWater_No": 144, "Station_Desc": "Upham Brook- Joseph Bryan Park upper pond at bridge to pavilian II", "OBJECTID": 3, "County": "RICHMOND CITY", "Notes": null, "WShed_Grp": "Lower James-Chickahominy/MS4", "WShed_No": 32, "Alternate_ID": "1660", "VPDES": null, "Station_No": 3, "Type_": "River/Stream", "Station_ID": "3", "Latitude": 37.5976, "Loc_Type": "Stream", "Longitude": -77.47184}},
{"geometry": {"type": "Point", "coordinates": [-77.4690024, 37.5955775]}, "type": "Feature", "properties": {"RecWater_No": 144, "Station_Desc": "Upham Brook- Joseph Bryan Park bridge to soccer field", "OBJECTID": 4, "County": "RICHMOND CITY", "Notes": null, "WShed_Grp": "Lower James-Chickahominy/MS4", "WShed_No": 32, "Alternate_ID": "1659", "VPDES": null, "Station_No": 4, "Type_": "River/Stream", "Station_ID": "4", "Latitude": 37.59557, "Loc_Type": "Stream", "Longitude": -77.469}},
{"geometry": {"type": "Point", "coordinates": [-77.4597523, 37.6030375]}, "type": "Feature", "properties": {"RecWater_No": 144, "Station_Desc": "Upham Brook- Joseph Bryan Park Vale Street bridge", "OBJECTID": 5, "County": "HENRICO", "Notes": null, "WShed_Grp": "outside of City", "WShed_No": -99, "Alternate_ID": "1661", "VPDES": null, "Station_No": 5, "Type_": "River/Stream", "Station_ID": "5", "Latitude": 37.60303, "Loc_Type": "Stream", "Longitude": -77.45975}},
{"geometry": {"type": "Point", "coordinates": [-77.4864124, 37.5996375]}, "type": "Feature", "properties": {"RecWater_No": 144, "Station_Desc": "Upham Brook- At bridge to Brown Distributing facility", "OBJECTID": 6, "County": "HENRICO", "Notes": null, "WShed_Grp": "outside of City", "WShed_No": -99, "Alternate_ID": "1662", "VPDES": null, "Station_No": 6, "Type_": "River/Stream", "Station_ID": "6", "Latitude": 37.59963, "Loc_Type": "Stream", "Longitude": -77.48641}},
{"geometry": {"type": "Point", "coordinates": [-77.5221024, 37.4435075]}, "type": "Feature", "properties": {"RecWater_No": 45, "Station_Desc": "Falling Creek at Belmont Road", "OBJECTID": 7, "County": "CHESTERFIELD", "Notes": null, "WShed_Grp": "outside of City", "WShed_No": -99, "Alternate_ID": "2489", "VPDES": null, "Station_No": 7, "Type_": "River/Stream", "Station_ID": "18", "Latitude": 37.4435, "Loc_Type": "Stream", "Longitude": -77.5221}},
{"geometry": {"type": "Point", "coordinates": [-77.4468023, 37.4474075]}, "type": "Feature", "properties": {"RecWater_No": 45, "Station_Desc": "Falling Creek at Kay Road", "OBJECTID": 8, "County": "CHESTERFIELD", "Notes": null, "WShed_Grp": "outside of City", "WShed_No": -99, "Alternate_ID": "2490", "VPDES": null, "Station_No": 8, "Type_": "River/Stream", "Station_ID": "19", "Latitude": 37.4474, "Loc_Type": "Stream", "Longitude": -77.4468}},
{"geometry": {"type": "Point", "coordinates": [-77.5754024, 37.4910075]}, "type": "Feature", "properties": {"RecWater_No": 96, "Station_Desc": "Pocoshock Creek- North bank of creek next to Shenandoah Community Association parking lot", "OBJECTID": 9, "County": "CHESTERFIELD", "Notes": null, "WShed_Grp": "outside of City", "WShed_No": -99, "Alternate_ID": "2507", "VPDES": null, "Station_No": 9, "Type_": "River/Stream", "Station_ID": "20", "Latitude": 37.491, "Loc_Type": "Stream", "Longitude": -77.5754}},
{"geometry": {"type": "Point", "coordinates": [-77.5410024, 37.4914075]}, "type": "Feature", "properties": {"RecWater_No": 96, "Station_Desc": "Pocoshock Creek UT at A.M. Davis Elementary School", "OBJECTID": 10, "County": "CHESTERFIELD", "Notes": null, "WShed_Grp": "outside of City", "WShed_No": -99, "Alternate_ID": "2971", "VPDES": null, "Station_No": 10, "Type_": "River/Stream", "Station_ID": "31", "Latitude": 37.4914, "Loc_Type": "Stream", "Longitude": -77.541}},
{"geometry": {"type": "Point", "coordinates": [-77.4686023, 37.5246075]}, "type": "Feature", "properties": {"RecWater_No": 65, "Station_Desc": "James River- Sample site downstream of Reedy Creek at James River Park", "OBJECTID": 11, "County": "RICHMOND CITY", "Notes": null, "WShed_Grp": "Middle James/MS4", "WShed_No": 42, "Alternate_ID": "454", "VPDES": null, "Station_No": 11, "Type_": "River/Stream", "Station_ID": "35", "Latitude": 37.5246, "Loc_Type": "Stream", "Longitude": -77.4686}},
{"geometry": {"type": "Point", "coordinates": [-77.3040633, 37.3584055]}, "type": "Feature", "properties": {"RecWater_No": 65, "Station_Desc": null, "OBJECTID": 12, "County": "HENRICO", "Notes": null, "WShed_Grp": "outside of City", "WShed_No": -99, "Alternate_ID": null, "VPDES": null, "Station_No": 204, "Type_": null, "Station_ID": "13J81", "Latitude": 37.358398, "Loc_Type": null, "Longitude": -77.304061}},
{"geometry": {"type": "Point", "coordinates": [-77.2528243, 37.3560475]}, "type": "Feature", "properties": {"RecWater_No": 65, "Station_Desc": null, "OBJECTID": 13, "County": "CHESTERFIELD", "Notes": null, "WShed_Grp": "outside of City", "WShed_No": -99, "Alternate_ID": null, "VPDES": null, "Station_No": 207, "Type_": null, "Station_ID": "13JT01", "Latitude": 37.35604, "Loc_Type": null, "Longitude": -77.252822}},
{"geometry": {"type": "Point", "coordinates": [-77.2695483, 37.3443865]}, "type": "Feature", "properties": {"RecWater_No": 65, "Station_Desc": null, "OBJECTID": 14, "County": "CHESTERFIELD", "Notes": null, "WShed_Grp": "outside of City", "WShed_No": -99, "Alternate_ID": null, "VPDES": null, "Station_No": 208, "Type_": null, "Station_ID": "13JT02", "Latitude": 37.344379, "Loc_Type": null, "Longitude": -77.269546}},
{"geometry": {"type": "Point", "coordinates": [-77.4220903, 37.5001065]}, "type": "Feature", "properties": {"RecWater_No": 65, "Station_Desc": null, "OBJECTID": 15, "County": "RICHMOND CITY", "Notes": null, "WShed_Grp": "Lower James/MS4", "WShed_No": 20, "Alternate_ID": null, "VPDES": null, "Station_No": 209, "Type_": "Tidal Freshwater", "Station_ID": "13JT03", "Latitude": 37.500099, "Loc_Type": null, "Longitude": -77.422088}},
{"geometry": {"type": "Point", "coordinates": [-77.4144003, 37.4228475]}, "type": "Feature", "properties": {"RecWater_No": 65, "Station_Desc": null, "OBJECTID": 16, "County": "HENRICO", "Notes": null, "WShed_Grp": "outside of City", "WShed_No": -99, "Alternate_ID": null, "VPDES": null, "Station_No": 210, "Type_": null, "Station_ID": "13JT06", "Latitude": 37.42284, "Loc_Type": null, "Longitude": -77.414398}},
{"geometry": {"type": "Point", "coordinates": [-77.3699893, 37.3600265]}, "type": "Feature", "properties": {"RecWater_No": 65, "Station_Desc": null, "OBJECTID": 17, "County": "CHESTERFIELD", "Notes": null, "WShed_Grp": "outside of City", "WShed_No": -99, "Alternate_ID": null, "VPDES": null, "Station_No": 211, "Type_": null, "Station_ID": "13JT07", "Latitude": 37.360019, "Loc_Type": null, "Longitude": -77.369987}},
{"geometry": {"type": "Point", "coordinates": [-77.3726523, 37.3903955]}, "type": "Feature", "properties": {"RecWater_No": 65, "Station_Desc": null, "OBJECTID": 18, "County": "HENRICO", "Notes": null, "WShed_Grp": "outside of City", "WShed_No": -99, "Alternate_ID": null, "VPDES": null, "Station_No": 212, "Type_": null, "Station_ID": "13JT08", "Latitude": 37.390388, "Loc_Type": null, "Longitude": -77.37265}},
{"geometry": {"type": "Point", "coordinates": [-77.2902693, 37.3544155]}, "type": "Feature", "properties": {"RecWater_No": 65, "Station_Desc": null, "OBJECTID": 19, "County": "HENRICO", "Notes": null, "WShed_Grp": "outside of City", "WShed_No": -99, "Alternate_ID": null, "VPDES": null, "Station_No": 213, "Type_": null, "Station_ID": "13JT09", "Latitude": 37.354408, "Loc_Type": null, "Longitude": -77.290267}},
{"geometry": {"type": "Point", "coordinates": [-77.3669303, 37.3920665]}, "type": "Feature", "properties": {"RecWater_No": 65, "Station_Desc": null, "OBJECTID": 20, "County": "HENRICO", "Notes": null, "WShed_Grp": "outside of City", "WShed_No": -99, "Alternate_ID": null, "VPDES": null, "Station_No": 214, "Type_": null, "Station_ID": "13JT11", "Latitude": 37.392059, "Loc_Type": null, "Longitude": -77.366928}},
{"geometry": {"type": "Point", "coordinates": [-77.2466453, 37.3744155]}, "type": "Feature", "properties": {"RecWater_No": 65, "Station_Desc": null, "OBJECTID": 21, "County": "CHESTERFIELD", "Notes": null, "WShed_Grp": "outside of City", "WShed_No": -99, "Alternate_ID": null, "VPDES": null, "Station_No": 215, "Type_": null, "Station_ID": "13JT13", "Latitude": 37.374408, "Loc_Type": null, "Longitude": -77.246643}},
{"geometry": {"type": "Point", "coordinates": [-77.3046083, 37.3702705]}, "type": "Feature", "properties": {"RecWater_No": 65, "Station_Desc": null, "OBJECTID": 22, "County": "HENRICO", "Notes": null, "WShed_Grp": "outside of City", "WShed_No": -99, "Alternate_ID": null, "VPDES": null, "Station_No": 287, "Type_": null, "Station_ID": "17J25", "Latitude": 37.370263, "Loc_Type": null, "Longitude": -77.304606}},
{"geometry": {"type": "Point", "coordinates": [-77.4439023, 37.4869075]}, "type": "Feature", "properties": {"RecWater_No": 18, "Station_Desc": "Broad Rock Creek at Columbia St, Richmond", "OBJECTID": 23, "County": "RICHMOND CITY", "Notes": null, "WShed_Grp": "Lower James/MS4", "WShed_No": 23, "Alternate_ID": "21VASWCB-2-BDO000.38", "VPDES": null, "Station_No": 323, "Type_": "River/Stream", "Station_ID": "2-BDO000.38", "Latitude": 37.4869, "Loc_Type": "Stream", "Longitude": -77.4439}},
{"geometry": {"type": "Point", "coordinates": [-77.4350023, 37.5278075]}, "type": "Feature", "properties": {"RecWater_No": 65, "Station_Desc": "James River, RT 360 Mayos Bridge", "OBJECTID": 24, "County": "RICHMOND CITY", "Notes": null, "WShed_Grp": "Lower James/CSO", "WShed_No": 13, "Alternate_ID": "21VASWCB-2-JMS110.30", "VPDES": null, "Station_No": 325, "Type_": "Tidal Freshwater", "Station_ID": "2-JMS110.30", "Latitude": 37.5278, "Loc_Type": "Stream", "Longitude": -77.435}},
{"geometry": {"type": "Point", "coordinates": [-77.4386023, 37.5272075]}, "type": "Feature", "properties": {"RecWater_No": 65, "Station_Desc": "South Bank of James River at last rapid", "OBJECTID": 25, "County": "RICHMOND CITY", "Notes": null, "WShed_Grp": "Lower James/CSO", "WShed_No": 13, "Alternate_ID": "21VASWCB-2-JMS110.34", "VPDES": null, "Station_No": 326, "Type_": "River/Stream", "Station_ID": "2-JMS110.34", "Latitude": 37.5272, "Loc_Type": "Stream", "Longitude": -77.4386}},
{"geometry": {"type": "Point", "coordinates": [-77.4353023, 37.5325075]}, "type": "Feature", "properties": {"RecWater_No": 65, "Station_Desc": "North Bank James River below fall zone", "OBJECTID": 26, "County": "RICHMOND CITY", "Notes": null, "WShed_Grp": "Lower James/CSO", "WShed_No": 10, "Alternate_ID": "21VASWCB-2-JMS110.44", "VPDES": null, "Station_No": 327, "Type_": "River/Stream", "Station_ID": "2-JMS110.44", "Latitude": 37.5325, "Loc_Type": "Stream", "Longitude": -77.4353}},
{"geometry": {"type": "Point", "coordinates": [-77.4477803, 37.5344515]}, "type": "Feature", "properties": {"RecWater_No": 65, "Station_Desc": "James River, at Tredegar Iron Works", "OBJECTID": 27, "County": null, "Notes": null, "WShed_Grp": "Lower James/CSO", "WShed_No": 10, "Alternate_ID": "21VASWCB-2-JMS111.17", "VPDES": null, "Station_No": 328, "Type_": "River/Stream", "Station_ID": "2-JMS111.17", "Latitude": 37.534444, "Loc_Type": "Stream", "Longitude": -77.447778}},
{"geometry": {"type": "Point", "coordinates": [-77.4569023, 37.5247075]}, "type": "Feature", "properties": {"RecWater_No": 65, "Station_Desc": "James River, Downstream Canoe Run CSO, SOU", "OBJECTID": 28, "County": "RICHMOND CITY", "Notes": null, "WShed_Grp": "Lower James/CSO", "WShed_No": 13, "Alternate_ID": "21VASWCB-2-JMS111.48", "VPDES": null, "Station_No": 329, "Type_": "River/Stream", "Station_ID": "2-JMS111.48", "Latitude": 37.5247, "Loc_Type": "Stream", "Longitude": -77.4569}},
{"geometry": {"type": "Point", "coordinates": [-77.4686023, 37.5286075]}, "type": "Feature", "properties": {"RecWater_No": 65, "Station_Desc": "James River at Texas Avenue Beach", "OBJECTID": 29, "County": null, "Notes": null, "WShed_Grp": "Lower James/CSO", "WShed_No": 10, "Alternate_ID": "21VASWCB-2-JMS112.33", "VPDES": null, "Station_No": 330, "Type_": "River/Stream", "Station_ID": "2-JMS112.33", "Latitude": 37.5286, "Loc_Type": "Stream", "Longitude": -77.4686}},
{"geometry": {"type": "Point", "coordinates": [-77.4694023, 37.5244075]}, "type": "Feature", "properties": {"RecWater_No": 65, "Station_Desc": "James River at mouth of Reedy Creek", "OBJECTID": 30, "County": "RICHMOND CITY", "Notes": null, "WShed_Grp": "Middle James/MS4", "WShed_No": 42, "Alternate_ID": "21VASWCB-2-JMS112.37", "VPDES": null, "Station_No": 331, "Type_": "River/Stream", "Station_ID": "2-JMS112.37", "Latitude": 37.5244, "Loc_Type": "Stream", "Longitude": -77.4694}},
{"geometry": {"type": "Point", "coordinates": [-77.4769023, 37.5272075]}, "type": "Feature", "properties": {"RecWater_No": 65, "Station_Desc": "James River, 676M above mouth of Reedy Creek", "OBJECTID": 31, "County": null, "Notes": null, "WShed_Grp": "Middle James/MS4", "WShed_No": 42, "Alternate_ID": "21VASWCB-2-JMS112.79?", "VPDES": null, "Station_No": 332, "Type_": "River/Stream", "Station_ID": "2-JMS112.79", "Latitude": 37.5272, "Loc_Type": "Stream", "Longitude": -77.4769}},
{"geometry": {"type": "Point", "coordinates": [-77.4836984, 37.5314255]}, "type": "Feature", "properties": {"RecWater_No": 65, "Station_Desc": "Boulevard Bridge", "OBJECTID": 32, "County": "RICHMOND CITY", "Notes": null, "WShed_Grp": "Middle James/MS4", "WShed_No": 42, "Alternate_ID": "21VASWCB-2-JMS113.20", "VPDES": null, "Station_No": 333, "Type_": "River/Stream", "Station_ID": "2-JMS113.20", "Latitude": 37.531418, "Loc_Type": "Stream", "Longitude": -77.483696}},
{"geometry": {"type": "Point", "coordinates": [-77.5119024, 37.5494075]}, "type": "Feature", "properties": {"RecWater_No": 65, "Station_Desc": "Sta. 1--Pony Pasture Park at fall zone", "OBJECTID": 33, "County": "RICHMOND CITY", "Notes": null, "WShed_Grp": "Middle James/MS4", "WShed_No": 45, "Alternate_ID": "21VASWCB-2-JMS115.29", "VPDES": null, "Station_No": 334, "Type_": "River/Stream", "Station_ID": "2-JMS115.29", "Latitude": 37.5494, "Loc_Type": "Stream", "Longitude": -77.5119}},
{"geometry": {"type": "Point", "coordinates": [-77.4711023, 37.5231075]}, "type": "Feature", "properties": {"RecWater_No": 107, "Station_Desc": "Reedy Creek, Riverside Dr., Richmond, VA", "OBJECTID": 34, "County": "RICHMOND CITY", "Notes": null, "WShed_Grp": "Middle James/MS4", "WShed_No": 42, "Alternate_ID": "21VASWCB-2-RDD000.19", "VPDES": null, "Station_No": 335, "Type_": "River/Stream", "Station_ID": "2-RDD000.19", "Latitude": 37.5231, "Loc_Type": "Stream", "Longitude": -77.4711}},
{"geometry": {"type": "Point", "coordinates": [-77.4719023, 37.5156075]}, "type": "Feature", "properties": {"RecWater_No": 107, "Station_Desc": "Reedy Creek, Forest Hill Avenue Bridge", "OBJECTID": 35, "County": "RICHMOND CITY", "Notes": null, "WShed_Grp": "Middle James/MS4", "WShed_No": 42, "Alternate_ID": "21VASWCB-2-RDD000.76", "VPDES": null, "Station_No": 336, "Type_": "River/Stream", "Station_ID": "2-RDD000.76", "Latitude": 37.5156, "Loc_Type": "Stream", "Longitude": -77.4719}},
{"geometry": {"type": "Point", "coordinates": [-77.5682024, 37.6826075]}, "type": "Feature", "properties": {"RecWater_No": 1, "Station_Desc": "Allens Branch, 10m above Rooty Branch", "OBJECTID": 36, "County": "HENRICO", "Notes": null, "WShed_Grp": "outside of City", "WShed_No": -99, "Alternate_ID": null, "VPDES": null, "Station_No": 338, "Type_": null, "Station_ID": "2-ALL000.19", "Latitude": 37.6826, "Loc_Type": null, "Longitude": -77.5682}},
{"geometry": {"type": "Point", "coordinates": [-77.4392723, 37.5278475]}, "type": "Feature", "properties": {"RecWater_No": 65, "Station_Desc": null, "OBJECTID": 37, "County": "RICHMOND CITY", "Notes": null, "WShed_Grp": "Lower James/CSO", "WShed_No": 13, "Alternate_ID": null, "VPDES": null, "Station_No": 349, "Type_": "River/Stream", "Station_ID": "2BJMS110.53", "Latitude": 37.52784, "Loc_Type": "Stream", "Longitude": -77.43927}},
{"geometry": {"type": "Point", "coordinates": [-77.4869824, 37.5349975]}, "type": "Feature", "properties": {"RecWater_No": 65, "Station_Desc": null, "OBJECTID": 38, "County": "RICHMOND CITY", "Notes": null, "WShed_Grp": "Middle James/MS4", "WShed_No": 41, "Alternate_ID": null, "VPDES": null, "Station_No": 350, "Type_": "River/Stream", "Station_ID": "2BJMS113.47", "Latitude": 37.53499, "Loc_Type": "Stream", "Longitude": -77.48698}},
{"geometry": {"type": "Point", "coordinates": [-77.0131692, 37.1794794]}, "type": "Feature", "properties": {"RecWater_No": 4, "Station_Desc": null, "OBJECTID": 39, "County": null, "Notes": null, "WShed_Grp": "outside of City", "WShed_No": -99, "Alternate_ID": null, "VPDES": null, "Station_No": 353, "Type_": null, "Station_ID": "2-BLB002.23", "Latitude": 37.179472, "Loc_Type": null, "Longitude": -77.013167}},
{"geometry": {"type": "Point", "coordinates": [-77.5984024, 37.6374075]}, "type": "Feature", "properties": {"RecWater_No": 137, "Station_Desc": null, "OBJECTID": 40, "County": "HENRICO", "Notes": null, "WShed_Grp": "outside of City", "WShed_No": -99, "Alternate_ID": null, "VPDES": null, "Station_No": 362, "Type_": null, "Station_ID": "2BXAM000.19", "Latitude": 37.6374, "Loc_Type": null, "Longitude": -77.5984}},
{"geometry": {"type": "Point", "coordinates": [-77.2547023, 37.3961075]}, "type": "Feature", "properties": {"RecWater_No": 33, "Station_Desc": "CREWES CHANNEL, RT. 5 BRIDGE", "OBJECTID": 41, "County": "HENRICO", "Notes": null, "WShed_Grp": "outside of City", "WShed_No": -99, "Alternate_ID": null, "VPDES": null, "Station_No": 363, "Type_": null, "Station_ID": "2-CCH000.54", "Latitude": 37.3961, "Loc_Type": null, "Longitude": -77.2547}},
{"geometry": {"type": "Point", "coordinates": [-77.4083353, 37.4377845]}, "type": "Feature", "properties": {"RecWater_No": 162, "Station_Desc": null, "OBJECTID": 42, "County": "HENRICO", "Notes": null, "WShed_Grp": "outside of City", "WShed_No": -99, "Alternate_ID": null, "VPDES": null, "Station_No": 364, "Type_": null, "Station_ID": "2-CEL001.00", "Latitude": 37.437777, "Loc_Type": null, "Longitude": -77.408333}},
{"geometry": {"type": "Point", "coordinates": [-77.2714023, 37.5519075]}, "type": "Feature", "properties": {"RecWater_No": 27, "Station_Desc": "CHICKAHOMINY RIVER RT. 156 BRIDGE", "OBJECTID": 43, "County": "HENRICO", "Notes": null, "WShed_Grp": "outside of City", "WShed_No": -99, "Alternate_ID": null, "VPDES": null, "Station_No": 371, "Type_": null, "Station_ID": "2-CHK055.04", "Latitude": 37.5519, "Loc_Type": null, "Longitude": -77.2714}},
{"geometry": {"type": "Point", "coordinates": [-77.5430224, 37.6853175]}, "type": "Feature", "properties": {"RecWater_No": 27, "Station_Desc": null, "OBJECTID": 44, "County": "HENRICO", "Notes": null, "WShed_Grp": "outside of City", "WShed_No": -99, "Alternate_ID": null, "VPDES": null, "Station_No": 376, "Type_": null, "Station_ID": "2-CHK079.23", "Latitude": 37.68531, "Loc_Type": null, "Longitude": -77.54302}},
{"geometry": {"type": "Point", "coordinates": [-77.5448024, 37.6065075]}, "type": "Feature", "properties": {"RecWater_No": 144, "Station_Desc": "UT Upham in Cheswick Pk, off Alvarado Rd", "OBJECTID": 45, "County": "HENRICO", "Notes": null, "WShed_Grp": "outside of City", "WShed_No": -99, "Alternate_ID": null, "VPDES": null, "Station_No": 381, "Type_": null, "Station_ID": "2CXAR000.57", "Latitude": 37.6065, "Loc_Type": null, "Longitude": -77.5448}},
{"geometry": {"type": "Point", "coordinates": [-77.3417023, 37.3429075]}, "type": "Feature", "properties": {"RecWater_No": 66, "Station_Desc": null, "OBJECTID": 46, "County": "CHESTERFIELD", "Notes": null, "WShed_Grp": "outside of City", "WShed_No": -99, "Alternate_ID": null, "VPDES": null, "Station_No": 382, "Type_": null, "Station_ID": "2CXBR000.10", "Latitude": 37.3429, "Loc_Type": null, "Longitude": -77.3417}},
{"geometry": {"type": "Point", "coordinates": [-77.3511023, 37.3446075]}, "type": "Feature", "properties": {"RecWater_No": 66, "Station_Desc": null, "OBJECTID": 47, "County": "CHESTERFIELD", "Notes": null, "WShed_Grp": "outside of City", "WShed_No": -99, "Alternate_ID": null, "VPDES": null, "Station_No": 383, "Type_": null, "Station_ID": "2CXBR000.68", "Latitude": 37.3446, "Loc_Type": null, "Longitude": -77.3511}},
{"geometry": {"type": "Point", "coordinates": [-77.3594023, 37.3464075]}, "type": "Feature", "properties": {"RecWater_No": 66, "Station_Desc": null, "OBJECTID": 48, "County": "CHESTERFIELD", "Notes": null, "WShed_Grp": "outside of City", "WShed_No": -99, "Alternate_ID": null, "VPDES": null, "Station_No": 384, "Type_": null, "Station_ID": "2CXBR001.15", "Latitude": 37.3464, "Loc_Type": null, "Longitude": -77.3594}},
{"geometry": {"type": "Point", "coordinates": [-77.3295023, 37.3438075]}, "type": "Feature", "properties": {"RecWater_No": 66, "Station_Desc": null, "OBJECTID": 49, "County": "CHESTERFIELD", "Notes": null, "WShed_Grp": "outside of City", "WShed_No": -99, "Alternate_ID": null, "VPDES": null, "Station_No": 385, "Type_": null, "Station_ID": "2CXBS000.62", "Latitude": 37.3438, "Loc_Type": null, "Longitude": -77.3295}},
{"geometry": {"type": "Point", "coordinates": [-77.3383023, 37.3622075]}, "type": "Feature", "properties": {"RecWater_No": 66, "Station_Desc": null, "OBJECTID": 50, "County": "CHESTERFIELD", "Notes": null, "WShed_Grp": "outside of City", "WShed_No": -99, "Alternate_ID": null, "VPDES": null, "Station_No": 386, "Type_": null, "Station_ID": "2CXBS002.85", "Latitude": 37.3622, "Loc_Type": null, "Longitude": -77.3383}},
{"geometry": {"type": "Point", "coordinates": [-76.8488911, 37.1623684]}, "type": "Feature", "properties": {"RecWater_No": -999, "Station_Desc": null, "OBJECTID": 51, "County": null, "Notes": null, "WShed_Grp": null, "WShed_No": -99, "Alternate_ID": null, "VPDES": null, "Station_No": 393, "Type_": null, "Station_ID": "2-DRK000.31", "Latitude": 37.162361, "Loc_Type": null, "Longitude": -76.848889}},
{"geometry": {"type": "Point", "coordinates": [-77.4391023, 37.4399075]}, "type": "Feature", "properties": {"RecWater_No": 45, "Station_Desc": "(NTID) RT. 1 BRIDGE", "OBJECTID": 52, "County": "CHESTERFIELD", "Notes": null, "WShed_Grp": "outside of City", "WShed_No": -99, "Alternate_ID": null, "VPDES": null, "Station_No": 399, "Type_": null, "Station_ID": "2-FAC000.85", "Latitude": 37.4399, "Loc_Type": null, "Longitude": -77.4391}},
{"geometry": {"type": "Point", "coordinates": [-77.4393023, 37.4396075]}, "type": "Feature", "properties": {"RecWater_No": 45, "Station_Desc": null, "OBJECTID": 53, "County": "CHESTERFIELD", "Notes": null, "WShed_Grp": "outside of City", "WShed_No": -99, "Alternate_ID": null, "VPDES": null, "Station_No": 400, "Type_": null, "Station_ID": "2-FAC009.46", "Latitude": 37.4396, "Loc_Type": null, "Longitude": -77.4393}},
{"geometry": {"type": "Point", "coordinates": [-77.6292024, 37.4708075]}, "type": "Feature", "properties": {"RecWater_No": 45, "Station_Desc": null, "OBJECTID": 54, "County": "CHESTERFIELD", "Notes": null, "WShed_Grp": "outside of City", "WShed_No": -99, "Alternate_ID": null, "VPDES": null, "Station_No": 401, "Type_": null, "Station_ID": "2-FAC017.80", "Latitude": 37.4708, "Loc_Type": null, "Longitude": -77.6292}},
{"geometry": {"type": "Point", "coordinates": [-77.3256023, 37.4328075]}, "type": "Feature", "properties": {"RecWater_No": 50, "Station_Desc": "Four Mile Creek at Rt. 5", "OBJECTID": 55, "County": "HENRICO", "Notes": null, "WShed_Grp": "outside of City", "WShed_No": -99, "Alternate_ID": null, "VPDES": null, "Station_No": 403, "Type_": null, "Station_ID": "2-FOM003.60", "Latitude": 37.4328, "Loc_Type": null, "Longitude": -77.3256}},
{"geometry": {"type": "Point", "coordinates": [-77.9342025, 37.6811575]}, "type": "Feature", "properties": {"RecWater_No": -999, "Station_Desc": null, "OBJECTID": 56, "County": null, "Notes": null, "WShed_Grp": null, "WShed_No": -99, "Alternate_ID": null, "VPDES": null, "Station_No": 404, "Type_": null, "Station_ID": "2-GDC000.52", "Latitude": 37.68115, "Loc_Type": null, "Longitude": -77.9342}},
{"geometry": {"type": "Point", "coordinates": [-77.4392723, 37.5278475]}, "type": "Feature", "properties": {"RecWater_No": 65, "Station_Desc": null, "OBJECTID": 57, "County": "RICHMOND CITY", "Notes": null, "WShed_Grp": "Lower James/CSO", "WShed_No": 13, "Alternate_ID": null, "VPDES": null, "Station_No": 405, "Type_": "River/Stream", "Station_ID": "2-GIL000.42", "Latitude": 37.52784, "Loc_Type": "Stream", "Longitude": -77.43927}},
{"geometry": {"type": "Point", "coordinates": [-77.3028023, 37.3575075]}, "type": "Feature", "properties": {"RecWater_No": 65, "Station_Desc": null, "OBJECTID": 58, "County": "CHESTERFIELD", "Notes": null, "WShed_Grp": "outside of City", "WShed_No": -99, "Alternate_ID": null, "VPDES": null, "Station_No": 419, "Type_": null, "Station_ID": "2-JMS087.01", "Latitude": 37.3575, "Loc_Type": null, "Longitude": -77.3028}},
{"geometry": {"type": "Point", "coordinates": [-77.3919023, 37.4029075]}, "type": "Feature", "properties": {"RecWater_No": 65, "Station_Desc": null, "OBJECTID": 59, "County": "HENRICO", "Notes": null, "WShed_Grp": "outside of City", "WShed_No": -99, "Alternate_ID": null, "VPDES": null, "Station_No": 420, "Type_": null, "Station_ID": "2-JMS099.30", "Latitude": 37.4029, "Loc_Type": null, "Longitude": -77.3919}},
{"geometry": {"type": "Point", "coordinates": [-77.4200023, 37.4498075]}, "type": "Feature", "properties": {"RecWater_No": 65, "Station_Desc": "James River at buoy 166", "OBJECTID": 60, "County": "RICHMOND CITY", "Notes": null, "WShed_Grp": "Lower James/MS4", "WShed_No": 21, "Alternate_ID": "21VASWCB-2-JMS104.16", "VPDES": null, "Station_No": 421, "Type_": "Tidal Freshwater", "Station_ID": "2-JMS104.16", "Latitude": 37.4498, "Loc_Type": "Stream", "Longitude": -77.42}},
{"geometry": {"type": "Point", "coordinates": [-77.5438104, 37.5615915]}, "type": "Feature", "properties": {"RecWater_No": 65, "Station_Desc": "James River at RT. 147 Huguenot BRIDGE", "OBJECTID": 61, "County": "HENRICO", "Notes": null, "WShed_Grp": "outside of City", "WShed_No": -99, "Alternate_ID": null, "VPDES": null, "Station_No": 422, "Type_": "River/Stream", "Station_ID": "2-JMS117.35", "Latitude": 37.561584, "Loc_Type": "Stream", "Longitude": -77.543808}},
{"geometry": {"type": "Point", "coordinates": [-77.3067023, 37.3231075]}, "type": "Feature", "properties": {"RecWater_No": 66, "Station_Desc": null, "OBJECTID": 62, "County": "CHESTERFIELD", "Notes": null, "WShed_Grp": "outside of City", "WShed_No": -99, "Alternate_ID": null, "VPDES": null, "Station_No": 430, "Type_": null, "Station_ID": "2-JOD001.19", "Latitude": 37.3231, "Loc_Type": null, "Longitude": -77.3067}},
{"geometry": {"type": "Point", "coordinates": [-77.3178023, 37.3289075]}, "type": "Feature", "properties": {"RecWater_No": 66, "Station_Desc": null, "OBJECTID": 63, "County": "CHESTERFIELD", "Notes": null, "WShed_Grp": "outside of City", "WShed_No": -99, "Alternate_ID": null, "VPDES": null, "Station_No": 431, "Type_": null, "Station_ID": "2-JOD001.96", "Latitude": 37.3289, "Loc_Type": null, "Longitude": -77.3178}},
{"geometry": {"type": "Point", "coordinates": [-77.3269023, 37.3328075]}, "type": "Feature", "properties": {"RecWater_No": 66, "Station_Desc": null, "OBJECTID": 64, "County": "CHESTERFIELD", "Notes": null, "WShed_Grp": "outside of City", "WShed_No": -99, "Alternate_ID": null, "VPDES": null, "Station_No": 432, "Type_": null, "Station_ID": "2-JOD002.69", "Latitude": 37.3328, "Loc_Type": null, "Longitude": -77.3269}},
{"geometry": {"type": "Point", "coordinates": [-77.3301023, 37.3366075]}, "type": "Feature", "properties": {"RecWater_No": 66, "Station_Desc": null, "OBJECTID": 65, "County": "CHESTERFIELD", "Notes": null, "WShed_Grp": "outside of City", "WShed_No": -99, "Alternate_ID": null, "VPDES": null, "Station_No": 433, "Type_": null, "Station_ID": "2-JOD003.05", "Latitude": 37.3366, "Loc_Type": null, "Longitude": -77.3301}},
{"geometry": {"type": "Point", "coordinates": [-77.3431023, 37.3387075]}, "type": "Feature", "properties": {"RecWater_No": 66, "Station_Desc": null, "OBJECTID": 66, "County": "CHESTERFIELD", "Notes": null, "WShed_Grp": "outside of City", "WShed_No": -99, "Alternate_ID": null, "VPDES": null, "Station_No": 434, "Type_": null, "Station_ID": "2-JOD004.15", "Latitude": 37.3387, "Loc_Type": null, "Longitude": -77.3431}},
{"geometry": {"type": "Point", "coordinates": [-77.3509023, 37.3331075]}, "type": "Feature", "properties": {"RecWater_No": 66, "Station_Desc": null, "OBJECTID": 67, "County": "CHESTERFIELD", "Notes": null, "WShed_Grp": "outside of City", "WShed_No": -99, "Alternate_ID": null, "VPDES": null, "Station_No": 435, "Type_": null, "Station_ID": "2-JOD005.04", "Latitude": 37.3331, "Loc_Type": null, "Longitude": -77.3509}},
{"geometry": {"type": "Point", "coordinates": [-77.4342023, 37.4078075]}, "type": "Feature", "properties": {"RecWater_No": 74, "Station_Desc": null, "OBJECTID": 68, "County": "CHESTERFIELD", "Notes": null, "WShed_Grp": "outside of City", "WShed_No": -99, "Alternate_ID": null, "VPDES": null, "Station_No": 438, "Type_": null, "Station_ID": "2-KSL002.62", "Latitude": 37.4078, "Loc_Type": null, "Longitude": -77.4342}},
{"geometry": {"type": "Point", "coordinates": [-77.4565023, 37.4098075]}, "type": "Feature", "properties": {"RecWater_No": 74, "Station_Desc": null, "OBJECTID": 69, "County": "CHESTERFIELD", "Notes": null, "WShed_Grp": "outside of City", "WShed_No": -99, "Alternate_ID": null, "VPDES": null, "Station_No": 439, "Type_": null, "Station_ID": "2-KSL003.95", "Latitude": 37.4098, "Loc_Type": null, "Longitude": -77.4565}},
{"geometry": {"type": "Point", "coordinates": [-77.4656023, 37.4118075]}, "type": "Feature", "properties": {"RecWater_No": 74, "Station_Desc": null, "OBJECTID": 70, "County": "CHESTERFIELD", "Notes": null, "WShed_Grp": "outside of City", "WShed_No": -99, "Alternate_ID": null, "VPDES": null, "Station_No": 440, "Type_": null, "Station_ID": "2-KSL004.42", "Latitude": 37.4118, "Loc_Type": null, "Longitude": -77.4656}},
{"geometry": {"type": "Point", "coordinates": [-77.4967824, 37.6692875]}, "type": "Feature", "properties": {"RecWater_No": 91, "Station_Desc": null, "OBJECTID": 71, "County": "HENRICO", "Notes": null, "WShed_Grp": "outside of City", "WShed_No": -99, "Alternate_ID": null, "VPDES": null, "Station_No": 452, "Type_": null, "Station_ID": "2-NTR001.15", "Latitude": 37.66928, "Loc_Type": null, "Longitude": -77.49678}},
{"geometry": {"type": "Point", "coordinates": [-77.4783024, 37.6450075]}, "type": "Feature", "properties": {"RecWater_No": 91, "Station_Desc": "North Run at Hungary Rd", "OBJECTID": 72, "County": "HENRICO", "Notes": null, "WShed_Grp": "outside of City", "WShed_No": -99, "Alternate_ID": null, "VPDES": null, "Station_No": 453, "Type_": null, "Station_ID": "2-NTR003.42", "Latitude": 37.645, "Loc_Type": null, "Longitude": -77.4783}},
{"geometry": {"type": "Point", "coordinates": [-77.4237523, 37.3808975]}, "type": "Feature", "properties": {"RecWater_No": 103, "Station_Desc": null, "OBJECTID": 73, "County": "CHESTERFIELD", "Notes": null, "WShed_Grp": "outside of City", "WShed_No": -99, "Alternate_ID": null, "VPDES": null, "Station_No": 456, "Type_": null, "Station_ID": "2-PCT002.46", "Latitude": 37.38089, "Loc_Type": null, "Longitude": -77.42375}},
{"geometry": {"type": "Point", "coordinates": [-77.4237523, 37.3808975]}, "type": "Feature", "properties": {"RecWater_No": 103, "Station_Desc": null, "OBJECTID": 74, "County": "CHESTERFIELD", "Notes": null, "WShed_Grp": "outside of City", "WShed_No": -99, "Alternate_ID": null, "VPDES": null, "Station_No": 457, "Type_": null, "Station_ID": "2-PGN000.00", "Latitude": 37.38089, "Loc_Type": null, "Longitude": -77.42375}},
{"geometry": {"type": "Point", "coordinates": [-77.5272824, 37.5243775]}, "type": "Feature", "properties": {"RecWater_No": 102, "Station_Desc": null, "OBJECTID": 75, "County": "RICHMOND CITY", "Notes": null, "WShed_Grp": "Middle James/MS4", "WShed_No": 46, "Alternate_ID": null, "VPDES": null, "Station_No": 469, "Type_": "River/Stream", "Station_ID": "2-POS002.62", "Latitude": 37.52437, "Loc_Type": null, "Longitude": -77.52728}},
{"geometry": {"type": "Point", "coordinates": [-77.4942024, 37.4599075]}, "type": "Feature", "properties": {"RecWater_No": 96, "Station_Desc": null, "OBJECTID": 76, "County": "CHESTERFIELD", "Notes": null, "WShed_Grp": "outside of City", "WShed_No": -99, "Alternate_ID": null, "VPDES": null, "Station_No": 473, "Type_": null, "Station_ID": "2-PSK000.23", "Latitude": 37.4599, "Loc_Type": null, "Longitude": -77.4942}},
{"geometry": {"type": "Point", "coordinates": [-77.4119223, 37.5227275]}, "type": "Feature", "properties": {"RecWater_No": 157, "Station_Desc": null, "OBJECTID": 77, "County": "RICHMOND CITY", "Notes": null, "WShed_Grp": "Lower James/CSO", "WShed_No": 11, "Alternate_ID": null, "VPDES": null, "Station_No": 477, "Type_": "River/Stream", "Station_ID": "2-PWT001.97", "Latitude": 37.52272, "Loc_Type": "Stream", "Longitude": -77.41192}},
{"geometry": {"type": "Point", "coordinates": [-77.6272024, 37.5458075]}, "type": "Feature", "properties": {"RecWater_No": 182, "Station_Desc": null, "OBJECTID": 78, "County": "CHESTERFIELD", "Notes": null, "WShed_Grp": "outside of City", "WShed_No": -99, "Alternate_ID": null, "VPDES": null, "Station_No": 481, "Type_": null, "Station_ID": "2-SAL000.85", "Latitude": 37.5458, "Loc_Type": null, "Longitude": -77.6272}},
{"geometry": {"type": "Point", "coordinates": [-77.6047024, 37.6345075]}, "type": "Feature", "properties": {"RecWater_No": 120, "Station_Desc": "Stony Run @ walkbridge above L. Lorreine", "OBJECTID": 79, "County": "HENRICO", "Notes": null, "WShed_Grp": "outside of City", "WShed_No": -99, "Alternate_ID": null, "VPDES": null, "Station_No": 484, "Type_": null, "Station_ID": "2-SNJ001.77", "Latitude": 37.6345, "Loc_Type": null, "Longitude": -77.6047}},
{"geometry": {"type": "Point", "coordinates": [-77.6067024, 37.6367075]}, "type": "Feature", "properties": {"RecWater_No": 120, "Station_Desc": "Stony Run 30m above Church Rd.", "OBJECTID": 80, "County": "HENRICO", "Notes": null, "WShed_Grp": "outside of City", "WShed_No": -99, "Alternate_ID": null, "VPDES": null, "Station_No": 485, "Type_": null, "Station_ID": "2-SNJ001.90", "Latitude": 37.6367, "Loc_Type": null, "Longitude": -77.6067}},
{"geometry": {"type": "Point", "coordinates": [-77.9436695, 37.6132855]}, "type": "Feature", "properties": {"RecWater_No": 117, "Station_Desc": null, "OBJECTID": 81, "County": null, "Notes": null, "WShed_Grp": "outside of City", "WShed_No": -99, "Alternate_ID": null, "VPDES": null, "Station_No": 486, "Type_": null, "Station_ID": "2-SOL001.00", "Latitude": 37.613278, "Loc_Type": null, "Longitude": -77.943667}},
{"geometry": {"type": "Point", "coordinates": [-77.2747223, 37.4347275]}, "type": "Feature", "properties": {"RecWater_No": -999, "Station_Desc": null, "OBJECTID": 82, "County": null, "Notes": null, "WShed_Grp": null, "WShed_No": -99, "Alternate_ID": null, "VPDES": null, "Station_No": 487, "Type_": null, "Station_ID": "2-SWE001.50", "Latitude": 37.43472, "Loc_Type": null, "Longitude": -77.27472}},
{"geometry": {"type": "Point", "coordinates": [-77.2167023, 37.4367075]}, "type": "Feature", "properties": {"RecWater_No": 143, "Station_Desc": "TURKEY ISLAND CREEK, WARRINER ROAD", "OBJECTID": 83, "County": "HENRICO", "Notes": null, "WShed_Grp": "outside of City", "WShed_No": -99, "Alternate_ID": null, "VPDES": null, "Station_No": 488, "Type_": null, "Station_ID": "2-TIC009.23", "Latitude": 37.4367, "Loc_Type": null, "Longitude": -77.2167}},
{"geometry": {"type": "Point", "coordinates": [-77.4867024, 37.5997075]}, "type": "Feature", "properties": {"RecWater_No": 144, "Station_Desc": "Upham Brook at Byrdhill Rd off Dumbarton", "OBJECTID": 84, "County": "HENRICO", "Notes": null, "WShed_Grp": "outside of City", "WShed_No": -99, "Alternate_ID": null, "VPDES": null, "Station_No": 494, "Type_": null, "Station_ID": "2-UPM007.03", "Latitude": 37.5997, "Loc_Type": null, "Longitude": -77.4867}},
{"geometry": {"type": "Point", "coordinates": [-77.2453023, 37.4194075]}, "type": "Feature", "properties": {"RecWater_No": 151, "Station_Desc": "WESTERN RUN, RT. 156 BRIDGE", "OBJECTID": 85, "County": "HENRICO", "Notes": null, "WShed_Grp": "outside of City", "WShed_No": -99, "Alternate_ID": null, "VPDES": null, "Station_No": 508, "Type_": null, "Station_ID": "2-WSN000.85", "Latitude": 37.4194, "Loc_Type": null, "Longitude": -77.2453}},
{"geometry": {"type": "Point", "coordinates": [-77.6486024, 37.5467075]}, "type": "Feature", "properties": {"RecWater_No": -999, "Station_Desc": null, "OBJECTID": 86, "County": "CHESTERFIELD", "Notes": null, "WShed_Grp": "outside of City", "WShed_No": -99, "Alternate_ID": null, "VPDES": null, "Station_No": 519, "Type_": null, "Station_ID": "2-XXD001.12", "Latitude": 37.5467, "Loc_Type": null, "Longitude": -77.6486}},
{"geometry": {"type": "Point", "coordinates": [-77.5488634, 37.6893405]}, "type": "Feature", "properties": {"RecWater_No": -999, "Station_Desc": null, "OBJECTID": 87, "County": null, "Notes": null, "WShed_Grp": "outside of City", "WShed_No": -99, "Alternate_ID": null, "VPDES": null, "Station_No": 520, "Type_": null, "Station_ID": "2-XYC000.31", "Latitude": 37.689333, "Loc_Type": null, "Longitude": -77.548861}},
{"geometry": {"type": "Point", "coordinates": [-77.6057024, 37.6368175]}, "type": "Feature", "properties": {"RecWater_No": 120, "Station_Desc": null, "OBJECTID": 88, "County": "HENRICO", "Notes": null, "WShed_Grp": "outside of City", "WShed_No": -99, "Alternate_ID": null, "VPDES": null, "Station_No": 521, "Type_": null, "Station_ID": "2-XYT000.04", "Latitude": 37.63681, "Loc_Type": null, "Longitude": -77.6057}},
{"geometry": {"type": "Point", "coordinates": [-77.6044024, 37.6373075]}, "type": "Feature", "properties": {"RecWater_No": 120, "Station_Desc": "UT Stony Run @ Barrington Bridge Place", "OBJECTID": 89, "County": "HENRICO", "Notes": null, "WShed_Grp": "outside of City", "WShed_No": -99, "Alternate_ID": null, "VPDES": null, "Station_No": 522, "Type_": null, "Station_ID": "2-XYT000.10", "Latitude": 37.6373, "Loc_Type": null, "Longitude": -77.6044}},
{"geometry": {"type": "Point", "coordinates": [-77.6018924, 37.6380375]}, "type": "Feature", "properties": {"RecWater_No": 120, "Station_Desc": null, "OBJECTID": 90, "County": "HENRICO", "Notes": null, "WShed_Grp": "outside of City", "WShed_No": -99, "Alternate_ID": null, "VPDES": null, "Station_No": 523, "Type_": null, "Station_ID": "2-XYT000.29", "Latitude": 37.63803, "Loc_Type": null, "Longitude": -77.60189}},
{"geometry": {"type": "Point", "coordinates": [-77.5967024, 37.6432075]}, "type": "Feature", "properties": {"RecWater_No": 120, "Station_Desc": "UT to Stony Run @ Three Chopt Rd", "OBJECTID": 91, "County": "HENRICO", "Notes": null, "WShed_Grp": "outside of City", "WShed_No": -99, "Alternate_ID": null, "VPDES": null, "Station_No": 524, "Type_": null, "Station_ID": "2-XYT000.83", "Latitude": 37.6432, "Loc_Type": null, "Longitude": -77.5967}},
{"geometry": {"type": "Point", "coordinates": [-77.7029464, 37.5788965]}, "type": "Feature", "properties": {"RecWater_No": -999, "Station_Desc": null, "OBJECTID": 92, "County": null, "Notes": null, "WShed_Grp": "outside of City", "WShed_No": -99, "Alternate_ID": null, "VPDES": null, "Station_No": 525, "Type_": null, "Station_ID": "2-XZH002.69", "Latitude": 37.578889, "Loc_Type": null, "Longitude": -77.702944}},
{"geometry": {"type": "Point", "coordinates": [-77.2818913, 37.5056185]}, "type": "Feature", "properties": {"RecWater_No": -999, "Station_Desc": null, "OBJECTID": 93, "County": null, "Notes": null, "WShed_Grp": "outside of City", "WShed_No": -99, "Alternate_ID": null, "VPDES": null, "Station_No": 527, "Type_": null, "Station_ID": "2-XZS000.38", "Latitude": 37.505611, "Loc_Type": null, "Longitude": -77.281889}},
{"geometry": {"type": "Point", "coordinates": [-77.1293632, 37.5583685]}, "type": "Feature", "properties": {"RecWater_No": -999, "Station_Desc": null, "OBJECTID": 94, "County": null, "Notes": null, "WShed_Grp": "outside of City", "WShed_No": -99, "Alternate_ID": null, "VPDES": null, "Station_No": 530, "Type_": null, "Station_ID": "8-BLC005.54", "Latitude": 37.558361, "Loc_Type": null, "Longitude": -77.129361}},
{"geometry": {"type": "Point", "coordinates": [-77.4783107, 37.5875541]}, "type": "Feature", "properties": {"RecWater_No": 70, "Station_Desc": null, "OBJECTID": 95, "County": null, "Notes": null, "WShed_Grp": "Lower James-Chickahominy/MS4", "WShed_No": 31, "Alternate_ID": "JB-009B", "VPDES": null, "Station_No": 533, "Type_": null, "Station_ID": "AA44419", "Latitude": 37.587546637, "Loc_Type": null, "Longitude": -77.4783083639999}},
{"geometry": {"type": "Point", "coordinates": [-77.47585, 37.5845114]}, "type": "Feature", "properties": {"RecWater_No": 70, "Station_Desc": null, "OBJECTID": 96, "County": null, "Notes": null, "WShed_Grp": "Lower James-Chickahominy/MS4", "WShed_No": 31, "Alternate_ID": "JB-009J", "VPDES": null, "Station_No": 534, "Type_": null, "Station_ID": "AA44420", "Latitude": 37.584503871, "Loc_Type": null, "Longitude": -77.4758476829999}},
{"geometry": {"type": "Point", "coordinates": [-77.4756513, 37.5840854]}, "type": "Feature", "properties": {"RecWater_No": 70, "Station_Desc": null, "OBJECTID": 97, "County": null, "Notes": null, "WShed_Grp": "Lower James-Chickahominy/MS4", "WShed_No": 31, "Alternate_ID": "JB-009L", "VPDES": null, "Station_No": 535, "Type_": null, "Station_ID": "AA44421", "Latitude": 37.584077899, "Loc_Type": null, "Longitude": -77.4756489929999}},
{"geometry": {"type": "Point", "coordinates": [-77.4824934, 37.5729916]}, "type": "Feature", "properties": {"RecWater_No": 70, "Station_Desc": null, "OBJECTID": 98, "County": null, "Notes": null, "WShed_Grp": "Lower James-Chickahominy/MS4", "WShed_No": 31, "Alternate_ID": "JB-063", "VPDES": null, "Station_No": 544, "Type_": null, "Station_ID": "AA46680", "Latitude": 37.572984129, "Loc_Type": null, "Longitude": -77.4824910809999}},
{"geometry": {"type": "Point", "coordinates": [-77.482511, 37.5730109]}, "type": "Feature", "properties": {"RecWater_No": 70, "Station_Desc": null, "OBJECTID": 99, "County": null, "Notes": null, "WShed_Grp": "Lower James-Chickahominy/MS4", "WShed_No": 31, "Alternate_ID": "JB-064", "VPDES": null, "Station_No": 545, "Type_": null, "Station_ID": "AA46681", "Latitude": 37.573003446, "Loc_Type": null, "Longitude": -77.4825086549999}},
{"geometry": {"type": "Point", "coordinates": [-77.4995374, 37.4649434]}, "type": "Feature", "properties": {"RecWater_No": 96, "Station_Desc": null, "OBJECTID": 100, "County": null, "Notes": null, "WShed_Grp": null, "WShed_No": 24, "Alternate_ID": "PKC-RCB", "VPDES": null, "Station_No": 557, "Type_": null, "Station_ID": "AA76790", "Latitude": 37.464935938, "Loc_Type": null, "Longitude": -77.4995350859999}},
{"geometry": {"type": "Point", "coordinates": [-77.4996774, 37.4646041]}, "type": "Feature", "properties": {"RecWater_No": 96, "Station_Desc": null, "OBJECTID": 101, "County": null, "Notes": null, "WShed_Grp": null, "WShed_No": 24, "Alternate_ID": "PKC-001", "VPDES": null, "Station_No": 558, "Type_": null, "Station_ID": "AA76791", "Latitude": 37.46459667, "Loc_Type": null, "Longitude": -77.499675}},
{"geometry": {"type": "Point", "coordinates": [-77.5007786, 37.464055]}, "type": "Feature", "properties": {"RecWater_No": 96, "Station_Desc": null, "OBJECTID": 102, "County": null, "Notes": null, "WShed_Grp": "Lower James/MS4", "WShed_No": 24, "Alternate_ID": "PKC-RCB150", "VPDES": null, "Station_No": 559, "Type_": "River/Stream", "Station_ID": "AA76792", "Latitude": 37.464047521, "Loc_Type": null, "Longitude": -77.5007762149999}},
{"geometry": {"type": "Point", "coordinates": [-77.2328323, 37.3127165]}, "type": "Feature", "properties": {"RecWater_No": 65, "Station_Desc": null, "OBJECTID": 103, "County": null, "Notes": "from Richmond MonitoringData folder; stations from G&H River Sampling", "WShed_Grp": "outside of City", "WShed_No": -99, "Alternate_ID": null, "VPDES": null, "Station_No": 566, "Type_": null, "Station_ID": "B107", "Latitude": 37.312709, "Loc_Type": null, "Longitude": -77.23283}},
{"geometry": {"type": "Point", "coordinates": [-77.2328323, 37.3127165]}, "type": "Feature", "properties": {"RecWater_No": 65, "Station_Desc": null, "OBJECTID": 104, "County": null, "Notes": "from Richmond MonitoringData folder; stations from G&H River Sampling", "WShed_Grp": "outside of City", "WShed_No": -99, "Alternate_ID": null, "VPDES": null, "Station_No": 567, "Type_": null, "Station_ID": "B107_Bottom", "Latitude": 37.312709, "Loc_Type": null, "Longitude": -77.23283}},
{"geometry": {"type": "Point", "coordinates": [-77.3073663, 37.3633635]}, "type": "Feature", "properties": {"RecWater_No": 65, "Station_Desc": null, "OBJECTID": 105, "County": null, "Notes": "from Richmond MonitoringData folder; stations from G&H River Sampling", "WShed_Grp": "outside of City", "WShed_No": -99, "Alternate_ID": null, "VPDES": null, "Station_No": 568, "Type_": null, "Station_ID": "B138", "Latitude": 37.363356, "Loc_Type": null, "Longitude": -77.307364}},
{"geometry": {"type": "Point", "coordinates": [-77.3073663, 37.3633635]}, "type": "Feature", "properties": {"RecWater_No": 65, "Station_Desc": null, "OBJECTID": 106, "County": null, "Notes": "from Richmond MonitoringData folder; stations from G&H River Sampling", "WShed_Grp": "outside of City", "WShed_No": -99, "Alternate_ID": null, "VPDES": null, "Station_No": 569, "Type_": null, "Station_ID": "B138_Bottom", "Latitude": 37.363356, "Loc_Type": null, "Longitude": -77.307364}},
{"geometry": {"type": "Point", "coordinates": [-77.3481873, 37.3801905]}, "type": "Feature", "properties": {"RecWater_No": 65, "Station_Desc": null, "OBJECTID": 107, "County": null, "Notes": "from Richmond MonitoringData folder; stations from G&H River Sampling", "WShed_Grp": "outside of City", "WShed_No": -99, "Alternate_ID": null, "VPDES": null, "Station_No": 570, "Type_": null, "Station_ID": "B150", "Latitude": 37.380183, "Loc_Type": null, "Longitude": -77.348185}},
{"geometry": {"type": "Point", "coordinates": [-77.3481873, 37.3801905]}, "type": "Feature", "properties": {"RecWater_No": 65, "Station_Desc": null, "OBJECTID": 108, "County": null, "Notes": "from Richmond MonitoringData folder; stations from G&H River Sampling", "WShed_Grp": "outside of City", "WShed_No": -99, "Alternate_ID": null, "VPDES": null, "Station_No": 571, "Type_": null, "Station_ID": "B150_Bottom", "Latitude": 37.380183, "Loc_Type": null, "Longitude": -77.348185}},
{"geometry": {"type": "Point", "coordinates": [-77.3929953, 37.4043455]}, "type": "Feature", "properties": {"RecWater_No": 65, "Station_Desc": null, "OBJECTID": 109, "County": null, "Notes": "from Richmond MonitoringData folder; stations from G&H River Sampling", "WShed_Grp": "outside of City", "WShed_No": -99, "Alternate_ID": null, "VPDES": null, "Station_No": 572, "Type_": null, "Station_ID": "B157", "Latitude": 37.404338, "Loc_Type": null, "Longitude": -77.392993}},
{"geometry": {"type": "Point", "coordinates": [-77.3929953, 37.4043455]}, "type": "Feature", "properties": {"RecWater_No": 65, "Station_Desc": null, "OBJECTID": 110, "County": null, "Notes": "from Richmond MonitoringData folder; stations from G&H River Sampling", "WShed_Grp": "outside of City", "WShed_No": -99, "Alternate_ID": null, "VPDES": null, "Station_No": 573, "Type_": null, "Station_ID": "B157_Bottom", "Latitude": 37.404338, "Loc_Type": null, "Longitude": -77.392993}},
{"geometry": {"type": "Point", "coordinates": [-77.4197983, 37.4458275]}, "type": "Feature", "properties": {"RecWater_No": 65, "Station_Desc": null, "OBJECTID": 111, "County": null, "Notes": "from Richmond MonitoringData folder; stations from G&H River Sampling", "WShed_Grp": "outside of City", "WShed_No": -99, "Alternate_ID": null, "VPDES": null, "Station_No": 574, "Type_": null, "Station_ID": "B166", "Latitude": 37.44582, "Loc_Type": null, "Longitude": -77.419796}},
{"geometry": {"type": "Point", "coordinates": [-77.4197983, 37.4458275]}, "type": "Feature", "properties": {"RecWater_No": 65, "Station_Desc": null, "OBJECTID": 112, "County": null, "Notes": "from Richmond MonitoringData folder; stations from G&H River Sampling", "WShed_Grp": "outside of City", "WShed_No": -99, "Alternate_ID": null, "VPDES": null, "Station_No": 575, "Type_": null, "Station_ID": "B166_Bottom", "Latitude": 37.44582, "Loc_Type": null, "Longitude": -77.419796}},
{"geometry": {"type": "Point", "coordinates": [-77.4219523, 37.4896485]}, "type": "Feature", "properties": {"RecWater_No": 65, "Station_Desc": null, "OBJECTID": 113, "County": null, "Notes": "from Richmond MonitoringData folder; stations from G&H River Sampling", "WShed_Grp": "Lower James/MS4", "WShed_No": 20, "Alternate_ID": null, "VPDES": null, "Station_No": 576, "Type_": "Tidal Freshwater", "Station_ID": "B168", "Latitude": 37.489641, "Loc_Type": null, "Longitude": -77.42195}},
{"geometry": {"type": "Point", "coordinates": [-77.4219523, 37.4896485]}, "type": "Feature", "properties": {"RecWater_No": 65, "Station_Desc": null, "OBJECTID": 114, "County": null, "Notes": "from Richmond MonitoringData folder; stations from G&H River Sampling", "WShed_Grp": "Lower James/MS4", "WShed_No": 20, "Alternate_ID": null, "VPDES": null, "Station_No": 577, "Type_": "Tidal Freshwater", "Station_ID": "B168_Bottom", "Latitude": 37.489641, "Loc_Type": null, "Longitude": -77.42195}},
{"geometry": {"type": "Point", "coordinates": [-77.1268712, 37.2994875]}, "type": "Feature", "properties": {"RecWater_No": 65, "Station_Desc": null, "OBJECTID": 115, "County": null, "Notes": "from Richmond MonitoringData folder; stations from G&H River Sampling", "WShed_Grp": "outside of City", "WShed_No": -99, "Alternate_ID": null, "VPDES": null, "Station_No": 578, "Type_": null, "Station_ID": "B91", "Latitude": 37.29948, "Loc_Type": null, "Longitude": -77.126869}},
{"geometry": {"type": "Point", "coordinates": [-77.1268712, 37.2994875]}, "type": "Feature", "properties": {"RecWater_No": 65, "Station_Desc": null, "OBJECTID": 116, "County": null, "Notes": "from Richmond MonitoringData folder; stations from G&H River Sampling", "WShed_Grp": "outside of City", "WShed_No": -99, "Alternate_ID": null, "VPDES": null, "Station_No": 579, "Type_": null, "Station_ID": "B91_Bottom", "Latitude": 37.29948, "Loc_Type": null, "Longitude": -77.126869}},
{"geometry": {"type": "Point", "coordinates": [-77.4800824, 37.5126175]}, "type": "Feature", "properties": {"RecWater_No": 34, "Station_Desc": "Crooked Branch- 500 feet downstream of Crutchfield Street", "OBJECTID": 117, "County": "RICHMOND CITY", "Notes": null, "WShed_Grp": "Middle James/MS4", "WShed_No": 42, "Alternate_ID": "3004", "VPDES": null, "Station_No": 581, "Type_": "River/Stream", "Station_ID": "CB1", "Latitude": 37.51261, "Loc_Type": null, "Longitude": -77.48008}},
{"geometry": {"type": "Point", "coordinates": [-77.4386023, 37.5396075]}, "type": "Feature", "properties": {"RecWater_No": -999, "Station_Desc": "Chesapeake Bay", "OBJECTID": 118, "County": "RICHMOND CITY", "Notes": null, "WShed_Grp": "Lower James/CSO", "WShed_No": 10, "Alternate_ID": "21VASWCB-CB5.1W", "VPDES": null, "Station_No": 582, "Type_": null, "Station_ID": "CB5.1W", "Latitude": 37.5396, "Loc_Type": "Stream", "Longitude": -77.4386}},
{"geometry": {"type": "Point", "coordinates": [-77.4615023, 37.5953075]}, "type": "Feature", "properties": {"RecWater_No": 144, "Station_Desc": "Upham Brook (Princeton Creek)- Off Of Princeton Road", "OBJECTID": 119, "County": "RICHMOND CITY", "Notes": null, "WShed_Grp": "Lower James-Chickahominy/MS4", "WShed_No": 32, "Alternate_ID": "643", "VPDES": null, "Station_No": 639, "Type_": "River/Stream", "Station_ID": "CR16", "Latitude": 37.5953, "Loc_Type": null, "Longitude": -77.4615}},
{"geometry": {"type": "Point", "coordinates": [-77.4632024, 37.5950075]}, "type": "Feature", "properties": {"RecWater_No": 144, "Station_Desc": "Upham Brook (Princeton Creek)- 100 Yards Downstream Cab Site Cr16", "OBJECTID": 120, "County": "RICHMOND CITY", "Notes": null, "WShed_Grp": "Lower James-Chickahominy/MS4", "WShed_No": 32, "Alternate_ID": "644", "VPDES": null, "Station_No": 640, "Type_": "River/Stream", "Station_ID": "CR17", "Latitude": 37.595, "Loc_Type": null, "Longitude": -77.4632}},
{"geometry": {"type": "Point", "coordinates": [-77.4318143, 37.5310145]}, "type": "Feature", "properties": {"RecWater_No": 155, "Station_Desc": null, "OBJECTID": 121, "County": null, "Notes": "from Richmond MonitoringData folder; stations from G&H River Sampling", "WShed_Grp": "Lower James/CSO", "WShed_No": 10, "Alternate_ID": null, "VPDES": null, "Station_No": 641, "Type_": "CSO, River/Stream", "Station_ID": "CSO", "Latitude": 37.531007, "Loc_Type": null, "Longitude": -77.431812}},
{"geometry": {"type": "Point", "coordinates": [-77.4657023, 37.4622075]}, "type": "Feature", "properties": {"RecWater_No": 45, "Station_Desc": "Falling Creek Reservoir- Eastern shore of reservoir 50 yards upstream of dam", "OBJECTID": 122, "County": "CHESTERFIELD", "Notes": null, "WShed_Grp": "outside of City", "WShed_No": -99, "Alternate_ID": "1311", "VPDES": null, "Station_No": 645, "Type_": null, "Station_ID": "FC-01L-01", "Latitude": 37.4622, "Loc_Type": null, "Longitude": -77.4657}},
{"geometry": {"type": "Point", "coordinates": [-77.4740023, 37.4583075]}, "type": "Feature", "properties": {"RecWater_No": 45, "Station_Desc": "Falling Creek Reservoir- At first bend west of dam at 4501 Whitestone Drive", "OBJECTID": 123, "County": "CHESTERFIELD", "Notes": null, "WShed_Grp": "outside of City", "WShed_No": -99, "Alternate_ID": "1312", "VPDES": null, "Station_No": 646, "Type_": null, "Station_ID": "FC-01L-02", "Latitude": 37.4583, "Loc_Type": null, "Longitude": -77.474}},
{"geometry": {"type": "Point", "coordinates": [-77.4773023, 37.4602075]}, "type": "Feature", "properties": {"RecWater_No": 45, "Station_Desc": "Falling Creek Reservoir- At second bend west of dam at 4301 Grantlake Road", "OBJECTID": 124, "County": "RICHMOND CITY", "Notes": null, "WShed_Grp": "outside of City", "WShed_No": -99, "Alternate_ID": "1313", "VPDES": null, "Station_No": 647, "Type_": null, "Station_ID": "FC-01L-03", "Latitude": 37.4602, "Loc_Type": null, "Longitude": -77.4773}},
{"geometry": {"type": "Point", "coordinates": [-77.4832023, 37.4587075]}, "type": "Feature", "properties": {"RecWater_No": 45, "Station_Desc": "Falling Creek Reservoir- At fourth bend west of dam at 4329 Reservoir Lane", "OBJECTID": 125, "County": "CHESTERFIELD", "Notes": null, "WShed_Grp": "outside of City", "WShed_No": -99, "Alternate_ID": "1314", "VPDES": null, "Station_No": 648, "Type_": null, "Station_ID": "FC-01L-04", "Latitude": 37.4587, "Loc_Type": null, "Longitude": -77.4832}},
{"geometry": {"type": "Point", "coordinates": [-77.4852023, 37.4588075]}, "type": "Feature", "properties": {"RecWater_No": 45, "Station_Desc": "Falling Creek Reservoir- At fifth bend west of dam", "OBJECTID": 126, "County": "CHESTERFIELD", "Notes": null, "WShed_Grp": "outside of City", "WShed_No": -99, "Alternate_ID": "1315", "VPDES": null, "Station_No": 649, "Type_": null, "Station_ID": "FC-01L-05", "Latitude": 37.4588, "Loc_Type": null, "Longitude": -77.4852}},
{"geometry": {"type": "Point", "coordinates": [-77.4875023, 37.4562075]}, "type": "Feature", "properties": {"RecWater_No": 45, "Station_Desc": "Falling Creek Reservoir- Farthest west on reservoir, 300 yards upstream of Route 10 Bridge", "OBJECTID": 127, "County": "CHESTERFIELD", "Notes": null, "WShed_Grp": "outside of City", "WShed_No": -99, "Alternate_ID": "1316", "VPDES": null, "Station_No": 650, "Type_": null, "Station_ID": "FC-01L-06", "Latitude": 37.4562, "Loc_Type": null, "Longitude": -77.4875}},
{"geometry": {"type": "Point", "coordinates": [-77.5621124, 37.4821475]}, "type": "Feature", "properties": {"RecWater_No": 96, "Station_Desc": null, "OBJECTID": 128, "County": "CHESTERFIELD", "Notes": null, "WShed_Grp": "outside of City", "WShed_No": -99, "Alternate_ID": null, "VPDES": null, "Station_No": 653, "Type_": null, "Station_ID": "FW08VA044", "Latitude": 37.48214, "Loc_Type": null, "Longitude": -77.56211}},
{"geometry": {"type": "Point", "coordinates": [-77.6248624, 37.5198475]}, "type": "Feature", "properties": {"RecWater_No": 130, "Station_Desc": null, "OBJECTID": 129, "County": "CHESTERFIELD", "Notes": null, "WShed_Grp": "outside of City", "WShed_No": -99, "Alternate_ID": null, "VPDES": null, "Station_No": 655, "Type_": null, "Station_ID": "G01200", "Latitude": 37.51984, "Loc_Type": null, "Longitude": -77.62486}},
{"geometry": {"type": "Point", "coordinates": [-77.6329624, 37.5069075]}, "type": "Feature", "properties": {"RecWater_No": 45, "Station_Desc": null, "OBJECTID": 130, "County": "CHESTERFIELD", "Notes": null, "WShed_Grp": "outside of City", "WShed_No": -99, "Alternate_ID": null, "VPDES": null, "Station_No": 656, "Type_": null, "Station_ID": "G01201", "Latitude": 37.5069, "Loc_Type": null, "Longitude": -77.63296}},
{"geometry": {"type": "Point", "coordinates": [-77.6409524, 37.4869975]}, "type": "Feature", "properties": {"RecWater_No": 45, "Station_Desc": null, "OBJECTID": 131, "County": "CHESTERFIELD", "Notes": null, "WShed_Grp": "outside of City", "WShed_No": -99, "Alternate_ID": null, "VPDES": null, "Station_No": 657, "Type_": null, "Station_ID": "G01202", "Latitude": 37.48699, "Loc_Type": null, "Longitude": -77.64095}},
{"geometry": {"type": "Point", "coordinates": [-77.6296824, 37.4717975]}, "type": "Feature", "properties": {"RecWater_No": 45, "Station_Desc": null, "OBJECTID": 132, "County": "CHESTERFIELD", "Notes": null, "WShed_Grp": "outside of City", "WShed_No": -99, "Alternate_ID": null, "VPDES": null, "Station_No": 658, "Type_": null, "Station_ID": "G01203", "Latitude": 37.47179, "Loc_Type": null, "Longitude": -77.62968}},
{"geometry": {"type": "Point", "coordinates": [-77.6015424, 37.4551175]}, "type": "Feature", "properties": {"RecWater_No": 130, "Station_Desc": null, "OBJECTID": 133, "County": "CHESTERFIELD", "Notes": null, "WShed_Grp": "outside of City", "WShed_No": -99, "Alternate_ID": null, "VPDES": null, "Station_No": 659, "Type_": null, "Station_ID": "G01204", "Latitude": 37.45511, "Loc_Type": null, "Longitude": -77.60154}},
{"geometry": {"type": "Point", "coordinates": [-77.6047624, 37.4554975]}, "type": "Feature", "properties": {"RecWater_No": 45, "Station_Desc": null, "OBJECTID": 134, "County": "CHESTERFIELD", "Notes": null, "WShed_Grp": "outside of City", "WShed_No": -99, "Alternate_ID": null, "VPDES": null, "Station_No": 660, "Type_": null, "Station_ID": "G01205", "Latitude": 37.45549, "Loc_Type": null, "Longitude": -77.60476}},
{"geometry": {"type": "Point", "coordinates": [-77.5588524, 37.4461075]}, "type": "Feature", "properties": {"RecWater_No": 62, "Station_Desc": null, "OBJECTID": 135, "County": "CHESTERFIELD", "Notes": null, "WShed_Grp": "outside of City", "WShed_No": -99, "Alternate_ID": null, "VPDES": null, "Station_No": 661, "Type_": null, "Station_ID": "G01206", "Latitude": 37.4461, "Loc_Type": null, "Longitude": -77.55885}},
{"geometry": {"type": "Point", "coordinates": [-77.5338524, 37.4434075]}, "type": "Feature", "properties": {"RecWater_No": 45, "Station_Desc": null, "OBJECTID": 136, "County": "CHESTERFIELD", "Notes": null, "WShed_Grp": "outside of City", "WShed_No": -99, "Alternate_ID": null, "VPDES": null, "Station_No": 662, "Type_": null, "Station_ID": "G01207", "Latitude": 37.4434, "Loc_Type": null, "Longitude": -77.53385}},
{"geometry": {"type": "Point", "coordinates": [-77.5290324, 37.4420975]}, "type": "Feature", "properties": {"RecWater_No": 77, "Station_Desc": null, "OBJECTID": 137, "County": "CHESTERFIELD", "Notes": null, "WShed_Grp": "outside of City", "WShed_No": -99, "Alternate_ID": null, "VPDES": null, "Station_No": 663, "Type_": null, "Station_ID": "G01208", "Latitude": 37.44209, "Loc_Type": null, "Longitude": -77.52903}},
{"geometry": {"type": "Point", "coordinates": [-77.4972824, 37.4551975]}, "type": "Feature", "properties": {"RecWater_No": 45, "Station_Desc": null, "OBJECTID": 138, "County": "CHESTERFIELD", "Notes": null, "WShed_Grp": "outside of City", "WShed_No": -99, "Alternate_ID": null, "VPDES": null, "Station_No": 664, "Type_": null, "Station_ID": "G01209", "Latitude": 37.45519, "Loc_Type": null, "Longitude": -77.49728}},
{"geometry": {"type": "Point", "coordinates": [-77.4552823, 37.4508975]}, "type": "Feature", "properties": {"RecWater_No": 45, "Station_Desc": null, "OBJECTID": 139, "County": "CHESTERFIELD", "Notes": null, "WShed_Grp": "outside of City", "WShed_No": -99, "Alternate_ID": null, "VPDES": null, "Station_No": 665, "Type_": null, "Station_ID": "G01210", "Latitude": 37.45089, "Loc_Type": null, "Longitude": -77.45528}},
{"geometry": {"type": "Point", "coordinates": [-77.5870524, 37.4962775]}, "type": "Feature", "properties": {"RecWater_No": 96, "Station_Desc": null, "OBJECTID": 140, "County": "CHESTERFIELD", "Notes": null, "WShed_Grp": "outside of City", "WShed_No": -99, "Alternate_ID": null, "VPDES": null, "Station_No": 666, "Type_": null, "Station_ID": "G01211", "Latitude": 37.49627, "Loc_Type": null, "Longitude": -77.58705}},
{"geometry": {"type": "Point", "coordinates": [-77.5588624, 37.4798475]}, "type": "Feature", "properties": {"RecWater_No": 96, "Station_Desc": null, "OBJECTID": 141, "County": "CHESTERFIELD", "Notes": null, "WShed_Grp": "outside of City", "WShed_No": -99, "Alternate_ID": null, "VPDES": null, "Station_No": 667, "Type_": null, "Station_ID": "G01212", "Latitude": 37.47984, "Loc_Type": null, "Longitude": -77.55886}},
{"geometry": {"type": "Point", "coordinates": [-77.5167524, 37.4606375]}, "type": "Feature", "properties": {"RecWater_No": 96, "Station_Desc": null, "OBJECTID": 142, "County": "CHESTERFIELD", "Notes": null, "WShed_Grp": "outside of City", "WShed_No": -99, "Alternate_ID": null, "VPDES": null, "Station_No": 668, "Type_": null, "Station_ID": "G01213", "Latitude": 37.46063, "Loc_Type": null, "Longitude": -77.51675}},
{"geometry": {"type": "Point", "coordinates": [-77.5167524, 37.4606375]}, "type": "Feature", "properties": {"RecWater_No": 96, "Station_Desc": null, "OBJECTID": 143, "County": "CHESTERFIELD", "Notes": null, "WShed_Grp": "outside of City", "WShed_No": -99, "Alternate_ID": null, "VPDES": null, "Station_No": 669, "Type_": null, "Station_ID": "G01214", "Latitude": 37.46063, "Loc_Type": null, "Longitude": -77.51675}},
{"geometry": {"type": "Point", "coordinates": [-77.6248624, 37.5198475]}, "type": "Feature", "properties": {"RecWater_No": 130, "Station_Desc": null, "OBJECTID": 144, "County": "CHESTERFIELD", "Notes": null, "WShed_Grp": "outside of City", "WShed_No": -99, "Alternate_ID": null, "VPDES": null, "Station_No": 670, "Type_": null, "Station_ID": "G01215", "Latitude": 37.51984, "Loc_Type": null, "Longitude": -77.62486}},
{"geometry": {"type": "Point", "coordinates": [-77.3999023, 37.3770175]}, "type": "Feature", "properties": {"RecWater_No": 106, "Station_Desc": null, "OBJECTID": 145, "County": "CHESTERFIELD", "Notes": null, "WShed_Grp": "outside of City", "WShed_No": -99, "Alternate_ID": null, "VPDES": null, "Station_No": 671, "Type_": null, "Station_ID": "G01216", "Latitude": 37.37701, "Loc_Type": null, "Longitude": -77.3999}},
{"geometry": {"type": "Point", "coordinates": [-77.4257723, 37.3810375]}, "type": "Feature", "properties": {"RecWater_No": 103, "Station_Desc": null, "OBJECTID": 146, "County": "CHESTERFIELD", "Notes": null, "WShed_Grp": "outside of City", "WShed_No": -99, "Alternate_ID": null, "VPDES": null, "Station_No": 672, "Type_": null, "Station_ID": "G01217", "Latitude": 37.38103, "Loc_Type": null, "Longitude": -77.42577}},
{"geometry": {"type": "Point", "coordinates": [-77.4517423, 37.3850575]}, "type": "Feature", "properties": {"RecWater_No": 53, "Station_Desc": null, "OBJECTID": 147, "County": "CHESTERFIELD", "Notes": null, "WShed_Grp": "outside of City", "WShed_No": -99, "Alternate_ID": null, "VPDES": null, "Station_No": 673, "Type_": null, "Station_ID": "G01218", "Latitude": 37.38505, "Loc_Type": null, "Longitude": -77.45174}},
{"geometry": {"type": "Point", "coordinates": [-77.4653423, 37.3955875]}, "type": "Feature", "properties": {"RecWater_No": 34, "Station_Desc": null, "OBJECTID": 148, "County": "CHESTERFIELD", "Notes": null, "WShed_Grp": "outside of City", "WShed_No": -99, "Alternate_ID": null, "VPDES": null, "Station_No": 674, "Type_": null, "Station_ID": "G01219", "Latitude": 37.39558, "Loc_Type": null, "Longitude": -77.46534}},
{"geometry": {"type": "Point", "coordinates": [-77.4699623, 37.3913175]}, "type": "Feature", "properties": {"RecWater_No": 34, "Station_Desc": null, "OBJECTID": 149, "County": "CHESTERFIELD", "Notes": null, "WShed_Grp": "outside of City", "WShed_No": -99, "Alternate_ID": null, "VPDES": null, "Station_No": 675, "Type_": null, "Station_ID": "G01220", "Latitude": 37.39131, "Loc_Type": null, "Longitude": -77.46996}},
{"geometry": {"type": "Point", "coordinates": [-77.4843923, 37.3936975]}, "type": "Feature", "properties": {"RecWater_No": 103, "Station_Desc": null, "OBJECTID": 150, "County": "CHESTERFIELD", "Notes": null, "WShed_Grp": "outside of City", "WShed_No": -99, "Alternate_ID": null, "VPDES": null, "Station_No": 676, "Type_": null, "Station_ID": "G01221", "Latitude": 37.39369, "Loc_Type": null, "Longitude": -77.48439}},
{"geometry": {"type": "Point", "coordinates": [-77.4855923, 37.3813875]}, "type": "Feature", "properties": {"RecWater_No": 136, "Station_Desc": null, "OBJECTID": 151, "County": "CHESTERFIELD", "Notes": null, "WShed_Grp": "outside of City", "WShed_No": -99, "Alternate_ID": null, "VPDES": null, "Station_No": 677, "Type_": null, "Station_ID": "G01222", "Latitude": 37.38138, "Loc_Type": null, "Longitude": -77.48559}},
{"geometry": {"type": "Point", "coordinates": [-77.4183323, 37.3991875]}, "type": "Feature", "properties": {"RecWater_No": -999, "Station_Desc": null, "OBJECTID": 152, "County": "CHESTERFIELD", "Notes": null, "WShed_Grp": "outside of City", "WShed_No": -99, "Alternate_ID": null, "VPDES": null, "Station_No": 678, "Type_": null, "Station_ID": "G01223", "Latitude": 37.39918, "Loc_Type": null, "Longitude": -77.41833}},
{"geometry": {"type": "Point", "coordinates": [-77.3080923, 37.4578575]}, "type": "Feature", "properties": {"RecWater_No": 37, "Station_Desc": null, "OBJECTID": 153, "County": "HENRICO", "Notes": null, "WShed_Grp": "outside of City", "WShed_No": -99, "Alternate_ID": null, "VPDES": null, "Station_No": 679, "Type_": null, "Station_ID": "G02002", "Latitude": 37.45785, "Loc_Type": null, "Longitude": -77.30809}},
{"geometry": {"type": "Point", "coordinates": [-77.2158523, 37.4370475]}, "type": "Feature", "properties": {"RecWater_No": 143, "Station_Desc": null, "OBJECTID": 154, "County": "HENRICO", "Notes": null, "WShed_Grp": "outside of City", "WShed_No": -99, "Alternate_ID": null, "VPDES": null, "Station_No": 680, "Type_": null, "Station_ID": "G02003", "Latitude": 37.43704, "Loc_Type": null, "Longitude": -77.21585}},
{"geometry": {"type": "Point", "coordinates": [-77.2842723, 37.4433375]}, "type": "Feature", "properties": {"RecWater_No": 5, "Station_Desc": null, "OBJECTID": 155, "County": "HENRICO", "Notes": null, "WShed_Grp": "outside of City", "WShed_No": -99, "Alternate_ID": null, "VPDES": null, "Station_No": 681, "Type_": null, "Station_ID": "G02005", "Latitude": 37.44333, "Loc_Type": null, "Longitude": -77.28427}},
{"geometry": {"type": "Point", "coordinates": [-77.4687724, 37.5951975]}, "type": "Feature", "properties": {"RecWater_No": 138, "Station_Desc": null, "OBJECTID": 156, "County": "RICHMOND CITY", "Notes": null, "WShed_Grp": "Lower James-Chickahominy/MS4", "WShed_No": 32, "Alternate_ID": null, "VPDES": null, "Station_No": 698, "Type_": "River/Stream", "Station_ID": "G05200", "Latitude": 37.59519, "Loc_Type": "Stream", "Longitude": -77.46877}},
{"geometry": {"type": "Point", "coordinates": [-77.4803524, 37.5943075]}, "type": "Feature", "properties": {"RecWater_No": 70, "Station_Desc": null, "OBJECTID": 157, "County": "HENRICO", "Notes": null, "WShed_Grp": "outside of City", "WShed_No": -99, "Alternate_ID": null, "VPDES": null, "Station_No": 699, "Type_": null, "Station_ID": "G05201", "Latitude": 37.5943, "Loc_Type": null, "Longitude": -77.48035}},
{"geometry": {"type": "Point", "coordinates": [-77.4865324, 37.5996375]}, "type": "Feature", "properties": {"RecWater_No": 144, "Station_Desc": null, "OBJECTID": 158, "County": "HENRICO", "Notes": null, "WShed_Grp": "outside of City", "WShed_No": -99, "Alternate_ID": null, "VPDES": null, "Station_No": 700, "Type_": null, "Station_ID": "G05202", "Latitude": 37.59963, "Loc_Type": null, "Longitude": -77.48653}},
{"geometry": {"type": "Point", "coordinates": [-77.4664324, 37.5987875]}, "type": "Feature", "properties": {"RecWater_No": 144, "Station_Desc": null, "OBJECTID": 159, "County": "HENRICO", "Notes": null, "WShed_Grp": "Lower James-Chickahominy/MS4", "WShed_No": 32, "Alternate_ID": null, "VPDES": null, "Station_No": 701, "Type_": "River/Stream", "Station_ID": "G05203", "Latitude": 37.59878, "Loc_Type": null, "Longitude": -77.46643}},
{"geometry": {"type": "Point", "coordinates": [-77.4630924, 37.6080375]}, "type": "Feature", "properties": {"RecWater_No": 144, "Station_Desc": null, "OBJECTID": 160, "County": "HENRICO", "Notes": null, "WShed_Grp": "outside of City", "WShed_No": -99, "Alternate_ID": null, "VPDES": null, "Station_No": 702, "Type_": null, "Station_ID": "G05205", "Latitude": 37.60803, "Loc_Type": null, "Longitude": -77.46309}},
{"geometry": {"type": "Point", "coordinates": [-77.4444923, 37.6230075]}, "type": "Feature", "properties": {"RecWater_No": 47, "Station_Desc": null, "OBJECTID": 161, "County": "HENRICO", "Notes": null, "WShed_Grp": "outside of City", "WShed_No": -99, "Alternate_ID": null, "VPDES": null, "Station_No": 703, "Type_": null, "Station_ID": "G05208", "Latitude": 37.623, "Loc_Type": null, "Longitude": -77.44449}},
{"geometry": {"type": "Point", "coordinates": [-77.4227723, 37.6135875]}, "type": "Feature", "properties": {"RecWater_No": 144, "Station_Desc": null, "OBJECTID": 162, "County": "HENRICO", "Notes": null, "WShed_Grp": "outside of City", "WShed_No": -99, "Alternate_ID": null, "VPDES": null, "Station_No": 704, "Type_": null, "Station_ID": "G05209", "Latitude": 37.61358, "Loc_Type": null, "Longitude": -77.42277}},
{"geometry": {"type": "Point", "coordinates": [-77.5458024, 37.6056875]}, "type": "Feature", "properties": {"RecWater_No": 144, "Station_Desc": null, "OBJECTID": 163, "County": "HENRICO", "Notes": null, "WShed_Grp": "outside of City", "WShed_No": -99, "Alternate_ID": null, "VPDES": null, "Station_No": 705, "Type_": null, "Station_ID": "G05210", "Latitude": 37.60568, "Loc_Type": null, "Longitude": -77.5458}},
{"geometry": {"type": "Point", "coordinates": [-77.5008824, 37.6213975]}, "type": "Feature", "properties": {"RecWater_No": 134, "Station_Desc": null, "OBJECTID": 164, "County": "HENRICO", "Notes": null, "WShed_Grp": "outside of City", "WShed_No": -99, "Alternate_ID": null, "VPDES": null, "Station_No": 706, "Type_": null, "Station_ID": "G05211", "Latitude": 37.62139, "Loc_Type": null, "Longitude": -77.50088}},
{"geometry": {"type": "Point", "coordinates": [-77.2214723, 37.4752575]}, "type": "Feature", "properties": {"RecWater_No": 23, "Station_Desc": null, "OBJECTID": 165, "County": "HENRICO", "Notes": null, "WShed_Grp": "outside of City", "WShed_No": -99, "Alternate_ID": null, "VPDES": null, "Station_No": 707, "Type_": null, "Station_ID": "G06002", "Latitude": 37.47525, "Loc_Type": null, "Longitude": -77.22147}},
{"geometry": {"type": "Point", "coordinates": [-77.3158223, 37.4892475]}, "type": "Feature", "properties": {"RecWater_No": 152, "Station_Desc": null, "OBJECTID": 166, "County": "HENRICO", "Notes": null, "WShed_Grp": "outside of City", "WShed_No": -99, "Alternate_ID": null, "VPDES": null, "Station_No": 709, "Type_": null, "Station_ID": "G06005", "Latitude": 37.48924, "Loc_Type": null, "Longitude": -77.31582}},
{"geometry": {"type": "Point", "coordinates": [-77.2559123, 37.4837575]}, "type": "Feature", "properties": {"RecWater_No": -999, "Station_Desc": null, "OBJECTID": 167, "County": "HENRICO", "Notes": null, "WShed_Grp": "outside of City", "WShed_No": -99, "Alternate_ID": null, "VPDES": null, "Station_No": 710, "Type_": null, "Station_ID": "G06006", "Latitude": 37.48375, "Loc_Type": null, "Longitude": -77.25591}},
{"geometry": {"type": "Point", "coordinates": [-77.5488524, 37.5053475]}, "type": "Feature", "properties": {"RecWater_No": 102, "Station_Desc": null, "OBJECTID": 168, "County": "CHESTERFIELD", "Notes": null, "WShed_Grp": "outside of City", "WShed_No": -99, "Alternate_ID": null, "VPDES": null, "Station_No": 750, "Type_": null, "Station_ID": "H39200", "Latitude": 37.50534, "Loc_Type": null, "Longitude": -77.54885}},
{"geometry": {"type": "Point", "coordinates": [-77.5641124, 37.5211675]}, "type": "Feature", "properties": {"RecWater_No": 102, "Station_Desc": null, "OBJECTID": 169, "County": "CHESTERFIELD", "Notes": null, "WShed_Grp": "outside of City", "WShed_No": -99, "Alternate_ID": null, "VPDES": null, "Station_No": 751, "Type_": null, "Station_ID": "H39201", "Latitude": 37.52116, "Loc_Type": null, "Longitude": -77.56411}},
{"geometry": {"type": "Point", "coordinates": [-77.5897324, 37.5238475]}, "type": "Feature", "properties": {"RecWater_No": 102, "Station_Desc": null, "OBJECTID": 170, "County": "CHESTERFIELD", "Notes": null, "WShed_Grp": "outside of City", "WShed_No": -99, "Alternate_ID": null, "VPDES": null, "Station_No": 752, "Type_": null, "Station_ID": "H39202", "Latitude": 37.52384, "Loc_Type": null, "Longitude": -77.58973}},
{"geometry": {"type": "Point", "coordinates": [-77.5424404, 37.5607535]}, "type": "Feature", "properties": {"RecWater_No": 65, "Station_Desc": null, "OBJECTID": 171, "County": null, "Notes": "from Richmond MonitoringData folder; stations from G&H River Sampling", "WShed_Grp": null, "WShed_No": -99, "Alternate_ID": null, "VPDES": null, "Station_No": 753, "Type_": null, "Station_ID": "Huguenot", "Latitude": 37.560746, "Loc_Type": null, "Longitude": -77.542438}},
{"geometry": {"type": "Point", "coordinates": [-77.3115023, 37.3994075]}, "type": "Feature", "properties": {"RecWater_No": 65, "Station_Desc": null, "OBJECTID": 172, "County": "HENRICO", "Notes": null, "WShed_Grp": "outside of City", "WShed_No": -99, "Alternate_ID": null, "VPDES": null, "Station_No": 774, "Type_": null, "Station_ID": "JAM-30-96/97", "Latitude": 37.3994, "Loc_Type": null, "Longitude": -77.3115}},
{"geometry": {"type": "Point", "coordinates": [-77.2506923, 37.3819875]}, "type": "Feature", "properties": {"RecWater_No": 65, "Station_Desc": "(TIDAL) SHALLOWS OFF OF TURKEY ISLAND", "OBJECTID": 173, "County": "HENRICO", "Notes": null, "WShed_Grp": "outside of City", "WShed_No": -99, "Alternate_ID": null, "VPDES": null, "Station_No": 788, "Type_": null, "Station_ID": "JMS082.49", "Latitude": 37.38198, "Loc_Type": null, "Longitude": -77.25069}},
{"geometry": {"type": "Point", "coordinates": [-77.3474723, 37.3789075]}, "type": "Feature", "properties": {"RecWater_No": 65, "Station_Desc": "(TIDAL) CHANNEL AT I295 BRIDGE NEAR DUTCH GAP", "OBJECTID": 174, "County": "HENRICO", "Notes": null, "WShed_Grp": "outside of City", "WShed_No": -99, "Alternate_ID": null, "VPDES": null, "Station_No": 789, "Type_": null, "Station_ID": "JMS094.45", "Latitude": 37.3789, "Loc_Type": null, "Longitude": -77.34747}},
{"geometry": {"type": "Point", "coordinates": [-77.3870023, 37.4009875]}, "type": "Feature", "properties": {"RecWater_No": 65, "Station_Desc": "(TIDAL) DOCK AT OSBORNE LANDING PUBLIC BOAT RAMP", "OBJECTID": 175, "County": "HENRICO", "Notes": null, "WShed_Grp": "outside of City", "WShed_No": -99, "Alternate_ID": null, "VPDES": null, "Station_No": 790, "Type_": null, "Station_ID": "JMS099.00", "Latitude": 37.40098, "Loc_Type": null, "Longitude": -77.387}},
{"geometry": {"type": "Point", "coordinates": [-77.4188323, 37.4500075]}, "type": "Feature", "properties": {"RecWater_No": 65, "Station_Desc": "(TIDAL) DEQ LONG TERM MONITORING STATION AT RED BUOY 166", "OBJECTID": 176, "County": "RICHMOND CITY", "Notes": null, "WShed_Grp": "Lower James/MS4", "WShed_No": 21, "Alternate_ID": "2-JMS104.16", "VPDES": null, "Station_No": 791, "Type_": "Tidal Freshwater", "Station_ID": "JMS104.16", "Latitude": 37.45, "Loc_Type": null, "Longitude": -77.41883}},
{"geometry": {"type": "Point", "coordinates": [-77.4197863, 37.5230885]}, "type": "Feature", "properties": {"RecWater_No": 65, "Station_Desc": "(TIDAL) CHANNEL AT I95 BRIDGE IN DOWNTOWN RICHMOND", "OBJECTID": 177, "County": "RICHMOND CITY", "Notes": "original L/L of 37.52645, -77.41303 was incorrect", "WShed_Grp": "Lower James/CSO", "WShed_No": 11, "Alternate_ID": null, "VPDES": null, "Station_No": 792, "Type_": "Tidal Freshwater", "Station_ID": "JMS109.62", "Latitude": 37.523081, "Loc_Type": null, "Longitude": -77.419784}},
{"geometry": {"type": "Point", "coordinates": [-77.2836123, 37.3177875]}, "type": "Feature", "properties": {"RecWater_No": 65, "Station_Desc": null, "OBJECTID": 178, "County": "CHESTERFIELD", "Notes": null, "WShed_Grp": "outside of City", "WShed_No": -99, "Alternate_ID": null, "VPDES": null, "Station_No": 801, "Type_": null, "Station_ID": "L0000784", "Latitude": 37.31778, "Loc_Type": null, "Longitude": -77.28361}},
{"geometry": {"type": "Point", "coordinates": [-77.2705423, 37.3556775]}, "type": "Feature", "properties": {"RecWater_No": 65, "Station_Desc": null, "OBJECTID": 179, "County": "HENRICO", "Notes": null, "WShed_Grp": "outside of City", "WShed_No": -99, "Alternate_ID": null, "VPDES": null, "Station_No": 803, "Type_": null, "Station_ID": "L0000788", "Latitude": 37.35567, "Loc_Type": null, "Longitude": -77.27054}},
{"geometry": {"type": "Point", "coordinates": [-77.2678023, 37.3631075]}, "type": "Feature", "properties": {"RecWater_No": 65, "Station_Desc": null, "OBJECTID": 180, "County": "HENRICO", "Notes": null, "WShed_Grp": "outside of City", "WShed_No": -99, "Alternate_ID": null, "VPDES": null, "Station_No": 808, "Type_": null, "Station_ID": "L0000914", "Latitude": 37.3631, "Loc_Type": null, "Longitude": -77.2678}},
{"geometry": {"type": "Point", "coordinates": [-77.4211023, 37.5233075]}, "type": "Feature", "properties": {"RecWater_No": 65, "Station_Desc": null, "OBJECTID": 181, "County": "RICHMOND CITY", "Notes": null, "WShed_Grp": "Lower James/CSO", "WShed_No": 13, "Alternate_ID": null, "VPDES": null, "Station_No": 814, "Type_": "Tidal Freshwater", "Station_ID": "L0001004", "Latitude": 37.5233, "Loc_Type": null, "Longitude": -77.4211}},
{"geometry": {"type": "Point", "coordinates": [-77.3937483, 37.4106465]}, "type": "Feature", "properties": {"RecWater_No": 65, "Station_Desc": null, "OBJECTID": 182, "County": "HENRICO", "Notes": null, "WShed_Grp": "outside of City", "WShed_No": -99, "Alternate_ID": null, "VPDES": null, "Station_No": 838, "Type_": null, "Station_ID": "MAIA98-004", "Latitude": 37.410639, "Loc_Type": null, "Longitude": -77.393746}},
{"geometry": {"type": "Point", "coordinates": [-77.4342073, 37.5277005]}, "type": "Feature", "properties": {"RecWater_No": 65, "Station_Desc": null, "OBJECTID": 183, "County": null, "Notes": null, "WShed_Grp": "Lower James/CSO", "WShed_No": 13, "Alternate_ID": null, "VPDES": null, "Station_No": 840, "Type_": "Tidal Freshwater", "Station_ID": "Mayo", "Latitude": 37.527693, "Loc_Type": null, "Longitude": -77.434205}},
{"geometry": {"type": "Point", "coordinates": [-77.6327803, 37.47701]}, "type": "Feature", "properties": {"RecWater_No": 45, "Station_Desc": null, "OBJECTID": 184, "County": "CHESTERFIELD", "Notes": null, "WShed_Grp": "outside of City", "WShed_No": -99, "Alternate_ID": null, "VPDES": null, "Station_No": 849, "Type_": null, "Station_ID": "NLA06608-R326_A", "Latitude": 37.4770025, "Loc_Type": null, "Longitude": -77.6327779}},
{"geometry": {"type": "Point", "coordinates": [-77.3293023, 37.3351075]}, "type": "Feature", "properties": {"RecWater_No": 66, "Station_Desc": null, "OBJECTID": 185, "County": "CHESTERFIELD", "Notes": null, "WShed_Grp": "outside of City", "WShed_No": -99, "Alternate_ID": null, "VPDES": null, "Station_No": 854, "Type_": null, "Station_ID": "PETE_NURE_0012", "Latitude": 37.3351, "Loc_Type": null, "Longitude": -77.3293}},
{"geometry": {"type": "Point", "coordinates": [-77.5671024, 37.6713075]}, "type": "Feature", "properties": {"RecWater_No": -999, "Station_Desc": null, "OBJECTID": 186, "County": "HENRICO", "Notes": null, "WShed_Grp": "outside of City", "WShed_No": -99, "Alternate_ID": null, "VPDES": null, "Station_No": 862, "Type_": null, "Station_ID": "PQAQCHGEB", "Latitude": 37.6713, "Loc_Type": null, "Longitude": -77.5671}},
{"geometry": {"type": "Point", "coordinates": [-76.7903221, 37.2129354]}, "type": "Feature", "properties": {"RecWater_No": 65, "Station_Desc": "(TIDAL) SWANN'S POINT; JAMES RIVER WQMP STA#19", "OBJECTID": 187, "County": null, "Notes": "Buoy data", "WShed_Grp": null, "WShed_No": -999, "Alternate_ID": null, "VPDES": null, "Station_No": 864, "Type_": null, "Station_ID": "RET5.2", "Latitude": 37.212928, "Loc_Type": null, "Longitude": -76.79032}},
{"geometry": {"type": "Point", "coordinates": [-77.3333323, 37.5000075]}, "type": "Feature", "properties": {"RecWater_No": -99, "Station_Desc": "RICHMOND INTERNATIONAL AIRPORT VA US", "OBJECTID": 188, "County": "HENRICO", "Notes": null, "WShed_Grp": "outside of City", "WShed_No": -99, "Alternate_ID": "GHCND:USW00013740", "VPDES": null, "Station_No": 869, "Type_": null, "Station_ID": "RIA", "Latitude": 37.5, "Loc_Type": null, "Longitude": -77.33333}},
{"geometry": {"type": "Point", "coordinates": [-77.423669, 37.4208964]}, "type": "Feature", "properties": {"RecWater_No": -999, "Station_Desc": "LEACHATE SEEP AT FORT DARLING LANDFILL", "OBJECTID": 189, "County": "CHESTERFIELD", "Notes": null, "WShed_Grp": "outside of City", "WShed_No": -99, "Alternate_ID": null, "VPDES": null, "Station_No": 871, "Type_": "River/Stream", "Station_ID": "RICH_DAA_LCP-01", "Latitude": 37.4208889, "Loc_Type": "Stream", "Longitude": -77.4236667}},
{"geometry": {"type": "Point", "coordinates": [-77.4238356, 37.4213408]}, "type": "Feature", "properties": {"RecWater_No": -999, "Station_Desc": "UNNAMED STREAM UPSTREAM OF LEACHATE SEEPS", "OBJECTID": 190, "County": "CHESTERFIELD", "Notes": null, "WShed_Grp": "outside of City", "WShed_No": -99, "Alternate_ID": null, "VPDES": null, "Station_No": 872, "Type_": "River/Stream", "Station_ID": "RICH_DAA_SS-01", "Latitude": 37.4213333, "Loc_Type": "Stream", "Longitude": -77.4238333}},
{"geometry": {"type": "Point", "coordinates": [-77.4231134, 37.4206186]}, "type": "Feature", "properties": {"RecWater_No": -999, "Station_Desc": "UNNAMED STREAM DOWNSTREAM OF LARGEST SEEP", "OBJECTID": 191, "County": "CHESTERFIELD", "Notes": null, "WShed_Grp": "outside of City", "WShed_No": -99, "Alternate_ID": null, "VPDES": null, "Station_No": 873, "Type_": "River/Stream", "Station_ID": "RICH_DAA_SS-02", "Latitude": 37.4206111, "Loc_Type": "Stream", "Longitude": -77.4231111}},
{"geometry": {"type": "Point", "coordinates": [-77.4215856, 37.4204519]}, "type": "Feature", "properties": {"RecWater_No": -999, "Station_Desc": "UNNAMED STREAM DOWNSTREAM OF ALL SEEPS", "OBJECTID": 192, "County": "CHESTERFIELD", "Notes": null, "WShed_Grp": "outside of City", "WShed_No": -99, "Alternate_ID": null, "VPDES": null, "Station_No": 874, "Type_": "River/Stream", "Station_ID": "RICH_DAA_SS-03", "Latitude": 37.4204444, "Loc_Type": "Stream", "Longitude": -77.4215833}},
{"geometry": {"type": "Point", "coordinates": [-77.4247801, 37.4222019]}, "type": "Feature", "properties": {"RecWater_No": -999, "Station_Desc": "LANDFILL ASSESSMENT FOR RICH STATION FD-01", "OBJECTID": 193, "County": "CHESTERFIELD", "Notes": null, "WShed_Grp": "outside of City", "WShed_No": -99, "Alternate_ID": null, "VPDES": null, "Station_No": 875, "Type_": "River/Stream", "Station_ID": "RICH_FD_01", "Latitude": 37.4221944, "Loc_Type": "Stream", "Longitude": -77.4247778}},
{"geometry": {"type": "Point", "coordinates": [-77.4238356, 37.4213408]}, "type": "Feature", "properties": {"RecWater_No": -999, "Station_Desc": "LANDFILL ASSESSMENT FOR RICH STATION FD-02", "OBJECTID": 194, "County": "CHESTERFIELD", "Notes": null, "WShed_Grp": "outside of City", "WShed_No": -99, "Alternate_ID": null, "VPDES": null, "Station_No": 876, "Type_": "River/Stream", "Station_ID": "RICH_FD_02", "Latitude": 37.4213333, "Loc_Type": "Stream", "Longitude": -77.4238333}},
{"geometry": {"type": "Point", "coordinates": [-77.4234467, 37.4209519]}, "type": "Feature", "properties": {"RecWater_No": -999, "Station_Desc": "LANDFILL ASSESSMENT FOR RICH STATION FD-03", "OBJECTID": 195, "County": "CHESTERFIELD", "Notes": null, "WShed_Grp": "outside of City", "WShed_No": -99, "Alternate_ID": null, "VPDES": null, "Station_No": 877, "Type_": "River/Stream", "Station_ID": "RICH_FD_03", "Latitude": 37.4209444, "Loc_Type": "Stream", "Longitude": -77.4234444}},
{"geometry": {"type": "Point", "coordinates": [-77.4231134, 37.4206186]}, "type": "Feature", "properties": {"RecWater_No": -999, "Station_Desc": "LANDFILL ASSESSMENT FOR RICH STATION FD-04", "OBJECTID": 196, "County": "CHESTERFIELD", "Notes": null, "WShed_Grp": "outside of City", "WShed_No": -99, "Alternate_ID": null, "VPDES": null, "Station_No": 878, "Type_": "River/Stream", "Station_ID": "RICH_FD_04", "Latitude": 37.4206111, "Loc_Type": "Stream", "Longitude": -77.4231111}},
{"geometry": {"type": "Point", "coordinates": [-77.4208356, 37.4212019]}, "type": "Feature", "properties": {"RecWater_No": -999, "Station_Desc": "LANDFILL ASSESSMENT FOR RICH STATION FD-05", "OBJECTID": 197, "County": "CHESTERFIELD", "Notes": null, "WShed_Grp": "outside of City", "WShed_No": -99, "Alternate_ID": null, "VPDES": null, "Station_No": 879, "Type_": "River/Stream", "Station_ID": "RICH_FD_05", "Latitude": 37.4211944, "Loc_Type": "Stream", "Longitude": -77.4208333}},
{"geometry": {"type": "Point", "coordinates": [-77.4207245, 37.4216464]}, "type": "Feature", "properties": {"RecWater_No": -999, "Station_Desc": "LANDFILL ASSESSMENT FOR RICH STATION FD-06", "OBJECTID": 198, "County": "CHESTERFIELD", "Notes": null, "WShed_Grp": "outside of City", "WShed_No": -99, "Alternate_ID": null, "VPDES": null, "Station_No": 880, "Type_": "River/Stream", "Station_ID": "RICH_FD_06", "Latitude": 37.4216389, "Loc_Type": "Stream", "Longitude": -77.4207222}},
{"geometry": {"type": "Point", "coordinates": [-77.3866412, 37.5839519]}, "type": "Feature", "properties": {"RecWater_No": -999, "Station_Desc": "Chickahominy", "OBJECTID": 199, "County": "HENRICO", "Notes": null, "WShed_Grp": "outside of City", "WShed_No": -99, "Alternate_ID": null, "VPDES": null, "Station_No": 883, "Type_": "River/Stream", "Station_ID": "RICH_NF_C", "Latitude": 37.5839444, "Loc_Type": "Stream", "Longitude": -77.3866389}},
{"geometry": {"type": "Point", "coordinates": [-77.4238356, 37.4212575]}, "type": "Feature", "properties": {"RecWater_No": -999, "Station_Desc": "Fort Darling Creek", "OBJECTID": 200, "County": "CHESTERFIELD", "Notes": null, "WShed_Grp": "outside of City", "WShed_No": -99, "Alternate_ID": null, "VPDES": null, "Station_No": 885, "Type_": "River/Stream", "Station_ID": "RICH_NF_FDC", "Latitude": 37.42125, "Loc_Type": "Stream", "Longitude": -77.4238333}},
{"geometry": {"type": "Point", "coordinates": [-77.3734467, 37.4253408]}, "type": "Feature", "properties": {"RecWater_No": -999, "Station_Desc": "Fort Harrison Moat", "OBJECTID": 201, "County": "HENRICO", "Notes": null, "WShed_Grp": "outside of City", "WShed_No": -99, "Alternate_ID": null, "VPDES": null, "Station_No": 886, "Type_": "River/Stream", "Station_ID": "RICH_NF_FHM", "Latitude": 37.4253333, "Loc_Type": "Stream", "Longitude": -77.3734444}},
{"geometry": {"type": "Point", "coordinates": [-77.4209745, 37.4218964]}, "type": "Feature", "properties": {"RecWater_No": -999, "Station_Desc": "MOUTH OF AN UNNAMED TRIBUTARY AT JAMES RIVER", "OBJECTID": 202, "County": "CHESTERFIELD", "Notes": null, "WShed_Grp": "outside of City", "WShed_No": -99, "Alternate_ID": null, "VPDES": null, "Station_No": 887, "Type_": "River/Stream", "Station_ID": "RICH_NPS_1", "Latitude": 37.4218889, "Loc_Type": "Stream", "Longitude": -77.4209722}},
{"geometry": {"type": "Point", "coordinates": [-77.4210856, 37.4209797]}, "type": "Feature", "properties": {"RecWater_No": -999, "Station_Desc": "UNNAMED TRIBUTARY OF JAMES RIVER", "OBJECTID": 203, "County": "CHESTERFIELD", "Notes": null, "WShed_Grp": "outside of City", "WShed_No": -99, "Alternate_ID": null, "VPDES": null, "Station_No": 888, "Type_": "River/Stream", "Station_ID": "RICH_NPS_2", "Latitude": 37.4209722, "Loc_Type": "Stream", "Longitude": -77.4210833}},
{"geometry": {"type": "Point", "coordinates": [-77.4218912, 37.4203686]}, "type": "Feature", "properties": {"RecWater_No": -999, "Station_Desc": "UNNAMED TRIBUTARY OF JAMES RIVER", "OBJECTID": 204, "County": "CHESTERFIELD", "Notes": null, "WShed_Grp": "outside of City", "WShed_No": -99, "Alternate_ID": null, "VPDES": null, "Station_No": 889, "Type_": "River/Stream", "Station_ID": "RICH_NPS_3", "Latitude": 37.4203611, "Loc_Type": "Stream", "Longitude": -77.4218889}},
{"geometry": {"type": "Point", "coordinates": [-77.4230023, 37.4207297]}, "type": "Feature", "properties": {"RecWater_No": -999, "Station_Desc": "UNNAMED TRIBUTARY OF JAMES RIVER", "OBJECTID": 205, "County": "CHESTERFIELD", "Notes": null, "WShed_Grp": "outside of City", "WShed_No": -99, "Alternate_ID": null, "VPDES": null, "Station_No": 890, "Type_": "River/Stream", "Station_ID": "RICH_NPS_4", "Latitude": 37.4207222, "Loc_Type": "Stream", "Longitude": -77.423}},
{"geometry": {"type": "Point", "coordinates": [-77.4238356, 37.4212575]}, "type": "Feature", "properties": {"RecWater_No": -999, "Station_Desc": "UNNAMED TRIBUTARY OF JAMES RIVER", "OBJECTID": 206, "County": "CHESTERFIELD", "Notes": null, "WShed_Grp": "outside of City", "WShed_No": -99, "Alternate_ID": null, "VPDES": null, "Station_No": 891, "Type_": "River/Stream", "Station_ID": "RICH_NPS_5", "Latitude": 37.42125, "Loc_Type": "Stream", "Longitude": -77.4238333}},
{"geometry": {"type": "Point", "coordinates": [-77.4247245, 37.4218964]}, "type": "Feature", "properties": {"RecWater_No": -999, "Station_Desc": "POINT WHERE UNNAMED TRIB OF JAMES R. ENTERS PARK", "OBJECTID": 207, "County": "CHESTERFIELD", "Notes": null, "WShed_Grp": "outside of City", "WShed_No": -99, "Alternate_ID": null, "VPDES": null, "Station_No": 892, "Type_": "River/Stream", "Station_ID": "RICH_NPS_6", "Latitude": 37.4218889, "Loc_Type": "Stream", "Longitude": -77.4247222}},
{"geometry": {"type": "Point", "coordinates": [-77.4525023, 37.3891075]}, "type": "Feature", "properties": {"RecWater_No": 34, "Station_Desc": "VACE030S1", "OBJECTID": 208, "County": "CHESTERFIELD", "Notes": null, "WShed_Grp": "outside of City", "WShed_No": -99, "Alternate_ID": null, "VPDES": null, "Station_No": 898, "Type_": "River/Stream", "Station_ID": "RICH_NURE_0013", "Latitude": 37.3891, "Loc_Type": "Stream", "Longitude": -77.4525}},
{"geometry": {"type": "Point", "coordinates": [-77.4394023, 37.4111075]}, "type": "Feature", "properties": {"RecWater_No": 74, "Station_Desc": "VACE031S1", "OBJECTID": 209, "County": "CHESTERFIELD", "Notes": null, "WShed_Grp": "outside of City", "WShed_No": -99, "Alternate_ID": null, "VPDES": null, "Station_No": 899, "Type_": "River/Stream", "Station_ID": "RICH_NURE_0014", "Latitude": 37.4111, "Loc_Type": "Stream", "Longitude": -77.4394}},
{"geometry": {"type": "Point", "coordinates": [-77.4851023, 37.4197075]}, "type": "Feature", "properties": {"RecWater_No": 74, "Station_Desc": "VACE032S1", "OBJECTID": 210, "County": "CHESTERFIELD", "Notes": null, "WShed_Grp": "outside of City", "WShed_No": -99, "Alternate_ID": null, "VPDES": null, "Station_No": 900, "Type_": "River/Stream", "Station_ID": "RICH_NURE_0015", "Latitude": 37.4197, "Loc_Type": "Stream", "Longitude": -77.4851}},
{"geometry": {"type": "Point", "coordinates": [-77.5439024, 37.4164075]}, "type": "Feature", "properties": {"RecWater_No": -999, "Station_Desc": "VACE033S1", "OBJECTID": 211, "County": "CHESTERFIELD", "Notes": null, "WShed_Grp": "outside of City", "WShed_No": -99, "Alternate_ID": "VACE033S1", "VPDES": null, "Station_No": 901, "Type_": "River/Stream", "Station_ID": "RICH_NURE_0016", "Latitude": 37.4164, "Loc_Type": "Stream", "Longitude": -77.5439}},
{"geometry": {"type": "Point", "coordinates": [-77.5202024, 37.4616075]}, "type": "Feature", "properties": {"RecWater_No": 96, "Station_Desc": "VACE034S1", "OBJECTID": 212, "County": "CHESTERFIELD", "Notes": null, "WShed_Grp": "outside of City", "WShed_No": -99, "Alternate_ID": null, "VPDES": null, "Station_No": 902, "Type_": "River/Stream", "Station_ID": "RICH_NURE_0017", "Latitude": 37.4616, "Loc_Type": "Stream", "Longitude": -77.5202}},
{"geometry": {"type": "Point", "coordinates": [-77.2108023, 37.5023075]}, "type": "Feature", "properties": {"RecWater_No": 127, "Station_Desc": "The station is located on the QUINTON, VA 1:24000 scale series topographic quadrangle.  The site, described as a stream, was retrieved from the online USGS Open-File Report 97-492, 'National Geochemical Database, Reformatted Data from the National Uranium", "OBJECTID": 213, "County": "HENRICO", "Notes": null, "WShed_Grp": "outside of City", "WShed_No": -99, "Alternate_ID": "VAHE001S1", "VPDES": null, "Station_No": 903, "Type_": "River/Stream", "Station_ID": "RICH_NURE_0018", "Latitude": 37.5023, "Loc_Type": "Stream", "Longitude": -77.2108}},
{"geometry": {"type": "Point", "coordinates": [-77.2092023, 37.4666075]}, "type": "Feature", "properties": {"RecWater_No": 152, "Station_Desc": "The station is located on the ROXBURY, VA 1:24000 scale series topographic quadrangle.  The site, described as a stream, was retrieved from the online USGS Open-File Report 97-492, 'National Geochemical Database, Reformatted Data from the National Uranium", "OBJECTID": 214, "County": "HENRICO", "Notes": null, "WShed_Grp": "outside of City", "WShed_No": -99, "Alternate_ID": "VAHE002S1", "VPDES": null, "Station_No": 904, "Type_": "River/Stream", "Station_ID": "RICH_NURE_0019", "Latitude": 37.4666, "Loc_Type": "Stream", "Longitude": -77.2092}},
{"geometry": {"type": "Point", "coordinates": [-77.2155023, 37.4357075]}, "type": "Feature", "properties": {"RecWater_No": 143, "Station_Desc": "The station is located on the ROXBURY, VA 1:24000 scale series topographic quadrangle.  The site, described as a stream, was retrieved from the online USGS Open-File Report 97-492, 'National Geochemical Database, Reformatted Data from the National Uranium", "OBJECTID": 215, "County": "HENRICO", "Notes": null, "WShed_Grp": "outside of City", "WShed_No": -99, "Alternate_ID": "VAHE003S1", "VPDES": null, "Station_No": 905, "Type_": "River/Stream", "Station_ID": "RICH_NURE_0020", "Latitude": 37.4357, "Loc_Type": "Stream", "Longitude": -77.2155}},
{"geometry": {"type": "Point", "coordinates": [-77.2457023, 37.4195075]}, "type": "Feature", "properties": {"RecWater_No": 151, "Station_Desc": "The station is located on the ROXBURY, VA 1:24000 scale series topographic quadrangle.  The site, described as a stream, was retrieved from the online USGS Open-File Report 97-492, 'National Geochemical Database, Reformatted Data from the National Uranium", "OBJECTID": 216, "County": "HENRICO", "Notes": null, "WShed_Grp": "outside of City", "WShed_No": -99, "Alternate_ID": "VAHE004S1", "VPDES": null, "Station_No": 906, "Type_": "River/Stream", "Station_ID": "RICH_NURE_0021", "Latitude": 37.4195, "Loc_Type": "Stream", "Longitude": -77.2457}},
{"geometry": {"type": "Point", "coordinates": [-77.2622023, 37.4689075]}, "type": "Feature", "properties": {"RecWater_No": 36, "Station_Desc": "The station is located on the DUTCH GAP, VA 1:24000 scale series topographic quadrangle.  The site, described as a stream, was retrieved from the online USGS Open-File Report 97-492, 'National Geochemical Database, Reformatted Data from the National Urani", "OBJECTID": 217, "County": "HENRICO", "Notes": null, "WShed_Grp": "outside of City", "WShed_No": -99, "Alternate_ID": "VAHE005S1", "VPDES": null, "Station_No": 907, "Type_": "River/Stream", "Station_ID": "RICH_NURE_0022", "Latitude": 37.4689, "Loc_Type": "Stream", "Longitude": -77.2622}},
{"geometry": {"type": "Point", "coordinates": [-77.2687023, 37.4846075]}, "type": "Feature", "properties": {"RecWater_No": 152, "Station_Desc": "The station is located on the DUTCH GAP, VA 1:24000 scale series topographic quadrangle.  The site, described as a stream, was retrieved from the online USGS Open-File Report 97-492, 'National Geochemical Database, Reformatted Data from the National Urani", "OBJECTID": 218, "County": "HENRICO", "Notes": null, "WShed_Grp": "outside of City", "WShed_No": -99, "Alternate_ID": "VAHE006S1", "VPDES": null, "Station_No": 908, "Type_": "River/Stream", "Station_ID": "RICH_NURE_0023", "Latitude": 37.4846, "Loc_Type": "Stream", "Longitude": -77.2687}},
{"geometry": {"type": "Point", "coordinates": [-77.3093023, 37.4873075]}, "type": "Feature", "properties": {"RecWater_No": 152, "Station_Desc": "The station is located on the DUTCH GAP, VA 1:24000 scale series topographic quadrangle.  The site, described as a stream, was retrieved from the online USGS Open-File Report 97-492, 'National Geochemical Database, Reformatted Data from the National Urani", "OBJECTID": 219, "County": "HENRICO", "Notes": null, "WShed_Grp": "outside of City", "WShed_No": -99, "Alternate_ID": "VAHE007S1", "VPDES": null, "Station_No": 909, "Type_": "River/Stream", "Station_ID": "RICH_NURE_0024", "Latitude": 37.4873, "Loc_Type": "Stream", "Longitude": -77.3093}},
{"geometry": {"type": "Point", "coordinates": [-77.3073023, 37.4573075]}, "type": "Feature", "properties": {"RecWater_No": 37, "Station_Desc": "The station is located on the DUTCH GAP, VA 1:24000 scale series topographic quadrangle.  The site, described as a stream, was retrieved from the online USGS Open-File Report 97-492, 'National Geochemical Database, Reformatted Data from the National Urani", "OBJECTID": 220, "County": "HENRICO", "Notes": null, "WShed_Grp": "outside of City", "WShed_No": -99, "Alternate_ID": "VAHE008S1", "VPDES": null, "Station_No": 910, "Type_": "River/Stream", "Station_ID": "RICH_NURE_0025", "Latitude": 37.4573, "Loc_Type": "Stream", "Longitude": -77.3073}},
{"geometry": {"type": "Point", "coordinates": [-77.2905023, 37.4284075]},